time,.header.seq,.header.stamp.secs,.header.stamp.nsecs,.header.frame_id,.twist.linear.x,.twist.linear.y,.twist.linear.z,.twist.angular.x,.twist.angular.y,.twist.angular.z
2024/05/14/15:15:58.553402,42714,1715714158,553159956,base_link,-1.399794137349815e-05,0.0,0.0,0.0,0.0,7.952806786720108e-09
2024/05/14/15:15:58.573711,42715,1715714158,573130895,base_link,-2.206600780135906e-05,0.0,0.0,0.0,0.0,1.8072898637515847e-08
2024/05/14/15:15:58.593943,42716,1715714158,593663416,base_link,-2.2298980544176618e-05,0.0,0.0,0.0,0.0,7.199554579034216e-09
2024/05/14/15:15:58.613782,42717,1715714158,613509254,base_link,-2.1908362529921028e-05,0.0,0.0,0.0,0.0,5.590354363155507e-09
2024/05/14/15:15:58.633097,42718,1715714158,632891147,base_link,-2.128784863398754e-05,0.0,0.0,0.0,0.0,4.918478831327451e-09
2024/05/14/15:15:58.653224,42719,1715714158,652968620,base_link,-2.0584017144238064e-05,0.0,0.0,0.0,0.0,4.5364072727931405e-09
2024/05/14/15:15:58.673300,42720,1715714158,673026844,base_link,-6.200162906093222e-05,0.0,0.0,0.0,0.0,-1.0044450685656833e-07
2024/05/14/15:15:58.694117,42721,1715714158,693789327,base_link,-7.324244622130974e-05,0.0,0.0,0.0,0.0,-5.0884560414419724e-08
2024/05/14/15:15:58.714037,42722,1715714158,713721765,base_link,-7.723643937644368e-05,0.0,0.0,0.0,0.0,-4.334380347744229e-08
2024/05/14/15:15:58.735189,42723,1715714158,733415547,base_link,-7.813379051383479e-05,0.0,0.0,0.0,0.0,-4.006015141537722e-08
2024/05/14/15:15:58.755843,42724,1715714158,753392714,base_link,-7.75337511205024e-05,0.0,0.0,0.0,0.0,-3.809689074540915e-08
2024/05/14/15:15:58.774501,42725,1715714158,774157410,base_link,-5.670247115552924e-05,0.0,0.0,0.0,0.0,1.8037025591590203e-08
2024/05/14/15:15:58.793347,42726,1715714158,793065628,base_link,-3.421987254235151e-05,0.0,0.0,0.0,0.0,1.6571493911062482e-08
2024/05/14/15:15:58.813254,42727,1715714158,812988824,base_link,-2.2046255779215037e-05,0.0,0.0,0.0,0.0,1.6176518851852993e-08
2024/05/14/15:15:58.833951,42728,1715714158,833670690,base_link,-1.461119247012365e-05,0.0,0.0,0.0,0.0,1.5894806626969088e-08
2024/05/14/15:15:58.853894,42729,1715714158,853523958,base_link,-9.719759667948084e-06,0.0,0.0,0.0,0.0,1.5651717553243847e-08
2024/05/14/15:15:58.874221,42730,1715714158,873527619,base_link,-6.336294225429002e-06,0.0,0.0,0.0,0.0,1.542839624085369e-08
2024/05/14/15:15:58.894142,42731,1715714158,893789784,base_link,-1.7159629643843337e-05,0.0,0.0,0.0,0.0,7.509973765638938e-09
2024/05/14/15:15:58.914176,42732,1715714158,913874292,base_link,-2.2174391029735547e-05,0.0,0.0,0.0,0.0,6.312014582900501e-09
2024/05/14/15:15:58.933244,42733,1715714158,932993805,base_link,-2.4619447619723926e-05,0.0,0.0,0.0,0.0,5.7947384707018675e-09
2024/05/14/15:15:58.953849,42734,1715714158,953553640,base_link,1.4652248336633543e-05,0.0,0.0,0.0,0.0,5.3590073381676506e-08
2024/05/14/15:15:58.973768,42735,1715714158,973270252,base_link,4.052381123867236e-05,0.0,0.0,0.0,0.0,8.888392472933145e-08
2024/05/14/15:15:58.993993,42736,1715714158,993709246,base_link,4.7120912201376456e-05,0.0,0.0,0.0,0.0,3.273100706978039e-08
2024/05/14/15:15:59.013742,42737,1715714159,13458059,base_link,4.9428632887480055e-05,0.0,0.0,0.0,0.0,2.4470637901481093e-08
2024/05/14/15:15:59.033856,42738,1715714159,33386821,base_link,4.9908665344230507e-05,0.0,0.0,0.0,0.0,2.105456130560415e-08
2024/05/14/15:15:59.053679,42739,1715714159,53424512,base_link,4.9508543023676116e-05,0.0,0.0,0.0,0.0,1.9135257689793035e-08
2024/05/14/15:15:59.075424,42740,1715714159,73643855,base_link,1.998450569977334e-05,0.0,0.0,0.0,0.0,-1.9131766028417423e-08
2024/05/14/15:15:59.093862,42741,1715714159,93603529,base_link,-3.008231678998043e-07,0.0,0.0,0.0,0.0,-1.333449598838617e-08
2024/05/14/15:15:59.113786,42742,1715714159,113476937,base_link,-1.0553497418615038e-05,0.0,0.0,0.0,0.0,-1.2367714467582688e-08
2024/05/14/15:15:59.133319,42743,1715714159,132946201,base_link,-1.6278957033432567e-05,0.0,0.0,0.0,0.0,-1.1892701662861928e-08
2024/05/14/15:15:59.153182,42744,1715714159,152909583,base_link,-1.963318405045055e-05,0.0,0.0,0.0,0.0,-1.1571944884771405e-08
2024/05/14/15:15:59.173568,42745,1715714159,173119625,base_link,-5.833564395179195e-06,0.0,0.0,0.0,0.0,-1.5685422162672992e-08
2024/05/14/15:15:59.193237,42746,1715714159,192936004,base_link,2.8645800258178996e-06,0.0,0.0,0.0,0.0,-5.497126464930406e-09
2024/05/14/15:15:59.214179,42747,1715714159,213056464,base_link,7.114523485886753e-06,0.0,0.0,0.0,0.0,-4.0034190578217685e-09
2024/05/14/15:15:59.233161,42748,1715714159,232936303,base_link,9.373151673936299e-06,0.0,0.0,0.0,0.0,-3.3890178233214132e-09
2024/05/14/15:15:59.253246,42749,1715714159,253020482,base_link,1.5192842159333775e-05,0.0,0.0,0.0,0.0,7.84562898372767e-09
2024/05/14/15:15:59.274726,42750,1715714159,273850147,base_link,1.8962741466065e-05,0.0,0.0,0.0,0.0,1.602215005107745e-08
2024/05/14/15:15:59.293745,42751,1715714159,293496182,base_link,1.7488646250695867e-05,0.0,0.0,0.0,0.0,6.23539706336758e-09
2024/05/14/15:15:59.313830,42752,1715714159,313554767,base_link,1.6401188781879568e-05,0.0,0.0,0.0,0.0,4.789635424159376e-09
2024/05/14/15:15:59.333695,42753,1715714159,333425709,base_link,1.552405664362454e-05,0.0,0.0,0.0,0.0,4.187727918746388e-09
2024/05/14/15:15:59.353631,42754,1715714159,353406298,base_link,1.478271265004081e-05,0.0,0.0,0.0,0.0,3.846675151880423e-09
2024/05/14/15:15:59.373714,42755,1715714159,373172596,base_link,5.509214261411966e-05,0.0,0.0,0.0,0.0,-8.588128072400024e-08
2024/05/14/15:15:59.393215,42756,1715714159,392949141,base_link,6.71190412484977e-05,0.0,0.0,0.0,0.0,-4.3497729604208036e-08
2024/05/14/15:15:59.413281,42757,1715714159,413051102,base_link,7.171971246383532e-05,0.0,0.0,0.0,0.0,-3.7047581446957784e-08
2024/05/14/15:15:59.433898,42758,1715714159,433587567,base_link,7.312469997672666e-05,0.0,0.0,0.0,0.0,-3.4238044371679135e-08
2024/05/14/15:15:59.453243,42759,1715714159,453005477,base_link,7.29668904809911e-05,0.0,0.0,0.0,0.0,-3.255774071751209e-08
2024/05/14/15:15:59.479972,42760,1715714159,473690285,base_link,3.636395500271199e-05,0.0,0.0,0.0,0.0,-4.821764271346241e-08
2024/05/14/15:15:59.493694,42761,1715714159,493417189,base_link,8.851289698078298e-06,0.0,0.0,0.0,0.0,-1.7499348534631892e-08
2024/05/14/15:15:59.513251,42762,1715714159,513017233,base_link,-5.377178872477312e-06,0.0,0.0,0.0,0.0,-1.298504439922739e-08
2024/05/14/15:15:59.533238,42763,1715714159,532997059,base_link,-1.3576773788676227e-05,0.0,0.0,0.0,0.0,-1.1121115921077745e-08
2024/05/14/15:15:59.553265,42764,1715714159,553016184,base_link,-1.859405421494958e-05,0.0,0.0,0.0,0.0,-1.0076002743413287e-08
2024/05/14/15:15:59.575441,42765,1715714159,573899446,base_link,-5.418287815478277e-05,0.0,0.0,0.0,0.0,6.460277775218614e-08
2024/05/14/15:15:59.593301,42766,1715714159,593018890,base_link,-6.366213003280573e-05,0.0,0.0,0.0,0.0,3.415183075096966e-08
2024/05/14/15:15:59.613386,42767,1715714159,613091049,base_link,-6.699107745431203e-05,0.0,0.0,0.0,0.0,2.9484064052121754e-08
2024/05/14/15:15:59.633201,42768,1715714159,632975124,base_link,-6.770079702115438e-05,0.0,0.0,0.0,0.0,2.742948386284908e-08
2024/05/14/15:15:59.653159,42769,1715714159,652902838,base_link,-6.714978576862313e-05,0.0,0.0,0.0,0.0,2.618614474284337e-08
2024/05/14/15:15:59.674423,42770,1715714159,673841844,base_link,-3.185290277623432e-05,0.0,0.0,0.0,0.0,6.464664428324488e-08
2024/05/14/15:15:59.693637,42771,1715714159,693344738,base_link,-6.046479981828424e-06,0.0,0.0,0.0,0.0,2.694367183650527e-08
2024/05/14/15:15:59.713753,42772,1715714159,713491934,base_link,7.17008328828152e-06,0.0,0.0,0.0,0.0,2.1340107354985426e-08
2024/05/14/15:15:59.733244,42773,1715714159,733030578,base_link,1.4687971263272722e-05,0.0,0.0,0.0,0.0,1.8984958737345874e-08
2024/05/14/15:15:59.753217,42774,1715714159,752938899,base_link,1.9208390722309958e-05,0.0,0.0,0.0,0.0,1.7634663875534845e-08
2024/05/14/15:15:59.775326,42775,1715714159,773192133,base_link,1.58510216034248e-05,0.0,0.0,0.0,0.0,2.6791185354135893e-08
2024/05/14/15:15:59.794112,42776,1715714159,793785889,base_link,1.0964125614501035e-05,0.0,0.0,0.0,0.0,9.813827558983494e-09
2024/05/14/15:15:59.813962,42777,1715714159,813685552,base_link,8.252747989685518e-06,0.0,0.0,0.0,0.0,7.317159274924287e-09
2024/05/14/15:15:59.833981,42778,1715714159,833736753,base_link,6.548637942582453e-06,0.0,0.0,0.0,0.0,6.285175062705807e-09
2024/05/14/15:15:59.854037,42779,1715714159,853683672,base_link,5.390349098176963e-06,0.0,0.0,0.0,0.0,5.705730966245083e-09
2024/05/14/15:15:59.874620,42780,1715714159,873867658,base_link,1.3523829354649234e-05,0.0,0.0,0.0,0.0,7.187941032531471e-08
2024/05/14/15:15:59.893558,42781,1715714159,893072749,base_link,1.549302050476236e-05,0.0,0.0,0.0,0.0,3.4625147182805405e-08
2024/05/14/15:15:59.915378,42782,1715714159,912998155,base_link,1.6148345369372348e-05,0.0,0.0,0.0,0.0,2.899624124452507e-08
2024/05/14/15:15:59.933270,42783,1715714159,932984651,base_link,1.6247259478712912e-05,0.0,0.0,0.0,0.0,2.6570355003825273e-08
2024/05/14/15:15:59.953093,42784,1715714159,952899729,base_link,2.4427177806460963e-05,0.0,0.0,0.0,0.0,-6.662551949075038e-08
2024/05/14/15:15:59.974925,42785,1715714159,974245335,base_link,2.9747524243243913e-05,0.0,0.0,0.0,0.0,-1.3448717258398638e-07
2024/05/14/15:15:59.993351,42786,1715714159,993072379,base_link,2.7136878776844403e-05,0.0,0.0,0.0,0.0,-5.2195088883466296e-08
2024/05/14/15:16:00.013550,42787,1715714160,13294261,base_link,2.5309222305103218e-05,0.0,0.0,0.0,0.0,-4.0040416948961716e-08
2024/05/14/15:16:00.033553,42788,1715714160,33080642,base_link,2.388820816614534e-05,0.0,0.0,0.0,0.0,-3.498147319324237e-08
2024/05/14/15:16:00.053246,42789,1715714160,52983270,base_link,2.271826468580486e-05,0.0,0.0,0.0,0.0,-3.2115952246492986e-08
2024/05/14/15:16:00.075196,42790,1715714160,74480099,base_link,5.8400639864247114e-06,0.0,0.0,0.0,0.0,9.91902701126439e-09
2024/05/14/15:16:00.093278,42791,1715714160,92987636,base_link,-4.793764299125289e-06,0.0,0.0,0.0,0.0,1.1338260268595738e-08
2024/05/14/15:16:00.113125,42792,1715714160,112899121,base_link,-1.0139574843325158e-05,0.0,0.0,0.0,0.0,1.1407480888719206e-08
2024/05/14/15:16:00.133192,42793,1715714160,132950459,base_link,-1.310176923955723e-05,0.0,0.0,0.0,0.0,1.1344041204392961e-08
2024/05/14/15:16:00.153047,42794,1715714160,152781770,base_link,-1.4817393411285285e-05,0.0,0.0,0.0,0.0,1.124244800239436e-08
2024/05/14/15:16:00.180195,42795,1715714160,173457681,base_link,-3.1200303417730685e-05,0.0,0.0,0.0,0.0,1.8256717134827348e-08
2024/05/14/15:16:00.193167,42796,1715714160,192902815,base_link,-3.443269807530588e-05,0.0,0.0,0.0,0.0,6.842020824353527e-09
2024/05/14/15:16:00.213271,42797,1715714160,213030144,base_link,-3.532346165643187e-05,0.0,0.0,0.0,0.0,5.160595130354323e-09
2024/05/14/15:16:00.233332,42798,1715714160,233010471,base_link,-3.523649031229118e-05,0.0,0.0,0.0,0.0,4.463742497071068e-09
2024/05/14/15:16:00.253355,42799,1715714160,253063395,base_link,-5.7264206794652514e-05,0.0,0.0,0.0,0.0,4.371088083950582e-08
2024/05/14/15:16:00.274069,42800,1715714160,273749124,base_link,-7.110174126032082e-05,0.0,0.0,0.0,0.0,7.268718733334488e-08
2024/05/14/15:16:00.293506,42801,1715714160,293101105,base_link,-6.51048442330945e-05,0.0,0.0,0.0,0.0,2.678657867521142e-08
2024/05/14/15:16:00.313238,42802,1715714160,312998707,base_link,-6.0575676113872356e-05,0.0,0.0,0.0,0.0,2.003370078010279e-08
2024/05/14/15:16:00.333438,42803,1715714160,333193049,base_link,-5.68657809300954e-05,0.0,0.0,0.0,0.0,1.7240611288230456e-08
2024/05/14/15:16:00.353200,42804,1715714160,352978754,base_link,-7.593894486239254e-05,0.0,0.0,0.0,0.0,1.2825122782260622e-07
2024/05/14/15:16:00.375420,42805,1715714160,374635026,base_link,-8.77910572975878e-05,0.0,0.0,0.0,0.0,2.1034421410777216e-07
2024/05/14/15:16:00.394054,42806,1715714160,393737188,base_link,-7.763173798771078e-05,0.0,0.0,0.0,0.0,7.71899932870256e-08
2024/05/14/15:16:00.413779,42807,1715714160,413519176,base_link,-7.081071678311911e-05,0.0,0.0,0.0,0.0,5.7606755172647733e-08
2024/05/14/15:16:00.433571,42808,1715714160,433368265,base_link,-6.567187025707597e-05,0.0,0.0,0.0,0.0,4.951102011513489e-08
2024/05/14/15:16:00.453485,42809,1715714160,453055203,base_link,-3.6923558577424114e-05,0.0,0.0,0.0,0.0,2.0121591416313585e-08
2024/05/14/15:16:00.476972,42810,1715714160,474781281,base_link,-1.710142234786588e-05,0.0,0.0,0.0,0.0,-2.361911755831629e-10
2024/05/14/15:16:00.493927,42811,1715714160,493637635,base_link,-2.6299860028057495e-06,0.0,0.0,0.0,0.0,-3.83315497807684e-09
2024/05/14/15:16:00.514012,42812,1715714160,513696348,base_link,4.917420371441622e-06,0.0,0.0,0.0,0.0,-4.294432091576817e-09
2024/05/14/15:16:00.533782,42813,1715714160,533562693,base_link,9.312550007715167e-06,0.0,0.0,0.0,0.0,-4.440423749929454e-09
2024/05/14/15:16:00.554111,42814,1715714160,553792707,base_link,1.2037291628340343e-05,0.0,0.0,0.0,0.0,-4.490374471113739e-09
2024/05/14/15:16:00.576262,42815,1715714160,574130100,base_link,6.133270238969186e-05,0.0,0.0,0.0,0.0,-6.160088506331363e-10
2024/05/14/15:16:00.593461,42816,1715714160,593025612,base_link,7.73256516589337e-05,0.0,0.0,0.0,0.0,5.888420929810864e-10
2024/05/14/15:16:00.615303,42817,1715714160,613822044,base_link,8.380291729660335e-05,0.0,0.0,0.0,0.0,7.513154587988157e-10
2024/05/14/15:16:00.634101,42818,1715714160,633625036,base_link,8.615166797245097e-05,0.0,0.0,0.0,0.0,8.087650559098514e-10
2024/05/14/15:16:00.654086,42819,1715714160,653798859,base_link,8.6456698328834e-05,0.0,0.0,0.0,0.0,8.340643976435139e-10
2024/05/14/15:16:00.674227,42820,1715714160,673790047,base_link,6.822933363974098e-05,0.0,0.0,0.0,0.0,-3.361838388795012e-08
2024/05/14/15:16:00.693913,42821,1715714160,693554789,base_link,4.499503328050738e-05,0.0,0.0,0.0,0.0,-1.6893201462221517e-08
2024/05/14/15:16:00.713441,42822,1715714160,713159247,base_link,3.219351854055623e-05,0.0,0.0,0.0,0.0,-1.435091530784653e-08
2024/05/14/15:16:00.733270,42823,1715714160,733004881,base_link,2.4212436235792455e-05,0.0,0.0,0.0,0.0,-1.3245492993899075e-08
2024/05/14/15:16:00.753382,42824,1715714160,753084779,base_link,1.8836465843017573e-05,0.0,0.0,0.0,0.0,-1.2585691813524696e-08
2024/05/14/15:16:00.776353,42825,1715714160,774270301,base_link,-2.756476659164393e-05,0.0,0.0,0.0,0.0,-4.480959401886221e-08
2024/05/14/15:16:00.793384,42826,1715714160,793019232,base_link,-4.8403823459191165e-05,0.0,0.0,0.0,0.0,-1.9785671522169938e-08
2024/05/14/15:16:00.813801,42827,1715714160,813499067,base_link,-5.800650375982037e-05,0.0,0.0,0.0,0.0,-1.604480249818526e-08
2024/05/14/15:16:00.833636,42828,1715714160,833361896,base_link,-6.26372785619237e-05,0.0,0.0,0.0,0.0,-1.4458352981410664e-08
2024/05/14/15:16:00.853707,42829,1715714160,853400887,base_link,-6.473411096605555e-05,0.0,0.0,0.0,0.0,-1.3538784008415451e-08
2024/05/14/15:16:00.874401,42830,1715714160,873613413,base_link,-5.229779686223163e-05,0.0,0.0,0.0,0.0,8.232606829089346e-08
2024/05/14/15:16:00.893227,42831,1715714160,892983413,base_link,-3.5317933954768016e-05,0.0,0.0,0.0,0.0,4.366021749459972e-08
2024/05/14/15:16:00.913414,42832,1715714160,912972240,base_link,-2.588553252494048e-05,0.0,0.0,0.0,0.0,3.772972326760296e-08
2024/05/14/15:16:00.933306,42833,1715714160,932933350,base_link,-1.9949158609406352e-05,0.0,0.0,0.0,0.0,3.511713565676924e-08
2024/05/14/15:16:00.953156,42834,1715714160,952890279,base_link,-1.6170506370160632e-05,0.0,0.0,0.0,0.0,1.3201004595691385e-07
2024/05/14/15:16:00.973577,42835,1715714160,973298349,base_link,-1.3390559444825324e-05,0.0,0.0,0.0,0.0,2.0416046899331797e-07
2024/05/14/15:16:00.993479,42836,1715714160,993033606,base_link,-9.231147731870116e-06,0.0,0.0,0.0,0.0,7.352975994277599e-08
2024/05/14/15:16:01.013447,42837,1715714161,13164145,base_link,-6.876885715858769e-06,0.0,0.0,0.0,0.0,5.434264156601507e-08
2024/05/14/15:16:01.033416,42838,1715714161,33154655,base_link,-5.364086744344529e-06,0.0,0.0,0.0,0.0,4.642715395482487e-08
2024/05/14/15:16:01.053190,42839,1715714161,52909376,base_link,-4.3111612876832e-06,0.0,0.0,0.0,0.0,4.199375390566006e-08
2024/05/14/15:16:01.073645,42840,1715714161,72986834,base_link,1.0095035222511047e-05,0.0,0.0,0.0,0.0,1.7060058492372713e-07
2024/05/14/15:16:01.093247,42841,1715714161,92971161,base_link,1.6102040672394566e-05,0.0,0.0,0.0,0.0,7.650937165827722e-08
2024/05/14/15:16:01.113106,42842,1715714161,112888293,base_link,1.8697744592996686e-05,0.0,0.0,0.0,0.0,6.241916494965165e-08
2024/05/14/15:16:01.133031,42843,1715714161,132818132,base_link,1.9800416068128647e-05,0.0,0.0,0.0,0.0,5.6427900748844056e-08
2024/05/14/15:16:01.152983,42844,1715714161,152774255,base_link,2.015418002416029e-05,0.0,0.0,0.0,0.0,5.2944084714558345e-08
2024/05/14/15:16:01.173810,42845,1715714161,173419469,base_link,-1.2989858077366222e-05,0.0,0.0,0.0,0.0,-6.280029458508159e-08
2024/05/14/15:16:01.193533,42846,1715714161,193033283,base_link,-2.9101902751175745e-05,0.0,0.0,0.0,0.0,-4.180177023554986e-08
2024/05/14/15:16:01.213142,42847,1715714161,212921277,base_link,-3.6666892474326305e-05,0.0,0.0,0.0,0.0,-3.837357005688512e-08
2024/05/14/15:16:01.233101,42848,1715714161,232884893,base_link,-4.0436367257698086e-05,0.0,0.0,0.0,0.0,-3.6732045694399945e-08
2024/05/14/15:16:01.253838,42849,1715714161,253542363,base_link,-4.083455223144629e-06,0.0,0.0,0.0,0.0,1.2259954163991723e-08
2024/05/14/15:16:01.273568,42850,1715714161,272980048,base_link,2.022961803959736e-05,0.0,0.0,0.0,0.0,4.73565658962227e-08
2024/05/14/15:16:01.293408,42851,1715714161,292912484,base_link,2.9941470255136707e-05,0.0,0.0,0.0,0.0,2.0450210677062176e-08
2024/05/14/15:16:01.313195,42852,1715714161,312966663,base_link,3.427745770343148e-05,0.0,0.0,0.0,0.0,1.6437424944012694e-08
2024/05/14/15:16:01.333145,42853,1715714161,332925188,base_link,3.624569675354708e-05,0.0,0.0,0.0,0.0,1.4741832968957133e-08
2024/05/14/15:16:01.353408,42854,1715714161,353114025,base_link,3.7015659803203864e-05,0.0,0.0,0.0,0.0,1.3763312632765831e-08
2024/05/14/15:16:01.373944,42855,1715714161,373592767,base_link,9.812282151575828e-06,0.0,0.0,0.0,0.0,1.0497473901775397e-07
2024/05/14/15:16:01.393524,42856,1715714161,393168106,base_link,-7.355104948213794e-06,0.0,0.0,0.0,0.0,4.9485931659455316e-08
2024/05/14/15:16:01.413311,42857,1715714161,413038231,base_link,-1.5957714344236842e-05,0.0,0.0,0.0,0.0,4.112642569031441e-08
2024/05/14/15:16:01.433776,42858,1715714161,433531890,base_link,-2.0702326013532433e-05,0.0,0.0,0.0,0.0,3.7539476666522705e-08
2024/05/14/15:16:01.453343,42859,1715714161,453049334,base_link,-2.3431241542287842e-05,0.0,0.0,0.0,0.0,3.5431138351446496e-08
2024/05/14/15:16:01.473808,42860,1715714161,473528516,base_link,6.1471085873367285e-06,0.0,0.0,0.0,0.0,-9.47706687076109e-11
2024/05/14/15:16:01.493758,42861,1715714161,493511639,base_link,2.1597367068258652e-05,0.0,0.0,0.0,0.0,-7.111263914652068e-09
2024/05/14/15:16:01.513543,42862,1715714161,513201340,base_link,2.901337595195008e-05,0.0,0.0,0.0,0.0,-8.01499532225371e-09
2024/05/14/15:16:01.533199,42863,1715714161,532995599,base_link,3.284545350047614e-05,0.0,0.0,0.0,0.0,-8.304008682864663e-09
2024/05/14/15:16:01.553275,42864,1715714161,553022103,base_link,3.482996171233899e-05,0.0,0.0,0.0,0.0,-8.405696523878643e-09
2024/05/14/15:16:01.573538,42865,1715714161,573251754,base_link,3.8381690213712984e-05,0.0,0.0,0.0,0.0,6.527385336030394e-08
2024/05/14/15:16:01.594103,42866,1715714161,593644731,base_link,3.282434723907563e-05,0.0,0.0,0.0,0.0,3.4152278393083417e-08
2024/05/14/15:16:01.613960,42867,1715714161,613494315,base_link,2.9111930380154543e-05,0.0,0.0,0.0,0.0,2.939010204461677e-08
2024/05/14/15:16:01.633809,42868,1715714161,633346639,base_link,2.632837083292443e-05,0.0,0.0,0.0,0.0,2.7299283365265197e-08
2024/05/14/15:16:01.653231,42869,1715714161,653002938,base_link,2.4099981937540885e-05,0.0,0.0,0.0,0.0,2.603759709571191e-08
2024/05/14/15:16:01.673401,42870,1715714161,673176883,base_link,-4.849358656759032e-06,0.0,0.0,0.0,0.0,-6.345266843764826e-08
2024/05/14/15:16:01.693403,42871,1715714161,693133990,base_link,-2.0161327940997175e-05,0.0,0.0,0.0,0.0,-3.6761306807977256e-08
2024/05/14/15:16:01.713280,42872,1715714161,713054222,base_link,-2.7515237303510047e-05,0.0,0.0,0.0,0.0,-3.25912019790698e-08
2024/05/14/15:16:01.733313,42873,1715714161,733053918,base_link,-3.131970411916382e-05,0.0,0.0,0.0,0.0,-3.0705898116886806e-08
2024/05/14/15:16:01.753217,42874,1715714161,752923229,base_link,-3.3294602972799014e-05,0.0,0.0,0.0,0.0,-2.9531503432044613e-08
2024/05/14/15:16:01.773636,42875,1715714161,773357309,base_link,1.2125880730828736e-07,0.0,0.0,0.0,0.0,2.988435311249359e-08
2024/05/14/15:16:01.793386,42876,1715714161,793037288,base_link,1.8823562202119042e-05,0.0,0.0,0.0,0.0,2.0756211024052852e-08
2024/05/14/15:16:01.813152,42877,1715714161,812927754,base_link,2.792009628722133e-05,0.0,0.0,0.0,0.0,1.9236050717475364e-08
2024/05/14/15:16:01.833103,42878,1715714161,832866244,base_link,3.2720911210925194e-05,0.0,0.0,0.0,0.0,1.849038118535693e-08
2024/05/14/15:16:01.853094,42879,1715714161,852864846,base_link,3.52992633306796e-05,0.0,0.0,0.0,0.0,1.798762032136301e-08
2024/05/14/15:16:01.873310,42880,1715714161,873132620,base_link,5.219893871019151e-08,0.0,0.0,0.0,0.0,-6.207610128073428e-08
2024/05/14/15:16:01.893974,42881,1715714161,893669191,base_link,-1.9720783490429914e-05,0.0,0.0,0.0,0.0,-3.44711008173212e-08
2024/05/14/15:16:01.913486,42882,1715714161,913258662,base_link,-2.9350713496857945e-05,0.0,0.0,0.0,0.0,-3.019878678755077e-08
2024/05/14/15:16:01.933809,42883,1715714161,933547878,base_link,-3.44434736916502e-05,0.0,0.0,0.0,0.0,-2.8292456251776195e-08
2024/05/14/15:16:01.953545,42884,1715714161,953273210,base_link,-3.71879864627735e-05,0.0,0.0,0.0,0.0,-2.712146793767643e-08
2024/05/14/15:16:01.973765,42885,1715714161,973525829,base_link,-4.311174830331599e-05,0.0,0.0,0.0,0.0,8.478443829879967e-08
2024/05/14/15:16:01.993486,42886,1715714161,993017731,base_link,-3.837599558919519e-05,0.0,0.0,0.0,0.0,4.759004729509495e-08
2024/05/14/15:16:02.013491,42887,1715714162,13030220,base_link,-3.52524777131349e-05,0.0,0.0,0.0,0.0,4.182036213106096e-08
2024/05/14/15:16:02.033429,42888,1715714162,32972728,base_link,-3.293416843099413e-05,0.0,0.0,0.0,0.0,3.9237585033635434e-08
2024/05/14/15:16:02.053336,42889,1715714162,53004881,base_link,-3.109294220805226e-05,0.0,0.0,0.0,0.0,3.7645565314816857e-08
2024/05/14/15:16:02.073397,42890,1715714162,73109488,base_link,-1.6850343968113818e-05,0.0,0.0,0.0,0.0,-4.750955734485409e-08
2024/05/14/15:16:02.094575,42891,1715714162,93442216,base_link,-5.6808368660695325e-06,0.0,0.0,0.0,0.0,-3.114261198073054e-08
2024/05/14/15:16:02.113301,42892,1715714162,113033692,base_link,1.0343588063836284e-07,0.0,0.0,0.0,0.0,-2.8486432817699776e-08
2024/05/14/15:16:02.133297,42893,1715714162,132992901,base_link,3.4433857621919315e-06,0.0,0.0,0.0,0.0,-2.7224028170728863e-08
2024/05/14/15:16:02.153228,42894,1715714162,152965618,base_link,5.4928204423971504e-06,0.0,0.0,0.0,0.0,-2.639732987733294e-08
2024/05/14/15:16:02.173290,42895,1715714162,173046582,base_link,-2.0529912876067337e-05,0.0,0.0,0.0,0.0,1.8959891230370552e-08
2024/05/14/15:16:02.193525,42896,1715714162,192934774,base_link,-3.104167376820394e-05,0.0,0.0,0.0,0.0,1.4695768132285596e-08
2024/05/14/15:16:02.213480,42897,1715714162,213162801,base_link,-3.559214601649051e-05,0.0,0.0,0.0,0.0,1.3928075442867922e-08
2024/05/14/15:16:02.233207,42898,1715714162,232932491,base_link,-3.7534947517944175e-05,0.0,0.0,0.0,0.0,1.3517967439730268e-08
2024/05/14/15:16:02.253204,42899,1715714162,252957470,base_link,-3.8170421973783805e-05,0.0,0.0,0.0,0.0,1.3221204534893721e-08
2024/05/14/15:16:02.273502,42900,1715714162,273100411,base_link,-1.3306763572881862e-05,0.0,0.0,0.0,0.0,-3.539205230984934e-08
2024/05/14/15:16:02.293683,42901,1715714162,293112163,base_link,3.17554549838452e-06,0.0,0.0,0.0,0.0,-2.024430989317323e-08
2024/05/14/15:16:02.313826,42902,1715714162,313505491,base_link,1.1494579679919631e-05,0.0,0.0,0.0,0.0,-1.7884521905259137e-08
2024/05/14/15:16:02.333195,42903,1715714162,332945087,base_link,1.613208290003198e-05,0.0,0.0,0.0,0.0,-1.682189873460405e-08
2024/05/14/15:16:02.353305,42904,1715714162,353007122,base_link,1.884265505341324e-05,0.0,0.0,0.0,0.0,-1.616275050268111e-08
2024/05/14/15:16:02.373218,42905,1715714162,372992492,base_link,-1.7970366953211946e-05,0.0,0.0,0.0,0.0,-1.187394393961978e-07
2024/05/14/15:16:02.393456,42906,1715714162,393190430,base_link,-3.512227377893083e-05,0.0,0.0,0.0,0.0,-5.585374660801777e-08
2024/05/14/15:16:02.414428,42907,1715714162,413926557,base_link,-4.303757826878986e-05,0.0,0.0,0.0,0.0,-4.638121051496635e-08
2024/05/14/15:16:02.433252,42908,1715714162,433009431,base_link,-4.6866579019656896e-05,0.0,0.0,0.0,0.0,-4.231756590759336e-08
2024/05/14/15:16:02.453192,42909,1715714162,452914914,base_link,-4.861325087865637e-05,0.0,0.0,0.0,0.0,-3.992967587969626e-08
2024/05/14/15:16:02.473317,42910,1715714162,473072873,base_link,-6.843508428403188e-05,0.0,0.0,0.0,0.0,-3.22523811862922e-08
2024/05/14/15:16:02.493694,42911,1715714162,493016408,base_link,-6.634682599198846e-05,0.0,0.0,0.0,0.0,-8.085953350924697e-09
2024/05/14/15:16:02.513407,42912,1715714162,513175261,base_link,-6.372734052554821e-05,0.0,0.0,0.0,0.0,-4.599581217618765e-09
2024/05/14/15:16:02.533256,42913,1715714162,533008457,base_link,-6.103562665453344e-05,0.0,0.0,0.0,0.0,-3.2030594786251494e-09
2024/05/14/15:16:02.553302,42914,1715714162,553024936,base_link,-5.842528667726947e-05,0.0,0.0,0.0,0.0,-2.450861823689801e-09
2024/05/14/15:16:02.573233,42915,1715714162,572873612,base_link,-2.741924992298866e-05,0.0,0.0,0.0,0.0,-2.4899799245509357e-08
2024/05/14/15:16:02.593385,42916,1715714162,593122596,base_link,-4.88696148199966e-06,0.0,0.0,0.0,0.0,-1.189969023596904e-08
2024/05/14/15:16:02.613154,42917,1715714162,612905169,base_link,6.622492570889883e-06,0.0,0.0,0.0,0.0,-9.93740661988005e-09
2024/05/14/15:16:02.633500,42918,1715714162,633012821,base_link,1.3146280841853044e-05,0.0,0.0,0.0,0.0,-9.092984629507666e-09
2024/05/14/15:16:02.653166,42919,1715714162,652952832,base_link,-4.87109390473435e-06,0.0,0.0,0.0,0.0,2.9541532971454196e-08
2024/05/14/15:16:02.673278,42920,1715714162,673044040,base_link,-1.666253906249264e-05,0.0,0.0,0.0,0.0,5.7721528517509854e-08
2024/05/14/15:16:02.694074,42921,1715714162,693739604,base_link,-1.9939691820174573e-05,0.0,0.0,0.0,0.0,2.2226767485387287e-08
2024/05/14/15:16:02.713887,42922,1715714162,713629696,base_link,-2.1107092182325222e-05,0.0,0.0,0.0,0.0,1.6987264123431193e-08
2024/05/14/15:16:02.733890,42923,1715714162,733651906,base_link,-2.1373342355911185e-05,0.0,0.0,0.0,0.0,1.4808571265027764e-08
2024/05/14/15:16:02.754025,42924,1715714162,753734797,base_link,-2.1204061092945975e-05,0.0,0.0,0.0,0.0,1.357597240378279e-08
2024/05/14/15:16:02.773256,42925,1715714162,773003042,base_link,-6.974580109221883e-06,0.0,0.0,0.0,0.0,-1.4699069637229078e-07
2024/05/14/15:16:02.794449,42926,1715714162,793982485,base_link,2.457912846442751e-06,0.0,0.0,0.0,0.0,-7.583923382860349e-08
2024/05/14/15:16:02.813824,42927,1715714162,813566914,base_link,7.293758865298289e-06,0.0,0.0,0.0,0.0,-6.497674529164532e-08
2024/05/14/15:16:02.833317,42928,1715714162,833041293,base_link,1.004769509193634e-05,0.0,0.0,0.0,0.0,-6.022347916648714e-08
2024/05/14/15:16:02.853676,42929,1715714162,853364486,base_link,1.1705745561205923e-05,0.0,0.0,0.0,0.0,-5.736588831430268e-08
2024/05/14/15:16:02.873661,42930,1715714162,873407388,base_link,2.6233689588840922e-05,0.0,0.0,0.0,0.0,-9.585840809243014e-08
2024/05/14/15:16:02.893699,42931,1715714162,893405384,base_link,2.9253256111653077e-05,0.0,0.0,0.0,0.0,-3.625589390805405e-08
2024/05/14/15:16:02.913970,42932,1715714162,913699655,base_link,3.005988013662459e-05,0.0,0.0,0.0,0.0,-2.7469952194730633e-08
2024/05/14/15:16:02.933234,42933,1715714162,932952135,base_link,2.994449222833109e-05,0.0,0.0,0.0,0.0,-2.38245633531928e-08
2024/05/14/15:16:02.953335,42934,1715714162,953014969,base_link,2.9400756317241768e-05,0.0,0.0,0.0,0.0,-2.176786819242717e-08
2024/05/14/15:16:02.973412,42935,1715714162,973096400,base_link,2.0057211411104573e-05,0.0,0.0,0.0,0.0,1.3389434574520283e-07
2024/05/14/15:16:02.994063,42936,1715714162,993730800,base_link,1.1090962391037414e-05,0.0,0.0,0.0,0.0,7.095621573043362e-08
2024/05/14/15:16:03.013511,42937,1715714163,13222030,base_link,6.360309725726731e-06,0.0,0.0,0.0,0.0,6.130296737817233e-08
2024/05/14/15:16:03.033181,42938,1715714163,32936461,base_link,3.561832176294746e-06,0.0,0.0,0.0,0.0,5.7050463811100086e-08
2024/05/14/15:16:03.053795,42939,1715714163,53476478,base_link,1.7902892742528324e-06,0.0,0.0,0.0,0.0,5.44747153148746e-08
2024/05/14/15:16:03.073324,42940,1715714163,73015854,base_link,4.967890196041047e-05,0.0,0.0,0.0,0.0,5.726722457996233e-08
2024/05/14/15:16:03.095442,42941,1715714163,92982694,base_link,6.710070715085888e-05,0.0,0.0,0.0,0.0,1.7631920093854397e-08
2024/05/14/15:16:03.113224,42942,1715714163,112976035,base_link,7.453481383741498e-05,0.0,0.0,0.0,0.0,1.1863759182068025e-08
2024/05/14/15:16:03.133063,42943,1715714163,132841773,base_link,7.760903433305752e-05,0.0,0.0,0.0,0.0,9.519484583133517e-09
2024/05/14/15:16:03.153549,42944,1715714163,153263121,base_link,7.850423542091294e-05,0.0,0.0,0.0,0.0,8.231851048246961e-09
2024/05/14/15:16:03.173307,42945,1715714163,173014010,base_link,0.00013406661908881929,0.0,0.0,0.0,0.0,1.8523474543054788e-08
2024/05/14/15:16:03.193645,42946,1715714163,193407204,base_link,0.00013941482278359555,0.0,0.0,0.0,0.0,7.574764295244932e-09
2024/05/14/15:16:03.213200,42947,1715714163,212938890,base_link,0.00013892206278919074,0.0,0.0,0.0,0.0,5.950249786770761e-09
2024/05/14/15:16:03.233163,42948,1715714163,232933157,base_link,0.00013613570578915172,0.0,0.0,0.0,0.0,5.269257827788412e-09
2024/05/14/15:16:03.253129,42949,1715714163,252907449,base_link,0.00026298795985656815,0.0,0.0,0.0,0.0,2.1024293737692545e-08
2024/05/14/15:16:03.273426,42950,1715714163,273151112,base_link,0.00034378538745500774,0.0,0.0,0.0,0.0,3.2744298449616604e-08
2024/05/14/15:16:03.293572,42951,1715714163,293109568,base_link,0.00032265886084274504,0.0,0.0,0.0,0.0,1.1820187398792832e-08
2024/05/14/15:16:03.313360,42952,1715714163,313122555,base_link,0.00030470154859827336,0.0,0.0,0.0,0.0,8.746230112664595e-09
2024/05/14/15:16:03.333497,42953,1715714163,333104701,base_link,0.00028893805729384976,0.0,0.0,0.0,0.0,7.47769323286744e-09
2024/05/14/15:16:03.353887,42954,1715714163,353649240,base_link,0.00027486951518838426,0.0,0.0,0.0,0.0,6.766909990075891e-09
2024/05/14/15:16:03.373586,42955,1715714163,373264022,base_link,0.00043726299308510775,0.0,0.0,0.0,0.0,8.213931631380832e-08
2024/05/14/15:16:03.393809,42956,1715714163,393536191,base_link,0.0004445170862418385,0.0,0.0,0.0,0.0,3.951826076718838e-08
2024/05/14/15:16:03.413749,42957,1715714163,413461553,base_link,0.00043819673028262004,0.0,0.0,0.0,0.0,3.307954632476213e-08
2024/05/14/15:16:03.433388,42958,1715714163,433118986,base_link,0.0004268055539144855,0.0,0.0,0.0,0.0,3.0305351887197524e-08
2024/05/14/15:16:03.453213,42959,1715714163,452979292,base_link,0.0004135112041126303,0.0,0.0,0.0,0.0,2.8666851747381698e-08
2024/05/14/15:16:03.473038,42960,1715714163,472825241,base_link,0.0006231847767677769,0.0,0.0,0.0,0.0,2.5507942258182365e-07
2024/05/14/15:16:03.493740,42961,1715714163,493496653,base_link,0.07382775981432306,0.0,0.0,0.0,0.0,0.00016600121749973349
2024/05/14/15:16:03.513299,42962,1715714163,513058470,base_link,0.11535029849247425,0.0,0.0,0.0,0.0,0.00018991667409921364
2024/05/14/15:16:03.533394,42963,1715714163,533104219,base_link,0.14209599541216408,0.0,0.0,0.0,0.0,0.00019949913031310306
2024/05/14/15:16:03.553353,42964,1715714163,553052290,base_link,0.16075942865464976,0.0,0.0,0.0,0.0,0.0002046624807791354
2024/05/14/15:16:03.573267,42965,1715714163,573024912,base_link,0.17480433082401675,0.0,0.0,0.0,0.0,0.0002079876372257158
2024/05/14/15:16:03.602602,42966,1715714163,593247224,base_link,0.22222166487914938,0.0,0.0,0.0,0.0,0.00022749763096849464
2024/05/14/15:16:03.613341,42967,1715714163,613070096,base_link,0.24910908327414688,0.0,0.0,0.0,0.0,0.00023031241071310148
2024/05/14/15:16:03.633697,42968,1715714163,633478057,base_link,0.26642217694350234,0.0,0.0,0.0,0.0,0.00023144002883474725
2024/05/14/15:16:03.653293,42969,1715714163,653012581,base_link,0.27849925137651327,0.0,0.0,0.0,0.0,0.00023204747287878583
2024/05/14/15:16:03.673256,42970,1715714163,672986117,base_link,0.28765754842851193,0.0,0.0,0.0,0.0,0.00023269975084724587
2024/05/14/15:16:03.694505,42971,1715714163,693758173,base_link,0.32615779917011467,0.0,0.0,0.0,0.0,0.00023641126276922197
2024/05/14/15:16:03.713327,42972,1715714163,713069914,base_link,0.3479861134068131,0.0,0.0,0.0,0.0,0.00023694578947329903
2024/05/14/15:16:03.733536,42973,1715714163,732995485,base_link,0.3620396625706845,0.0,0.0,0.0,0.0,0.00023715928448706693
2024/05/14/15:16:03.753559,42974,1715714163,753210084,base_link,0.37184157453825184,0.0,0.0,0.0,0.0,0.0002372738187671026
2024/05/14/15:16:03.773252,42975,1715714163,773018820,base_link,0.3792928968165738,0.0,0.0,0.0,0.0,0.00023752088203882028
2024/05/14/15:16:03.793393,42976,1715714163,793128094,base_link,0.40948810294403576,0.0,0.0,0.0,0.0,0.00023418703847176027
2024/05/14/15:16:03.813570,42977,1715714163,813286731,base_link,0.4266057595480576,0.0,0.0,0.0,0.0,0.00023370526807814092
2024/05/14/15:16:03.833394,42978,1715714163,832902449,base_link,0.4376250985060986,0.0,0.0,0.0,0.0,0.00023351173383082406
2024/05/14/15:16:03.853201,42979,1715714163,852933198,base_link,0.44530973416840747,0.0,0.0,0.0,0.0,0.00023340707851838072
2024/05/14/15:16:03.873898,42980,1715714163,873576319,base_link,0.4511335874230292,0.0,0.0,0.0,0.0,0.0002334410856300461
2024/05/14/15:16:03.893752,42981,1715714163,893348591,base_link,0.48237989985770086,0.0,0.0,0.0,0.0,0.0002601497687982021
2024/05/14/15:16:03.913691,42982,1715714163,913436096,base_link,0.5000977625175111,0.0,0.0,0.0,0.0,0.00026400310278051507
2024/05/14/15:16:03.933783,42983,1715714163,933508079,base_link,0.5115065110994278,0.0,0.0,0.0,0.0,0.0002655467462114053
2024/05/14/15:16:03.953639,42984,1715714163,953334602,base_link,0.5194649226396365,0.0,0.0,0.0,0.0,0.00026637827780131575
2024/05/14/15:16:03.974159,42985,1715714163,973701204,base_link,0.5255101977819249,0.0,0.0,0.0,0.0,0.0002667690033261319
2024/05/14/15:16:03.993839,42986,1715714163,993472703,base_link,0.5532341944794194,0.0,0.0,0.0,0.0,0.00027182967540187735
2024/05/14/15:16:04.014139,42987,1715714164,13737244,base_link,0.5689531712869998,0.0,0.0,0.0,0.0,0.00027256074535619726
2024/05/14/15:16:04.033628,42988,1715714164,33393446,base_link,0.5790736951925458,0.0,0.0,0.0,0.0,0.00027285424165212485
2024/05/14/15:16:04.053576,42989,1715714164,53327601,base_link,0.5861326634036746,0.0,0.0,0.0,0.0,0.00027301280142981357
2024/05/14/15:16:04.073364,42990,1715714164,73083473,base_link,0.5914894906820332,0.0,0.0,0.0,0.0,0.0002729365007394285
2024/05/14/15:16:04.093229,42991,1715714164,92984865,base_link,0.6166831124341348,0.0,0.0,0.0,0.0,0.00029191221345748494
2024/05/14/15:16:04.113234,42992,1715714164,113004997,base_link,0.6309677180716067,0.0,0.0,0.0,0.0,0.0002946509145907979
2024/05/14/15:16:04.133213,42993,1715714164,132985566,base_link,0.6401649457569608,0.0,0.0,0.0,0.0,0.0002957487175000893
2024/05/14/15:16:04.153188,42994,1715714164,152935808,base_link,0.6465800766840476,0.0,0.0,0.0,0.0,0.00029634058170833414
2024/05/14/15:16:04.173297,42995,1715714164,173023514,base_link,0.6514380988079164,0.0,0.0,0.0,0.0,0.00029653028977434946
2024/05/14/15:16:04.199281,42996,1715714164,193078305,base_link,0.6783765497188415,0.0,0.0,0.0,0.0,0.00034172345198744866
2024/05/14/15:16:04.213209,42997,1715714164,212982340,base_link,0.6936527463931198,0.0,0.0,0.0,0.0,0.0003482446298188415
2024/05/14/15:16:04.233344,42998,1715714164,233052444,base_link,0.7034900139935162,0.0,0.0,0.0,0.0,0.00035085770982119866
2024/05/14/15:16:04.253263,42999,1715714164,252948907,base_link,0.7103527419154206,0.0,0.0,0.0,0.0,0.00035226584549977516
2024/05/14/15:16:04.273366,43000,1715714164,273031155,base_link,0.7155497030409778,0.0,0.0,0.0,0.0,0.0003532505421425531
2024/05/14/15:16:04.293585,43001,1715714164,293073431,base_link,0.7457190825308875,0.0,0.0,0.0,0.0,0.00035852063085584513
2024/05/14/15:16:04.313247,43002,1715714164,312992411,base_link,0.7628284769477515,0.0,0.0,0.0,0.0,0.00035927874651605084
2024/05/14/15:16:04.333275,43003,1715714164,333023221,base_link,0.7738469621839481,0.0,0.0,0.0,0.0,0.0003595809537709691
2024/05/14/15:16:04.353169,43004,1715714164,352906629,base_link,0.7815342565406604,0.0,0.0,0.0,0.0,0.0003597426410352151
2024/05/14/15:16:04.373369,43005,1715714164,373073891,base_link,0.7873171576128947,0.0,0.0,0.0,0.0,0.0003600095280761794
2024/05/14/15:16:04.393794,43006,1715714164,393542357,base_link,0.823818427176399,0.0,0.0,0.0,0.0,0.00039104794494009443
2024/05/14/15:16:04.413370,43007,1715714164,413097766,base_link,0.8445215034584204,0.0,0.0,0.0,0.0,0.00039552636211460007
2024/05/14/15:16:04.433171,43008,1715714164,432950554,base_link,0.8578562772390068,0.0,0.0,0.0,0.0,0.000397320688631126
2024/05/14/15:16:04.453383,43009,1715714164,453049248,base_link,0.9075200133930839,0.0,0.0,0.0,0.0,0.0003732806392267527
2024/05/14/15:16:04.473159,43010,1715714164,472929873,base_link,0.9343616226398394,0.0,0.0,0.0,0.0,0.000369942297076578
2024/05/14/15:16:04.495161,43011,1715714164,493057783,base_link,0.9511329669180809,0.0,0.0,0.0,0.0,0.00036861049180611846
2024/05/14/15:16:04.513234,43012,1715714164,512971079,base_link,0.9626042593801286,0.0,0.0,0.0,0.0,0.0003678934204983903
2024/05/14/15:16:04.533075,43013,1715714164,532875644,base_link,0.9709439953175488,0.0,0.0,0.0,0.0,0.0003674447801215373
2024/05/14/15:16:04.553074,43014,1715714164,552857247,base_link,0.9772798219093403,0.0,0.0,0.0,0.0,0.00036713727659291363
2024/05/14/15:16:04.573115,43015,1715714164,572881342,base_link,0.9823842529199383,0.0,0.0,0.0,0.0,0.0003669190862976027
2024/05/14/15:16:04.593257,43016,1715714164,592997874,base_link,1.0232239144402981,0.0,0.0,0.0,0.0,0.00032868832020838123
2024/05/14/15:16:04.614356,43017,1715714164,613762974,base_link,1.04703932826376,0.0,0.0,0.0,0.0,0.00032308849807690467
2024/05/14/15:16:04.634029,43018,1715714164,633738830,base_link,1.0626375061210709,0.0,0.0,0.0,0.0,0.00032083791796053645
2024/05/14/15:16:04.653982,43019,1715714164,653711796,base_link,1.0736444399491039,0.0,0.0,0.0,0.0,0.0003196231287685469
2024/05/14/15:16:04.674221,43020,1715714164,673807047,base_link,1.081826461490238,0.0,0.0,0.0,0.0,0.00031886258468288706
2024/05/14/15:16:04.693641,43021,1715714164,693112418,base_link,1.133539504535712,0.0,0.0,0.0,0.0,0.0002308324209067702
2024/05/14/15:16:04.713315,43022,1715714164,713088650,base_link,1.1629698686488685,0.0,0.0,0.0,0.0,0.00021812967099099338
2024/05/14/15:16:04.733524,43023,1715714164,733069672,base_link,1.1819649669399808,0.0,0.0,0.0,0.0,0.00021303969915967058
2024/05/14/15:16:04.753397,43024,1715714164,753090358,base_link,1.1952380522240489,0.0,0.0,0.0,0.0,0.00021029688925702127
2024/05/14/15:16:04.773419,43025,1715714164,773073607,base_link,1.2050355184768853,0.0,0.0,0.0,0.0,0.00020858192400804792
2024/05/14/15:16:04.793453,43026,1715714164,793081803,base_link,1.2543649823906322,0.0,0.0,0.0,0.0,0.00013451283210055517
2024/05/14/15:16:04.813317,43027,1715714164,813054705,base_link,1.2823566520674328,0.0,0.0,0.0,0.0,0.00012382185014557235
2024/05/14/15:16:04.833272,43028,1715714164,833038901,base_link,1.300392264873886,0.0,0.0,0.0,0.0,0.00011953576214395087
2024/05/14/15:16:04.853141,43029,1715714164,852886765,base_link,1.312980900829,0.0,0.0,0.0,0.0,0.00011722450179066112
2024/05/14/15:16:04.873117,43030,1715714164,872852930,base_link,1.32235907250711,0.0,0.0,0.0,0.0,0.00011574389051202047
2024/05/14/15:16:04.893036,43031,1715714164,892790850,base_link,1.3694080882960498,0.0,0.0,0.0,0.0,0.00011738730893734742
2024/05/14/15:16:04.913038,43032,1715714164,912817071,base_link,1.3960990540745462,0.0,0.0,0.0,0.0,0.00011761855091661379
2024/05/14/15:16:04.933125,43033,1715714164,932873968,base_link,1.4132940205130573,0.0,0.0,0.0,0.0,0.00011770735900010328
2024/05/14/15:16:04.953145,43034,1715714164,952895613,base_link,1.4253995123822314,0.0,0.0,0.0,0.0,0.00011730998261835258
2024/05/14/15:16:04.973377,43035,1715714164,973121825,base_link,1.4343105570189632,0.0,0.0,0.0,0.0,0.00011692991901572058
2024/05/14/15:16:04.994328,43036,1715714164,993754455,base_link,1.4726870615694896,0.0,0.0,0.0,0.0,2.936137643011774e-05
2024/05/14/15:16:05.013951,43037,1715714165,13640709,base_link,1.4944592543260855,0.0,0.0,0.0,0.0,1.6719312719044982e-05
2024/05/14/15:16:05.033787,43038,1715714165,33542546,base_link,1.5084857555133695,0.0,0.0,0.0,0.0,1.1649532087702455e-05
2024/05/14/15:16:05.053830,43039,1715714165,53579109,base_link,1.5182751777052168,0.0,0.0,0.0,0.0,8.914686707076939e-06
2024/05/14/15:16:05.073155,43040,1715714165,72911729,base_link,1.5256036570375744,0.0,0.0,0.0,0.0,6.77753831860055e-06
2024/05/14/15:16:05.094080,43041,1715714165,93766200,base_link,1.5780360108427458,0.0,0.0,0.0,0.0,-0.00020068196239898478
2024/05/14/15:16:05.113681,43042,1715714165,113435831,base_link,1.6077800640406568,0.0,0.0,0.0,0.0,-0.00023062248790496243
2024/05/14/15:16:05.133682,43043,1715714165,133416036,base_link,1.6269415131397502,0.0,0.0,0.0,0.0,-0.0002426230903181705
2024/05/14/15:16:05.153796,43044,1715714165,153517090,base_link,1.6403144102046192,0.0,0.0,0.0,0.0,-0.00024909225308566215
2024/05/14/15:16:05.173127,43045,1715714165,172881134,base_link,1.6502376709890791,0.0,0.0,0.0,0.0,-0.00025352560369350555
2024/05/14/15:16:05.193499,43046,1715714165,193235923,base_link,1.6917891226700337,0.0,0.0,0.0,0.0,-0.0003822182924864266
2024/05/14/15:16:05.213112,43047,1715714165,212882030,base_link,1.715361414929766,0.0,0.0,0.0,0.0,-0.0004007939656904411
2024/05/14/15:16:05.233632,43048,1715714165,233372635,base_link,1.7305475474629561,0.0,0.0,0.0,0.0,-0.0004082410876700323
2024/05/14/15:16:05.253156,43049,1715714165,252895020,base_link,1.7412484743918155,0.0,0.0,0.0,0.0,-0.0004129662048959168
2024/05/14/15:16:05.273314,43050,1715714165,273053017,base_link,1.7491253820826977,0.0,0.0,0.0,0.0,-0.0004160627350706137
2024/05/14/15:16:05.293340,43051,1715714165,293029307,base_link,1.789541842540033,0.0,0.0,0.0,0.0,-0.0004396274136208655
2024/05/14/15:16:05.313341,43052,1715714165,313069292,base_link,1.8124717475789203,0.0,0.0,0.0,0.0,-0.00044303069844922426
2024/05/14/15:16:05.333449,43053,1715714165,333196242,base_link,1.8272443922459747,0.0,0.0,0.0,0.0,-0.0004443962189057661
2024/05/14/15:16:05.353316,43054,1715714165,353046258,base_link,1.8375547931363756,0.0,0.0,0.0,0.0,-0.0004451332562880713
2024/05/14/15:16:05.373374,43055,1715714165,373072381,base_link,1.8452650942186117,0.0,0.0,0.0,0.0,-0.000446313902994431
2024/05/14/15:16:05.395799,43056,1715714165,393054636,base_link,1.8892508329197686,0.0,0.0,0.0,0.0,-0.0005248734541166316
2024/05/14/15:16:05.413787,43057,1715714165,413253383,base_link,1.914202424872522,0.0,0.0,0.0,0.0,-0.000536207913771833
2024/05/14/15:16:05.433576,43058,1715714165,433102636,base_link,1.930275905289027,0.0,0.0,0.0,0.0,-0.0005407487924177898
2024/05/14/15:16:05.453525,43059,1715714165,453022629,base_link,1.9414932297840857,0.0,0.0,0.0,0.0,-0.000543195087703187
2024/05/14/15:16:05.473264,43060,1715714165,472983607,base_link,1.949840994628499,0.0,0.0,0.0,0.0,-0.0005453269548512323
2024/05/14/15:16:05.493447,43061,1715714165,493041477,base_link,1.9950277805293604,0.0,0.0,0.0,0.0,-0.0005715663034847956
2024/05/14/15:16:05.513325,43062,1715714165,513063843,base_link,2.0206618824080342,0.0,0.0,0.0,0.0,-0.0005753469396456714
2024/05/14/15:16:05.533179,43063,1715714165,532960087,base_link,2.0371759124489364,0.0,0.0,0.0,0.0,-0.0005768583213424048
2024/05/14/15:16:05.553157,43064,1715714165,552897889,base_link,2.048701351770608,0.0,0.0,0.0,0.0,-0.0005776702914093974
2024/05/14/15:16:05.573568,43065,1715714165,572992568,base_link,2.057277976927642,0.0,0.0,0.0,0.0,-0.00057853746566362
2024/05/14/15:16:05.594057,43066,1715714165,593580049,base_link,2.0963532282249484,0.0,0.0,0.0,0.0,-0.0005968394945213689
2024/05/14/15:16:05.613998,43067,1715714165,613696399,base_link,2.1185198905408584,0.0,0.0,0.0,0.0,-0.0005994761336083297
2024/05/14/15:16:05.633860,43068,1715714165,633610326,base_link,2.132799822868431,0.0,0.0,0.0,0.0,-0.0006005299875370513
2024/05/14/15:16:05.654084,43069,1715714165,653727734,base_link,2.1766937139876483,0.0,0.0,0.0,0.0,-0.0006184264907765632
2024/05/14/15:16:05.673339,43070,1715714165,673037710,base_link,2.2004094914767327,0.0,0.0,0.0,0.0,-0.0006209663783203309
2024/05/14/15:16:05.693332,43071,1715714165,693095169,base_link,2.2152294930903147,0.0,0.0,0.0,0.0,-0.0006219753690314616
2024/05/14/15:16:05.713606,43072,1715714165,713083506,base_link,2.2253671789147567,0.0,0.0,0.0,0.0,-0.0006225156934349311
2024/05/14/15:16:05.733824,43073,1715714165,733496143,base_link,2.2327380869478657,0.0,0.0,0.0,0.0,-0.000622851601791566
2024/05/14/15:16:05.753265,43074,1715714165,752990010,base_link,2.2747626408086186,0.0,0.0,0.0,0.0,-0.000644453676224039
2024/05/14/15:16:05.773378,43075,1715714165,773047246,base_link,2.298547245753026,0.0,0.0,0.0,0.0,-0.0006476141684325714
2024/05/14/15:16:05.793836,43076,1715714165,793547588,base_link,2.313810261453426,0.0,0.0,0.0,0.0,-0.0006488763976762366
2024/05/14/15:16:05.813365,43077,1715714165,813068151,base_link,2.3244339769489475,0.0,0.0,0.0,0.0,-0.0006495538067671575
2024/05/14/15:16:05.833985,43078,1715714165,833737068,base_link,2.3322535485856855,0.0,0.0,0.0,0.0,-0.0006499754075447194
2024/05/14/15:16:05.853249,43079,1715714165,852974437,base_link,2.3382491221051427,0.0,0.0,0.0,0.0,-0.0006502625023748463
2024/05/14/15:16:05.873311,43080,1715714165,873054287,base_link,2.3430774475424743,0.0,0.0,0.0,0.0,-0.0006509300608407492
2024/05/14/15:16:05.894404,43081,1715714165,894095135,base_link,2.377270556982106,0.0,0.0,0.0,0.0,-0.0007410717660825237
2024/05/14/15:16:05.913403,43082,1715714165,913168798,base_link,2.397276930022516,0.0,0.0,0.0,0.0,-0.0007542702543191767
2024/05/14/15:16:05.933452,43083,1715714165,933113432,base_link,2.410407415228882,0.0,0.0,0.0,0.0,-0.0007595710125070214
2024/05/14/15:16:05.953459,43084,1715714165,953033683,base_link,2.4196860919289507,0.0,0.0,0.0,0.0,-0.0007624294642324356
2024/05/14/15:16:05.973316,43085,1715714165,973070653,base_link,2.426713198608996,0.0,0.0,0.0,0.0,-0.0007648788334915587
2024/05/14/15:16:05.998563,43086,1715714165,993879719,base_link,2.461728358432331,0.0,0.0,0.0,0.0,-0.0008626558019402022
2024/05/14/15:16:06.013252,43087,1715714166,13011151,base_link,2.4816645693058113,0.0,0.0,0.0,0.0,-0.0008767620897572924
2024/05/14/15:16:06.034177,43088,1715714166,33721735,base_link,2.494534699305365,0.0,0.0,0.0,0.0,-0.0008824125198257195
2024/05/14/15:16:06.053292,43089,1715714166,52947324,base_link,2.503528817286333,0.0,0.0,0.0,0.0,-0.0008854559547499875
2024/05/14/15:16:06.073194,43090,1715714166,72946828,base_link,2.510235016219721,0.0,0.0,0.0,0.0,-0.000887799064512676
2024/05/14/15:16:06.095478,43091,1715714166,93130568,base_link,2.5498213367299605,0.0,0.0,0.0,0.0,-0.001304319368851229
2024/05/14/15:16:06.113673,43092,1715714166,113434999,base_link,2.572288171939608,0.0,0.0,0.0,0.0,-0.0013644233760136803
2024/05/14/15:16:06.133734,43093,1715714166,133457940,base_link,2.5867654051189106,0.0,0.0,0.0,0.0,-0.0013885086137786968
2024/05/14/15:16:06.153638,43094,1715714166,153315861,base_link,2.5968709122703584,0.0,0.0,0.0,0.0,-0.0014014884133055124
2024/05/14/15:16:06.173793,43095,1715714166,173502743,base_link,2.6043720189678012,0.0,0.0,0.0,0.0,-0.0014102346236429812
2024/05/14/15:16:06.193794,43096,1715714166,193400362,base_link,2.64413887172619,0.0,0.0,0.0,0.0,-0.0016323749199760867
2024/05/14/15:16:06.213767,43097,1715714166,213512525,base_link,2.666700737510663,0.0,0.0,0.0,0.0,-0.0016644276495498577
2024/05/14/15:16:06.233792,43098,1715714166,233528524,base_link,2.6812368308704437,0.0,0.0,0.0,0.0,-0.0016772706129317115
2024/05/14/15:16:06.253738,43099,1715714166,253427015,base_link,2.6913826052466434,0.0,0.0,0.0,0.0,-0.0016841908303700508
2024/05/14/15:16:06.273294,43100,1715714166,273027018,base_link,2.6989453356992317,0.0,0.0,0.0,0.0,-0.001689031759369149
2024/05/14/15:16:06.294020,43101,1715714166,293724019,base_link,2.740093600234516,0.0,0.0,0.0,0.0,-0.0017464538610638843
2024/05/14/15:16:06.313230,43102,1715714166,313001379,base_link,2.7634369502859073,0.0,0.0,0.0,0.0,-0.0017547349458208595
2024/05/14/15:16:06.333133,43103,1715714166,332896296,base_link,2.778475295632926,0.0,0.0,0.0,0.0,-0.0017580503464469158
2024/05/14/15:16:06.353037,43104,1715714166,352818051,base_link,2.788970831123597,0.0,0.0,0.0,0.0,-0.0017598349708135375
2024/05/14/15:16:06.373180,43105,1715714166,372953905,base_link,2.796711551524761,0.0,0.0,0.0,0.0,-0.001760949407974673
2024/05/14/15:16:06.393207,43106,1715714166,392959284,base_link,2.8344401554315843,0.0,0.0,0.0,0.0,-0.0018018672266023295
2024/05/14/15:16:06.413840,43107,1715714166,413600860,base_link,2.8558399345377725,0.0,0.0,0.0,0.0,-0.0018077652938780664
2024/05/14/15:16:06.433254,43108,1715714166,432984235,base_link,2.86962430391762,0.0,0.0,0.0,0.0,-0.0018101250243618726
2024/05/14/15:16:06.453295,43109,1715714166,452994688,base_link,2.8792434984537705,0.0,0.0,0.0,0.0,-0.0018113942144171646
2024/05/14/15:16:06.473347,43110,1715714166,473081563,base_link,2.8864447483675937,0.0,0.0,0.0,0.0,-0.0018122616372515353
2024/05/14/15:16:06.493919,43111,1715714166,493596931,base_link,2.9242608477848338,0.0,0.0,0.0,0.0,-0.0018539746975165254
2024/05/14/15:16:06.513279,43112,1715714166,513012545,base_link,2.9457112523466167,0.0,0.0,0.0,0.0,-0.0018599872472080377
2024/05/14/15:16:06.533546,43113,1715714166,533255387,base_link,2.959528385492522,0.0,0.0,0.0,0.0,-0.0018623927107833192
2024/05/14/15:16:06.553314,43114,1715714166,552995437,base_link,2.9691703785453627,0.0,0.0,0.0,0.0,-0.001863686489704028
2024/05/14/15:16:06.573371,43115,1715714166,573073173,base_link,2.9763874890591144,0.0,0.0,0.0,0.0,-0.0018646022749332347
2024/05/14/15:16:06.593419,43116,1715714166,593104543,base_link,3.0129226556968414,0.0,0.0,0.0,0.0,-0.0019041444366178614
2024/05/14/15:16:06.613308,43117,1715714166,613054963,base_link,3.0336463848435504,0.0,0.0,0.0,0.0,-0.0019098470038136075
2024/05/14/15:16:06.633433,43118,1715714166,633132053,base_link,3.0469953063899045,0.0,0.0,0.0,0.0,-0.0019121302075400708
2024/05/14/15:16:06.653204,43119,1715714166,652932486,base_link,3.0563104499996254,0.0,0.0,0.0,0.0,-0.001913359386809329
2024/05/14/15:16:06.673384,43120,1715714166,673084704,base_link,3.0632559641303425,0.0,0.0,0.0,0.0,-0.0019142793822457356
2024/05/14/15:16:06.693889,43121,1715714166,693540713,base_link,3.101952500776876,0.0,0.0,0.0,0.0,-0.0019575274965343047
2024/05/14/15:16:06.713314,43122,1715714166,713062708,base_link,3.1239041285293263,0.0,0.0,0.0,0.0,-0.0019637684013764835
2024/05/14/15:16:06.733883,43123,1715714166,733612027,base_link,3.138045305312737,0.0,0.0,0.0,0.0,-0.001966269440383356
2024/05/14/15:16:06.753306,43124,1715714166,753038414,base_link,3.183162011798207,0.0,0.0,0.0,0.0,-0.0020075235382629114
2024/05/14/15:16:06.774035,43125,1715714166,773745800,base_link,3.2075159887624825,0.0,0.0,0.0,0.0,-0.002013374975872214
2024/05/14/15:16:06.793856,43126,1715714166,793396235,base_link,3.2227371544130583,0.0,0.0,0.0,0.0,-0.0020157036053659485
2024/05/14/15:16:06.813942,43127,1715714166,813667588,base_link,3.2331507548823315,0.0,0.0,0.0,0.0,-0.00201695336624409
2024/05/14/15:16:06.833571,43128,1715714166,833265551,base_link,3.2407233072974084,0.0,0.0,0.0,0.0,-0.002017732275382543
2024/05/14/15:16:06.853941,43129,1715714166,853675320,base_link,3.283114271022845,0.0,0.0,0.0,0.0,-0.0020645100413958914
2024/05/14/15:16:06.873362,43130,1715714166,873072664,base_link,3.307068841106915,0.0,0.0,0.0,0.0,-0.0020713042802193186
2024/05/14/15:16:06.893786,43131,1715714166,893167725,base_link,3.3224448927470056,0.0,0.0,0.0,0.0,-0.002074021751986911
2024/05/14/15:16:06.913300,43132,1715714166,913067821,base_link,3.3331499904145487,0.0,0.0,0.0,0.0,-0.002075482903502232
2024/05/14/15:16:06.933169,43133,1715714166,932956376,base_link,3.341031414237599,0.0,0.0,0.0,0.0,-0.0020763942762786303
2024/05/14/15:16:06.953423,43134,1715714166,953066416,base_link,3.3736797155763627,0.0,0.0,0.0,0.0,-0.0021073778579085464
2024/05/14/15:16:06.973382,43135,1715714166,973091929,base_link,3.3920598299183533,0.0,0.0,0.0,0.0,-0.002111806905929625
2024/05/14/15:16:06.993373,43136,1715714166,993102603,base_link,3.4039050849394092,0.0,0.0,0.0,0.0,-0.002113576013363074
2024/05/14/15:16:07.013917,43137,1715714167,13538822,base_link,3.4121773041364207,0.0,0.0,0.0,0.0,-0.0021145256657748635
2024/05/14/15:16:07.033571,43138,1715714167,33358503,base_link,3.418283009738772,0.0,0.0,0.0,0.0,-0.002115116882253712
2024/05/14/15:16:07.054103,43139,1715714167,53734085,base_link,3.4230498816621684,0.0,0.0,0.0,0.0,-0.0021155317248440124
2024/05/14/15:16:07.073715,43140,1715714167,73443033,base_link,3.4267305496634233,0.0,0.0,0.0,0.0,-0.0021156390581745822
2024/05/14/15:16:07.093867,43141,1715714167,93524313,base_link,3.4562083193718123,0.0,0.0,0.0,0.0,-0.0022515939399133256
2024/05/14/15:16:07.113850,43142,1715714167,113577304,base_link,3.473470046054921,0.0,0.0,0.0,0.0,-0.002271484904877124
2024/05/14/15:16:07.133677,43143,1715714167,133455894,base_link,3.4848074480598332,0.0,0.0,0.0,0.0,-0.0022794644476935148
2024/05/14/15:16:07.153478,43144,1715714167,153183605,base_link,3.492824537911925,0.0,0.0,0.0,0.0,-0.002283761680473022
2024/05/14/15:16:07.173298,43145,1715714167,173022763,base_link,3.49876671731084,0.0,0.0,0.0,0.0,-0.0022862628082899947
2024/05/14/15:16:07.193387,43146,1715714167,193056907,base_link,3.534635313049655,0.0,0.0,0.0,0.0,-0.0024387314553070746
2024/05/14/15:16:07.213906,43147,1715714167,213642125,base_link,3.5550673264470545,0.0,0.0,0.0,0.0,-0.002460725049998886
2024/05/14/15:16:07.234039,43148,1715714167,233596548,base_link,3.5682643810362085,0.0,0.0,0.0,0.0,-0.00246953323726466
2024/05/14/15:16:07.254070,43149,1715714167,253750806,base_link,3.577491992458584,0.0,0.0,0.0,0.0,-0.002474276677475057
2024/05/14/15:16:07.273208,43150,1715714167,272883994,base_link,3.5842857015920093,0.0,0.0,0.0,0.0,-0.002477546688521341
2024/05/14/15:16:07.293554,43151,1715714167,293029706,base_link,3.616385066253565,0.0,0.0,0.0,0.0,-0.0032574476788785663
2024/05/14/15:16:07.313900,43152,1715714167,313582442,base_link,3.6346079917925302,0.0,0.0,0.0,0.0,-0.00336998376302441
2024/05/14/15:16:07.333972,43153,1715714167,333554410,base_link,3.64635434735452,0.0,0.0,0.0,0.0,-0.0034150770078305768
2024/05/14/15:16:07.354121,43154,1715714167,353788425,base_link,3.654556495443037,0.0,0.0,0.0,0.0,-0.0034393763700456817
2024/05/14/15:16:07.373800,43155,1715714167,373555087,base_link,3.660581726646818,0.0,0.0,0.0,0.0,-0.003454388986197269
2024/05/14/15:16:07.394117,43156,1715714167,393643478,base_link,3.693875961049967,0.0,0.0,0.0,0.0,-0.0038778860358899808
2024/05/14/15:16:07.414084,43157,1715714167,413780186,base_link,3.712769646196462,0.0,0.0,0.0,0.0,-0.003938985350870354
2024/05/14/15:16:07.434005,43158,1715714167,433732889,base_link,3.7249454583722033,0.0,0.0,0.0,0.0,-0.003963462469260131
2024/05/14/15:16:07.454011,43159,1715714167,453705421,base_link,3.733446131192283,0.0,0.0,0.0,0.0,-0.003976648980405021
2024/05/14/15:16:07.473248,43160,1715714167,473008491,base_link,3.739753605842594,0.0,0.0,0.0,0.0,-0.0039844333592788704
2024/05/14/15:16:07.495622,43161,1715714167,492996801,base_link,3.772165639070337,0.0,0.0,0.0,0.0,-0.00406605925364599
2024/05/14/15:16:07.513233,43162,1715714167,513002218,base_link,3.790554999868051,0.0,0.0,0.0,0.0,-0.004077824130394573
2024/05/14/15:16:07.533708,43163,1715714167,533469428,base_link,3.802403484958282,0.0,0.0,0.0,0.0,-0.00408253067745859
2024/05/14/15:16:07.553447,43164,1715714167,553122590,base_link,3.8106740080336654,0.0,0.0,0.0,0.0,-0.004085062050852689
2024/05/14/15:16:07.573393,43165,1715714167,573121752,base_link,3.816817123933149,0.0,0.0,0.0,0.0,-0.0040859306047316395
2024/05/14/15:16:07.595319,43166,1715714167,593277006,base_link,3.8436706548102335,0.0,0.0,0.0,0.0,-0.004132328508137156
2024/05/14/15:16:07.613369,43167,1715714167,613099274,base_link,3.8589051656422924,0.0,0.0,0.0,0.0,-0.0041390167585597095
2024/05/14/15:16:07.633219,43168,1715714167,632983999,base_link,3.8687201417775374,0.0,0.0,0.0,0.0,-0.004141693091860952
2024/05/14/15:16:07.653311,43169,1715714167,653017515,base_link,3.875570640775358,0.0,0.0,0.0,0.0,-0.004143133112843214
2024/05/14/15:16:07.673188,43170,1715714167,672915868,base_link,3.880697167124529,0.0,0.0,0.0,0.0,-0.004143051243964789
2024/05/14/15:16:07.694156,43171,1715714167,693158881,base_link,3.909560779080649,0.0,0.0,0.0,0.0,-0.004197314186912177
2024/05/14/15:16:07.713892,43172,1715714167,713639490,base_link,3.92593407057729,0.0,0.0,0.0,0.0,-0.004205133920908639
2024/05/14/15:16:07.733936,43173,1715714167,733669719,base_link,3.93648160965542,0.0,0.0,0.0,0.0,-0.004208261759260637
2024/05/14/15:16:07.753324,43174,1715714167,753042959,base_link,3.943842593572146,0.0,0.0,0.0,0.0,-0.004209943946765215
2024/05/14/15:16:07.773285,43175,1715714167,773034113,base_link,3.9493302521969817,0.0,0.0,0.0,0.0,-0.004209384301777921
2024/05/14/15:16:07.793625,43176,1715714167,793099733,base_link,3.9854001379523982,0.0,0.0,0.0,0.0,-0.004280998708879411
2024/05/14/15:16:07.813520,43177,1715714167,813227703,base_link,4.005862607317932,0.0,0.0,0.0,0.0,-0.004291333696353233
2024/05/14/15:16:07.833226,43178,1715714167,832999304,base_link,4.019045292633492,0.0,0.0,0.0,0.0,-0.004295476400770546
2024/05/14/15:16:07.853730,43179,1715714167,853412487,base_link,4.0282459948937275,0.0,0.0,0.0,0.0,-0.004297710160414168
2024/05/14/15:16:07.873825,43180,1715714167,873590326,base_link,4.035035926491063,0.0,0.0,0.0,0.0,-0.004297917358427943
2024/05/14/15:16:07.894155,43181,1715714167,893802895,base_link,4.065726168209386,0.0,0.0,0.0,0.0,-0.004350111430729833
2024/05/14/15:16:07.913885,43182,1715714167,913624649,base_link,4.083139009238012,0.0,0.0,0.0,0.0,-0.00435765416571179
2024/05/14/15:16:07.933372,43183,1715714167,933086345,base_link,4.094358566060527,0.0,0.0,0.0,0.0,-0.004360683732043867
2024/05/14/15:16:07.953158,43184,1715714167,952896056,base_link,4.132619302922145,0.0,0.0,0.0,0.0,-0.0045394236926053644
2024/05/14/15:16:07.973409,43185,1715714167,973077932,base_link,4.153271291608171,0.0,0.0,0.0,0.0,-0.004564241043528202
2024/05/14/15:16:07.994375,43186,1715714167,993497493,base_link,4.166179346250496,0.0,0.0,0.0,0.0,-0.0045741309814992985
2024/05/14/15:16:08.013747,43187,1715714168,13447554,base_link,4.175011099240008,0.0,0.0,0.0,0.0,-0.004579448436391539
2024/05/14/15:16:08.033268,43188,1715714168,33065461,base_link,4.181433950770503,0.0,0.0,0.0,0.0,-0.004582769692409397
2024/05/14/15:16:08.053301,43189,1715714168,52998191,base_link,4.186315047917311,0.0,0.0,0.0,0.0,-0.004585041670922445
2024/05/14/15:16:08.073689,43190,1715714168,73414089,base_link,4.190227734392267,0.0,0.0,0.0,0.0,-0.004585674081390432
2024/05/14/15:16:08.093952,43191,1715714168,93654325,base_link,4.217356328861255,0.0,0.0,0.0,0.0,-0.0046451612945674695
2024/05/14/15:16:08.113658,43192,1715714168,113352652,base_link,4.233177517415632,0.0,0.0,0.0,0.0,-0.004653870561043492
2024/05/14/15:16:08.133860,43193,1715714168,133560703,base_link,4.243540692215028,0.0,0.0,0.0,0.0,-0.004657368714993475
2024/05/14/15:16:08.153738,43194,1715714168,153438067,base_link,4.2779857484713695,0.0,0.0,0.0,0.0,-0.004711728556286039
2024/05/14/15:16:08.173555,43195,1715714168,173290327,base_link,4.296742478474639,0.0,0.0,0.0,0.0,-0.004719111305255777
2024/05/14/15:16:08.198450,43196,1715714168,193213345,base_link,4.308500680945308,0.0,0.0,0.0,0.0,-0.004722054071041195
2024/05/14/15:16:08.213627,43197,1715714168,213128621,base_link,4.316559768041635,0.0,0.0,0.0,0.0,-0.0047236372978006385
