time,.header.seq,.header.stamp.secs,.header.stamp.nsecs,.header.frame_id,.pose.position.x,.pose.position.y,.pose.position.z,.pose.orientation.x,.pose.orientation.y,.pose.orientation.z,.pose.orientation.w
2024/05/14/15:15:58.533621,42713,1715714158,533101548,map,34.47447001510537,-3.8101064330445906,-1.1168262958526611,0.0011354464034095087,0.01621876938902859,-0.14199750993548985,0.9897334840516869
2024/05/14/15:15:58.553372,42714,1715714158,553156603,map,34.474338043064385,-3.81005973077216,-1.113969087600708,0.001290637507264847,0.016248422048300726,-0.1419996565805329,0.9897324995001304
2024/05/14/15:15:58.573637,42715,1715714158,573126686,map,34.47422085256618,-3.8100181138622795,-1.113969087600708,0.0012906358402520217,0.016248422180714067,-0.14199955503856346,0.9897325140686322
2024/05/14/15:15:58.593887,42716,1715714158,593659430,map,34.47411647046561,-3.809980885639716,-1.113969087600708,0.00129063422999836,0.016248422308618782,-0.14199945695393762,0.9897325281410891
2024/05/14/15:15:58.613771,42717,1715714158,613505030,map,34.47402253433547,-3.809947260464126,-1.113969087600708,0.001290632654474797,0.01624842243376468,-0.1419993609848094,0.9897325419100207
2024/05/14/15:15:58.633073,42718,1715714158,632888827,map,34.47393753986769,-3.8099167208772706,-1.113969087600708,0.0012906311174753812,0.016248422555850402,-0.1419992673622839,0.98973255534227
2024/05/14/15:15:58.653193,42719,1715714158,652966427,map,34.47386026735071,-3.8098888466282395,-1.113969087600708,0.0012906296179018466,0.016248422674963205,-0.14199917601946305,0.989732568447436
2024/05/14/15:15:58.673275,42720,1715714158,673023463,map,34.473347391209316,-3.809706980336607,-1.1153852939605713,0.001334219718703344,0.01629802051494177,-0.1420004747661366,0.989731508820058
2024/05/14/15:15:58.694093,42721,1715714158,693785324,map,34.47289138108953,-3.8095446198993277,-1.1153852939605713,0.0013342339466592247,0.01629801935017939,-0.14200133878860174,0.9897313848551441
2024/05/14/15:15:58.713982,42722,1715714158,713718475,map,34.472482213358084,-3.8093983983812327,-1.1153852939605713,0.001334247812409409,0.016298018215056713,-0.14200218081532148,0.9897312640453112
2024/05/14/15:15:58.735162,42723,1715714158,733412840,map,34.472112876646094,-3.8092659132049724,-1.1153852939605713,0.0013342613067553837,0.016298017110327717,-0.1420030002877004,0.9897311464707615
2024/05/14/15:15:58.755826,42724,1715714158,753385656,map,34.47177778485872,-3.8091452433734747,-1.1153852939605713,0.001334274442366966,0.016298016034956096,-0.14200379797514304,0.9897310320211606
2024/05/14/15:15:58.774473,42725,1715714158,774151465,map,34.47190296186396,-3.809189599409226,-1.117409110069275,0.0013152855066096499,0.016262926916335706,-0.14200327026801163,0.9897317103464656
2024/05/14/15:15:58.793338,42726,1715714158,793062894,map,34.47201481982043,-3.809229351923217,-1.117409110069275,0.0013152787233719186,0.016262927464937516,-0.14200285745267993,0.9897317695756885
2024/05/14/15:15:58.813220,42727,1715714158,812986160,map,34.472114551325326,-3.809264960143432,-1.117409110069275,0.0013152721227727292,0.016262927998765494,-0.14200245575238254,0.9897318272099986
2024/05/14/15:15:58.833932,42728,1715714158,833667223,map,34.472204240503686,-3.8092971209245037,-1.117409110069275,0.0013152656981906552,0.016262928518355382,-0.1420020647641525,0.9897318833072254
2024/05/14/15:15:58.853851,42729,1715714158,853519768,map,34.47228540562823,-3.8093263493594467,-1.117409110069275,0.0013152594428070428,0.01626292902425884,-0.1420016840730198,0.9897319379269197
2024/05/14/15:15:58.874204,42730,1715714158,873521630,map,34.472359236480166,-3.8093530518290972,-1.117409110069275,0.0013152533501191838,0.016262929517001975,-0.14200131328324245,0.9897319911258726
2024/05/14/15:15:58.894105,42731,1715714158,893785489,map,34.47215517084109,-3.809279571585017,-1.1172523498535156,0.0011280784921254374,0.016254342729067728,-0.14199830161961263,0.9897327953132133
2024/05/14/15:15:58.914156,42732,1715714158,913869647,map,34.47197313681554,-3.8092136734082533,-1.1172523498535156,0.0011280762753672464,0.01625434288291429,-0.14199816664040563,0.9897328146788532
2024/05/14/15:15:58.933220,42733,1715714158,932991212,map,34.47180963262892,-3.8091541619888165,-1.1172523498535156,0.0011280741110143567,0.016254343033123547,-0.14199803485217502,0.9897328335866614
2024/05/14/15:15:58.953808,42734,1715714158,953550411,map,34.47217065548901,-3.8092786108092813,-1.1168235540390015,0.0012047894036906369,0.016273453658689617,-0.14199873651561049,0.9897323284689055
2024/05/14/15:15:58.973689,42735,1715714158,973263164,map,34.47248960082828,-3.8093885910597622,-1.1168235540390015,0.0012047832249202641,0.01627345411612773,-0.1419983607300522,0.989732382383485
2024/05/14/15:15:58.993941,42736,1715714158,993706401,map,34.47277267690641,-3.809486273821039,-1.1168235540390015,0.0012047772751660115,0.016273454556608665,-0.141997998872976,0.9897324342995847
2024/05/14/15:15:59.013716,42737,1715714159,13453740,map,34.47302634194536,-3.8095738257517944,-1.1168235540390015,0.0012047714544166058,0.016273454987536812,-0.14199764486181446,0.9897324850898901
2024/05/14/15:15:59.033562,42738,1715714159,33384011,map,34.473255051679736,-3.8096527744208415,-1.1168235540390015,0.001204765784274957,0.01627345540731298,-0.14199730001043182,0.9897325345659092
2024/05/14/15:15:59.053668,42739,1715714159,53421838,map,34.47346235146569,-3.8097243393265354,-1.1168235540390015,0.0012047602609080055,0.01627345581622111,-0.14199696408570656,0.9897325827610981
2024/05/14/15:15:59.075391,42740,1715714159,73639965,map,34.47319046764563,-3.8096284507513754,-1.1162993907928467,0.0011875347375945838,0.016236442844240754,-0.141997203631823,0.9897331770966128
2024/05/14/15:15:59.093843,42741,1715714159,93600264,map,34.47294882038808,-3.8095429606006728,-1.1162993907928467,0.0011875394545428385,0.01623644249924209,-0.14199749116525498,0.9897331358440951
2024/05/14/15:15:59.113750,42742,1715714159,113472771,map,34.472732864721,-3.8094662975029023,-1.1162993907928467,0.0011875440443226742,0.016236442163543228,-0.14199777094681088,0.9897330957036596
2024/05/14/15:15:59.133314,42743,1715714159,132943838,map,34.47253850244825,-3.809397069397419,-1.1162993907928467,0.001187548509288026,0.016236441836972114,-0.14199804311998113,0.9897330566547267
2024/05/14/15:15:59.153129,42744,1715714159,152906948,map,34.47236257991612,-3.8093341967550414,-1.1162993907928467,0.001187552854118014,0.01623644151918661,-0.1419983079699937,0.9897330186563806
2024/05/14/15:15:59.173535,42745,1715714159,173115549,map,34.47250899238637,-3.8093887159253947,-1.1164411306381226,0.001114268073675381,0.016323519423724057,-0.14199673536094568,0.98973189716565
2024/05/14/15:15:59.193198,42746,1715714159,192933077,map,34.472638933699905,-3.809437567623142,-1.1164411306381226,0.001114269246852438,0.016323519343641176,-0.14199680649332347,0.9897318869602924
2024/05/14/15:15:59.214135,42747,1715714159,213053063,map,34.47275496840985,-3.8094816341180984,-1.1164411306381226,0.0011142704016065626,0.016323519264815792,-0.14199687650867687,0.9897318769151889
2024/05/14/15:15:59.233138,42748,1715714159,232933851,map,34.47285929328998,-3.8095216635803273,-1.1164411306381226,0.0011142715337852157,0.016323519187531367,-0.14199694515522807,0.9897318670664629
2024/05/14/15:15:59.253199,42749,1715714159,253018606,map,34.472923321519445,-3.809541846622056,-1.1174516677856445,0.0011404362710236574,0.01616428710068615,-0.14199817932741024,0.9897342735781858
2024/05/14/15:15:59.274662,42750,1715714159,273841044,map,34.47298007591503,-3.8095595294982525,-1.1174516677856445,0.001140434828490992,0.016164287202460853,-0.14199809100158334,0.9897342862503776
2024/05/14/15:15:59.293722,42751,1715714159,293493068,map,34.47303043998336,-3.8095750309402185,-1.1174516677856445,0.0011404334336039895,0.0161642873008739,-0.141998005593085,0.9897342985040098
2024/05/14/15:15:59.313823,42752,1715714159,313551171,map,34.47307575295779,-3.8095887901755883,-1.1174516677856445,0.0011404320673834305,0.016164287397264332,-0.1419979219398236,0.9897343105058095
2024/05/14/15:15:59.333667,42753,1715714159,333421503,map,34.473116740563,-3.8096010583074555,-1.1174516677856445,0.0011404307333201093,0.016164287491385876,-0.14199784025553944,0.9897343222251115
2024/05/14/15:15:59.353595,42754,1715714159,353404133,map,34.473153999400225,-3.809612041480079,-1.1174516677856445,0.0011404294305179053,0.016164287583301767,-0.14199776048536333,0.9897343336697882
2024/05/14/15:15:59.373450,42755,1715714159,373168008,map,34.473635180746406,-3.809778917636226,-1.1163723468780518,0.00121605371190556,0.016264520625649467,-0.14199915876728858,0.9897324009506661
2024/05/14/15:15:59.393189,42756,1715714159,392946359,map,34.4740623202771,-3.8099272590116247,-1.1163723468780518,0.0012160662998047793,0.016264519684481782,-0.14199992476904616,0.9897322910503491
2024/05/14/15:15:59.413252,42757,1715714159,413048793,map,34.47444500273861,-3.810060289452984,-1.1163723468780518,0.0012160785752369856,0.01626451876666709,-0.14200067175644956,0.9897321838774895
2024/05/14/15:15:59.433855,42758,1715714159,433583826,map,34.47478999224121,-3.810180325954776,-1.1163723468780518,0.0012160905305297405,0.016264517872779757,-0.1420013992626167,0.9897320794991171
2024/05/14/15:15:59.453201,42759,1715714159,453003191,map,34.47510265381896,-3.810289213146192,-1.1163723468780518,0.0012161021766599314,0.01626451700199976,-0.14200210795551857,0.9897319778194382
2024/05/14/15:15:59.480000,42760,1715714159,473684394,map,34.47480442316443,-3.81018783163311,-1.1173611879348755,0.0012963423111761643,0.016277038135533387,-0.142003489677115,0.989731471888041
2024/05/14/15:15:59.493677,42761,1715714159,493413217,map,34.47453911716131,-3.8100977725461633,-1.1173611879348755,0.0012963454580906762,0.016277037884905268,-0.1420036810264432,0.9897314444338356
2024/05/14/15:15:59.513247,42762,1715714159,513014616,map,34.47430201814732,-3.8100173913682167,-1.1173611879348755,0.001296348539749682,0.01627703763947367,-0.1420038684078834,0.9897314175488939
2024/05/14/15:15:59.533226,42763,1715714159,532994613,map,34.47408855933527,-3.8099451413484244,-1.1173611879348755,0.0012963515440978948,0.016277037400198743,-0.14200405108840944,0.9897313913383908
2024/05/14/15:15:59.553228,42764,1715714159,553013475,map,34.47389526266519,-3.809879833787096,-1.1173611879348755,0.0012963544730315302,0.016277037166929516,-0.14200422918332156,0.989731365785786
2024/05/14/15:15:59.575397,42765,1715714159,573893953,map,34.47345580592253,-3.809726083096832,-1.1185160875320435,0.0013493697521233159,0.016310806690739626,-0.14200421572499997,0.989730740910222
2024/05/14/15:15:59.593259,42766,1715714159,593016206,map,34.47306625773987,-3.809589451251795,-1.1185160875320435,0.001349359314525346,0.01631080755422384,-0.14200358237730795,0.9897308317812377
2024/05/14/15:15:59.613352,42767,1715714159,613088109,map,34.47271763997206,-3.809466920107378,-1.1185160875320435,0.0013493491362108643,0.01631080839625151,-0.14200296476277136,0.9897309203945042
2024/05/14/15:15:59.633178,42768,1715714159,632972523,map,34.47240369100138,-3.8093563432435316,-1.1185160875320435,0.001349339221323946,0.016310809216480298,-0.1420023631328522,0.9897310067139732
2024/05/14/15:15:59.653132,42769,1715714159,652900260,map,34.472119442476014,-3.809256011795573,-1.1185160875320435,0.0013493295606618223,0.016310810015671997,-0.1420017769291333,0.9897310908197934
2024/05/14/15:15:59.674418,42770,1715714159,673837361,map,34.47242601246184,-3.8093630452508016,-1.1158314943313599,0.0011850562429860873,0.016278640482654223,-0.14199900918675934,0.9897322278756593
2024/05/14/15:15:59.693590,42771,1715714159,693341009,map,34.472698413354074,-3.8094583251945613,-1.1158314943313599,0.0011850502453905941,0.016278640919267454,-0.1419986445363063,0.9897322801927747
2024/05/14/15:15:59.713722,42772,1715714159,713488909,map,34.472941662158014,-3.809543595087493,-1.1158314943313599,0.0011850443909606368,0.01627864134545638,-0.1419982885902287,0.989732331260924
2024/05/14/15:15:59.733232,42773,1715714159,733027631,map,34.47316046768833,-3.8096204521619415,-1.1158314943313599,0.0011850386919418845,0.016278641760329695,-0.141997942093057,0.9897323809732983
2024/05/14/15:15:59.753208,42774,1715714159,752936487,map,34.47335843057655,-3.8096901280080178,-1.1158314943313599,0.0011850331436209247,0.016278642164230684,-0.14199760475821907,0.9897324293710226
2024/05/14/15:15:59.773561,42775,1715714159,773187727,map,34.47334528564241,-3.8096848777653936,-1.1126794815063477,0.0013064771067111478,0.016281157360357422,-0.14199937599098367,0.9897319810184715
2024/05/14/15:15:59.794077,42776,1715714159,793781269,map,34.473333477330385,-3.8096800956596177,-1.1126794815063477,0.0013064753055089748,0.016281157504894308,-0.14199926649585615,0.989731996728011
2024/05/14/15:15:59.813956,42777,1715714159,813680950,map,34.47332305176092,-3.8096757828080463,-1.1126794815063477,0.001306473542178177,0.01628115764639202,-0.14199915930292978,0.989732012107236
2024/05/14/15:15:59.833948,42778,1715714159,833733295,map,34.473313739032605,-3.8096718507460707,-1.1126794815063477,0.0013064718233066893,0.01628115778432193,-0.1419990548126854,0.9897320270986893
2024/05/14/15:15:59.854022,42779,1715714159,853679736,map,34.47330535727426,-3.8096682385612404,-1.1126794815063477,0.0013064701477752412,0.01628115791877387,-0.14199895295708248,0.9897320417121339
2024/05/14/15:15:59.874614,42780,1715714159,873863426,map,34.47340471453026,-3.809702338693715,-1.1116373538970947,0.0013302965707472215,0.01626331730122625,-0.14199882827052565,0.9897323211814352
2024/05/14/15:15:59.893341,42781,1715714159,893069857,map,34.47349274932009,-3.8097325568756033,-1.1116373538970947,0.001330287090482412,0.016263318076684193,-0.14199825133259286,0.989732403955675
2024/05/14/15:15:59.915350,42782,1715714159,912995510,map,34.473571526186824,-3.809759586094456,-1.1116373538970947,0.0013302778444684432,0.016263318832975736,-0.14199768865038068,0.9897324846842924
2024/05/14/15:15:59.933239,42783,1715714159,932981725,map,34.47364246412172,-3.8097839129383146,-1.1116373538970947,0.0013302688410460146,0.016263319569419062,-0.14199714073147837,0.9897325632944882
2024/05/14/15:15:59.953090,42784,1715714159,952897990,map,34.47373122592181,-3.809810612574368,-1.1193379163742065,0.0011873248467691494,0.016243483430119835,-0.14199569189207784,0.9897332787119233
2024/05/14/15:15:59.974878,42785,1715714159,974239017,map,34.47380993228211,-3.809833857439787,-1.1193379163742065,0.00118733554901925,0.016243482647830428,-0.1419963439919111,0.9897331851558249
2024/05/14/15:15:59.993340,42786,1715714159,993069080,map,34.473879754513554,-3.8098540735962154,-1.1193379163742065,0.0011873458523624727,0.016243481894692737,-0.14199697178588233,0.9897330950864495
2024/05/14/15:16:00.013522,42787,1715714160,13291525,map,34.47394261591312,-3.8098718893084547,-1.1193379163742065,0.0011873559165175255,0.016243481159032503,-0.1419975850058297,0.9897330071076118
2024/05/14/15:16:00.033310,42788,1715714160,33077863,map,34.47399951152426,-3.8098876494025675,-1.1193379163742065,0.0011873657119524077,0.016243480443008905,-0.14199818185233823,0.9897329214775032
2024/05/14/15:16:00.053239,42789,1715714160,52980914,map,34.47405126313198,-3.8099016380419086,-1.1193379163742065,0.0011873752462046776,0.01624347974607145,-0.14199876278468163,0.9897328381302619
2024/05/14/15:16:00.075186,42790,1715714160,74468464,map,34.47390153040598,-3.8098515965274484,-1.1169620752334595,0.001229503935733687,0.016271238509419247,-0.1419989495671103,0.9897323039283293
2024/05/14/15:16:00.093494,42791,1715714160,92985356,map,34.473768349477254,-3.809807239330327,-1.1169620752334595,0.0012294989574628346,0.016271238885591666,-0.14199864675331225,0.9897323473736067
2024/05/14/15:16:00.113104,42792,1715714160,112896815,map,34.473649155018016,-3.809767685131182,-1.1169620752334595,0.0012294941163619611,0.01627123925139766,-0.14199835228316077,0.9897323896217144
2024/05/14/15:16:00.133154,42793,1715714160,132947695,map,34.47354173031855,-3.8097321806762134,-1.1169620752334595,0.0012294894062249218,0.0162712396073063,-0.14199806577915444,0.9897324307268205
2024/05/14/15:16:00.153033,42794,1715714160,152779805,map,34.47344436551088,-3.809700140535466,-1.1169620752334595,0.0012294848218583156,0.01627123995371012,-0.14199778692539425,0.9897324707342545
2024/05/14/15:16:00.173699,42795,1715714160,173454006,map,34.47324137004263,-3.8096308546518647,-1.118424654006958,0.0011209474735644732,0.016262876186296755,-0.14199606220022762,0.9897329845238764
2024/05/14/15:16:00.193131,42796,1715714160,192899875,map,34.47306138227896,-3.809569454042049,-1.118424654006958,0.001120946242629244,0.01626287627114109,-0.14199598728745155,0.9897329952715391
2024/05/14/15:16:00.213224,42797,1715714160,213027859,map,34.47290016679488,-3.80951452047524,-1.118424654006958,0.001120945039858616,0.016262876354044047,-0.1419959140887283,0.9897330057732828
2024/05/14/15:16:00.233308,42798,1715714160,233007750,map,34.47275487305734,-3.8094650758512363,-1.118424654006958,0.001120943869561854,0.0162628764347086,-0.14199584286631292,0.9897330159914823
2024/05/14/15:16:00.253315,42799,1715714160,253060677,map,34.47247073974764,-3.8093655958088366,-1.1189454793930054,0.0013219987860047277,0.016249496976253944,-0.1419987328519381,0.9897325729891244
2024/05/14/15:16:00.274034,42800,1715714160,273743522,map,34.47221918409543,-3.8092773283339656,-1.1189454793930054,0.0013219936013478865,0.016249497398057557,-0.1419984170622362,0.989732618295996
2024/05/14/15:16:00.293479,42801,1715714160,293098122,map,34.471996030158856,-3.809198781689883,-1.1189454793930054,0.0013219886050144709,0.016249497804538326,-0.14199811274302684,0.9897326619570798
2024/05/14/15:16:00.313200,42802,1715714160,312995827,map,34.471795570870654,-3.8091280732069857,-1.1189454793930054,0.0013219837152213462,0.01624949820234993,-0.14199781491302194,0.9897327046870563
2024/05/14/15:16:00.333426,42803,1715714160,333190171,map,34.47161454222125,-3.809064074081147,-1.1189454793930054,0.0013219789495423212,0.01624949859006274,-0.14199752464261634,0.9897327463323613
2024/05/14/15:16:00.353190,42804,1715714160,352976600,map,34.47134569257433,-3.808973467421257,-1.1110727787017822,0.0014082462292506351,0.016278764802762146,-0.1419978130125974,0.9897321050459531
2024/05/14/15:16:00.375291,42805,1715714160,374629874,map,34.471107117541855,-3.8088932784605616,-1.1110727787017822,0.0014082318608268517,0.01627876604574187,-0.14199693942723346,0.9897322303796884
2024/05/14/15:16:00.394008,42806,1715714160,393733822,map,34.47089531707817,-3.8088222360284933,-1.1110727787017822,0.0014082180308334687,0.016278767242131138,-0.14199609857784168,0.989732351016034
2024/05/14/15:16:00.413773,42807,1715714160,413515959,map,34.47070460010532,-3.8087584791689633,-1.1110727787017822,0.001408204503278628,0.01627876841234594,-0.14199527611636328,0.9897324690135672
2024/05/14/15:16:00.433562,42808,1715714160,433365328,map,34.47053202177952,-3.8087009851886586,-1.1110727787017822,0.0014081913295177421,0.01627876955194456,-0.14199447516515754,0.9897325839243778
2024/05/14/15:16:00.453290,42809,1715714160,453053110,map,34.47070284541574,-3.808755880442714,-1.114895224571228,0.0013014836771354026,0.01631379563838145,-0.14199273425230471,0.9897324030421867
2024/05/14/15:16:00.476933,42810,1715714160,474774105,map,34.47085436820013,-3.8088041543472064,-1.114895224571228,0.001301485683376794,0.016313795478327196,-0.14199285596782388,0.9897323855801669
2024/05/14/15:16:00.493896,42811,1715714160,493633479,map,34.470989822838064,-3.8088469109803396,-1.114895224571228,0.0013014876167083695,0.016313795324089313,-0.14199297326001792,0.9897323687527285
2024/05/14/15:16:00.513967,42812,1715714160,513692781,map,34.47111145467567,-3.808884930364632,-1.114895224571228,0.001301489489454018,0.016313795174684658,-0.14199308687655798,0.9897323524526079
2024/05/14/15:16:00.533772,42813,1715714160,533559741,map,34.47122144318443,-3.808918949435931,-1.114895224571228,0.0013014913057770151,0.0163137950297811,-0.14199319707002353,0.98973233664357
2024/05/14/15:16:00.554100,42814,1715714160,553789020,map,34.471321453761156,-3.8089495368958,-1.114895224571228,0.0013014930680270316,0.01631379488919121,-0.14199330398296547,0.9897323213051641
2024/05/14/15:16:00.576227,42815,1715714160,574124121,map,34.47188351114492,-3.8091421215943946,-1.1169352531433105,0.0012393355226348259,0.016278555321349465,-0.14199249820096269,0.9897330969199533
2024/05/14/15:16:00.593295,42816,1715714160,593022921,map,34.472383212294105,-3.8093133254916856,-1.1169352531433105,0.001239335016771234,0.01627855535986238,-0.14199246744455155,0.989733101332435
2024/05/14/15:16:00.614124,42817,1715714160,613816719,map,34.47283148793356,-3.8094668250881467,-1.1169352531433105,0.0012393345231485652,0.01627855539744334,-0.14199243743238618,0.9897331056381422
2024/05/14/15:16:00.633821,42818,1715714160,633621693,map,34.47323611273651,-3.8096052814066605,-1.1169352531433105,0.0012393340406981577,0.016278555434173708,-0.14199240809949218,0.9897331098463966
2024/05/14/15:16:00.654041,42819,1715714160,653794690,map,34.473603250447304,-3.8097308128292924,-1.1169352531433105,0.001239333568937844,0.016278555470090193,-0.14199237941655374,0.989733113961404
2024/05/14/15:16:00.674150,42820,1715714160,673783357,map,34.47352096223921,-3.809701513474872,-1.1140714883804321,0.001352383629411971,0.01625244830833754,-0.14199459227894984,0.9897330775244599
2024/05/14/15:16:00.693907,42821,1715714160,693551212,map,34.47344714071929,-3.8096751565300275,-1.1140714883804321,0.0013523883813616668,0.016252447912922015,-0.14199488166068885,0.9897330360075239
2024/05/14/15:16:00.713405,42822,1715714160,713156152,map,34.4733815578564,-3.80965160165598,-1.1140714883804321,0.0013523930132942263,0.016252447527491918,-0.1419951637336824,0.9897329955390739
2024/05/14/15:16:00.733223,42823,1715714160,733001703,map,34.4733226940418,-3.8096303469467565,-1.1140714883804321,0.0013523975220608693,0.016252447152309366,-0.14199543830617808,0.9897329561466265
2024/05/14/15:16:00.753347,42824,1715714160,753082183,map,34.473269491991765,-3.8096110364488616,-1.1140714883804321,0.0013524019118755825,0.016252446787023807,-0.1419957056347974,0.989732917793371
2024/05/14/15:16:00.776217,42825,1715714160,774262562,map,34.472791892428596,-3.8094496937738724,-1.1156188249588013,0.0012313501933068857,0.016265821448365855,-0.14199405903010517,0.9897330923180585
2024/05/14/15:16:00.793333,42826,1715714160,793016403,map,34.47236786480529,-3.8093067292738696,-1.1156188249588013,0.0012313552739640046,0.016265821063750716,-0.14199436817492417,0.9897330479659227
2024/05/14/15:16:00.813771,42827,1715714160,813495349,map,34.47198829515803,-3.8091790555589617,-1.1156188249588013,0.0012313602376048663,0.016265820687992386,-0.1419946701996009,0.9897330046351985
2024/05/14/15:16:00.833631,42828,1715714160,833358659,map,34.47164627118409,-3.80906431269063,-1.1156188249588013,0.0012313650769801689,0.016265820321639764,-0.14199496466303452,0.9897329623891764
2024/05/14/15:16:00.853639,42829,1715714160,853398077,map,34.4713363791777,-3.808960642513165,-1.1156188249588013,0.0012313697960310887,0.016265819964394596,-0.14199525180503586,0.989732921193458
2024/05/14/15:16:00.874326,42830,1715714160,873604980,map,34.471380337259774,-3.8089755409805663,-1.1187018156051636,0.0011333339465208956,0.016233846441609568,-0.1419930771399368,0.9897338752554687
2024/05/14/15:16:00.893198,42831,1715714160,892981105,map,34.47141990591688,-3.808988907078082,-1.1187018156051636,0.0011333208178176215,0.01623384735815874,-0.1419922767182498,0.9897339900883692
2024/05/14/15:16:00.913409,42832,1715714160,912969742,map,34.47145493187731,-3.8090007361960962,-1.1187018156051636,0.0011333080201304149,0.016233848251588544,-0.1419914964776752,0.9897341020253401
2024/05/14/15:16:00.933179,42833,1715714160,932930238,map,34.4714863115998,-3.809011321461598,-1.1187018156051636,0.0011332955585561654,0.016233849121543947,-0.14199073672896023,0.9897342110218494
2024/05/14/15:16:00.953129,42834,1715714160,952887755,map,34.47148839995298,-3.8090108315240783,-1.1192348003387451,0.0012844192945539372,0.016186023736902616,-0.14199252700824722,0.9897345528860132
2024/05/14/15:16:00.973565,42835,1715714160,973292807,map,34.471490231927206,-3.8090102584245624,-1.1192348003387451,0.0012844060431980722,0.01618602478843998,-0.14199171672121627,0.9897346691337159
2024/05/14/15:16:00.993335,42836,1715714160,993030578,map,34.47149203355304,-3.809009670750775,-1.1192348003387451,0.001284393285035069,0.016186025800830606,-0.14199093659164633,0.9897347810542435
2024/05/14/15:16:01.013379,42837,1715714161,13161237,map,34.4714935900065,-3.8090090070591245,-1.1192348003387451,0.0012843807967562037,0.016186026791795483,-0.1419901729647742,0.9897348906066198
2024/05/14/15:16:01.033404,42838,1715714161,33151380,map,34.47149498875873,-3.8090082936803444,-1.1192348003387451,0.0012843686294742962,0.01618602775727941,-0.14198942896602315,0.9897349973425043
2024/05/14/15:16:01.053158,42839,1715714161,52907052,map,34.471496271220474,-3.8090075433767048,-1.1192348003387451,0.0012843567753794858,0.016186028697902834,-0.14198870411784253,0.9897351013304521
2024/05/14/15:16:01.073637,42840,1715714161,72982824,map,34.47167110950981,-3.8090717242018894,-1.1135940551757812,0.0009969721998329328,0.016354134605672116,-0.14198205631476538,0.9897336227553165
2024/05/14/15:16:01.093207,42841,1715714161,92968537,map,34.47182632016839,-3.809129161955945,-1.1135940551757812,0.0009969531647440403,0.016354135766068128,-0.1419809043327836,0.9897337880119974
2024/05/14/15:16:01.113065,42842,1715714161,112884821,map,34.4719652138702,-3.8091809790114923,-1.1135940551757812,0.0009969345958238444,0.016354136898024656,-0.14197978056269583,0.9897339492202443
2024/05/14/15:16:01.133001,42843,1715714161,132815808,map,34.47209029340362,-3.809228031252922,-1.1135940551757812,0.0009969165194599204,0.01635413799993475,-0.14197868660145646,0.9897341061510702
2024/05/14/15:16:01.152956,42844,1715714161,152772204,map,34.472203532756566,-3.8092709968011453,-1.1135940551757812,0.0009968989198067696,0.016354139072765953,-0.14197762149012172,0.9897342589421365
2024/05/14/15:16:01.173800,42845,1715714161,173415232,map,34.471864045041826,-3.809154804380227,-1.1148438453674316,0.0012262788854974507,0.016307792396558198,-0.14198242571146913,0.9897340768794076
2024/05/14/15:16:01.193270,42846,1715714161,193031160,map,34.47156261347699,-3.8090516734102176,-1.1148438453674316,0.001226293891912831,0.01630779126813056,-0.14198333646381656,0.9897339462268879
2024/05/14/15:16:01.213132,42847,1715714161,212919093,map,34.47129287608336,-3.8089594427175437,-1.1148438453674316,0.001226308508503703,0.01630779016900296,-0.141984223557322,0.9897338189675395
2024/05/14/15:16:01.233083,42848,1715714161,232882182,map,34.471049888757435,-3.8088764254305354,-1.1148438453674316,0.0012263227409100832,0.01630778909875232,-0.1419850873342871,0.989733695052321
2024/05/14/15:16:01.253818,42849,1715714161,253538473,map,34.4713480417523,-3.8089774440176023,-1.116709589958191,0.0012496482010495359,0.0162305220055219,-0.1419855624339599,0.9897348678283059
2024/05/14/15:16:01.273216,42850,1715714161,272977416,map,34.47161191842855,-3.80906668338127,-1.116709589958191,0.001249642985659049,0.016230522407073348,-0.14198524440020427,0.9897349134527974
2024/05/14/15:16:01.293141,42851,1715714161,292909354,map,34.47184666979682,-3.809145935719347,-1.116709589958191,0.0012496379506387052,0.01623052279473586,-0.14198493736538736,0.989734957499304
2024/05/14/15:16:01.313190,42852,1715714161,312964362,map,34.47205727911369,-3.809216881935197,-1.116709589958191,0.0012496330331689188,0.01623052317334626,-0.14198463749878043,0.9897350005173818
2024/05/14/15:16:01.333139,42853,1715714161,332922492,map,34.47224741587895,-3.8092807760726406,-1.116709589958191,0.0012496282413268615,0.01623052354228277,-0.1419843452929287,0.9897350424363787
2024/05/14/15:16:01.353371,42854,1715714161,353111014,map,34.47241997716808,-3.809338613013721,-1.116709589958191,0.0012496235711806454,0.01623052390184823,-0.1419840605080667,0.9897350832906975
2024/05/14/15:16:01.373864,42855,1715714161,373587554,map,34.47217295392221,-3.8092545237239794,-1.1163780689239502,0.0011039750607955239,0.01628999604880496,-0.14198062020326938,0.9897347729338856
2024/05/14/15:16:01.393503,42856,1715714161,393165550,map,34.471953208347,-3.8091798044834806,-1.1163780689239502,0.0011039619129998898,0.01628999693982738,-0.1419798213798145,0.9897348875273373
2024/05/14/15:16:01.413304,42857,1715714161,413035046,map,34.471756527975,-3.809113007787068,-1.1163780689239502,0.0011039490895232683,0.016289997808860517,-0.14197904226103278,0.9897349992934649
2024/05/14/15:16:01.433753,42858,1715714161,433527885,map,34.47157926944601,-3.809052895405523,-1.1163780689239502,0.0011039366038391363,0.01628999865499208,-0.14197828366553883,0.9897351081148849
2024/05/14/15:16:01.453326,42859,1715714161,453047033,map,34.47141861895325,-3.8089985038820426,-1.1163780689239502,0.0011039244447447142,0.01628999947898203,-0.14197754491268644,0.9897352140892841
2024/05/14/15:16:01.473770,42860,1715714161,473524529,map,34.471709561554476,-3.809097253787413,-1.114601492881775,0.0012077609708175416,0.0162701647456488,-0.1419795313991101,0.9897351341223952
2024/05/14/15:16:01.493725,42861,1715714161,493508194,map,34.471967984310794,-3.809184841984465,-1.114601492881775,0.0012077649510990837,0.01627016445018549,-0.14197977352477467,0.9897350993889428
2024/05/14/15:16:01.513474,42862,1715714161,513198527,map,34.472199240141315,-3.809263090980125,-1.114601492881775,0.00120776881824161,0.016270164163119757,-0.141980008768043,0.989735065642727
2024/05/14/15:16:01.533165,42863,1715714161,532992867,map,34.47240758519027,-3.80933345143634,-1.114601492881775,0.0012077725801550574,0.0162701638838645,-0.141980237610087,0.9897350328147275
2024/05/14/15:16:01.553249,42864,1715714161,553019832,map,34.47259633457432,-3.8093970601836413,-1.114601492881775,0.001207776241227606,0.016270163612094046,-0.1419804603178456,0.9897350008666559
2024/05/14/15:16:01.573501,42865,1715714161,573248017,map,34.472714428080984,-3.809443404022857,-1.1161656379699707,0.0011965905305439597,0.016230108732319275,-0.1419798970231452,0.989735752907278
2024/05/14/15:16:01.593859,42866,1715714161,593641483,map,34.47281873709075,-3.809485021978378,-1.1161656379699707,0.001196580766956332,0.01623010945215232,-0.1419793016252884,0.9897358383183034
2024/05/14/15:16:01.613729,42867,1715714161,613491082,map,34.47291211902045,-3.809522856157204,-1.1161656379699707,0.001196571258202347,0.01623011015319175,-0.14197872176753595,0.989735921499718
2024/05/14/15:16:01.633583,42868,1715714161,633343650,map,34.47299614282795,-3.8095574515387165,-1.1161656379699707,0.00119656200882569,0.016230110835103034,-0.14197815772697034,0.9897360024118022
2024/05/14/15:16:01.653224,42869,1715714161,653000378,map,34.473072110556565,-3.8095892588473013,-1.1161656379699707,0.0011965530097745843,0.016230111498553957,-0.14197760895160277,0.9897360811337662
2024/05/14/15:16:01.673394,42870,1715714161,673173902,map,34.47278496792522,-3.809491215333877,-1.1152546405792236,0.0012082624257983524,0.016325464039096387,-0.14197800257386814,0.9897344422171804
2024/05/14/15:16:01.693366,42871,1715714161,693131518,map,34.472530116983,-3.8094042572381777,-1.1152546405792236,0.0012082744582926376,0.016325463148556093,-0.14197873204616288,0.9897343375736656
2024/05/14/15:16:01.713240,42872,1715714161,713051406,map,34.472302235663264,-3.8093265710793123,-1.1152546405792236,0.0012082861837121024,0.016325462280734223,-0.14197944290195125,0.9897342356001788
2024/05/14/15:16:01.733282,42873,1715714161,733051143,map,34.47209707690213,-3.809256709190082,-1.1152546405792236,0.001208297601636891,0.016325461435662516,-0.14198013511578228,0.9897341363004122
2024/05/14/15:16:01.753178,42874,1715714161,752920870,map,34.47191133581419,-3.8091935382258924,-1.1152546405792236,0.0012083087231479824,0.01632546061252147,-0.14198080935944501,0.9897340395780352
2024/05/14/15:16:01.773597,42875,1715714161,773354363,map,34.472237510692246,-3.809305364674168,-1.1138499975204468,0.0013484155629692731,0.016270603327356886,-0.14198283189943345,0.9897344718098136
2024/05/14/15:16:01.793371,42876,1715714161,793034856,map,34.47252700065248,-3.809404594033352,-1.1138499975204468,0.0013484079184365497,0.01627060396089071,-0.14198236688547466,0.9897345385185018
2024/05/14/15:16:01.813120,42877,1715714161,812925457,map,34.47278576855818,-3.8094932631230565,-1.1138499975204468,0.0013484004733156697,0.016270604577894972,-0.1419819140016482,0.9897346034868447
2024/05/14/15:16:01.833071,42878,1715714161,832863795,map,34.47301867364965,-3.809573027201603,-1.1138499975204468,0.0013483932239326043,0.01627060517867444,-0.14198147302446532,0.9897346667469198
2024/05/14/15:16:01.853076,42879,1715714161,852863028,map,34.47322948779218,-3.8096451793033563,-1.1138499975204468,0.0013483861629418202,0.016270605763838108,-0.14198104350710103,0.9897347283628417
2024/05/14/15:16:01.873304,42880,1715714161,873128878,map,34.472887126989136,-3.809528173599711,-1.1176389455795288,0.0011834476956309589,0.016322551358776343,-0.14197885257707676,0.9897343983057215
2024/05/14/15:16:01.893939,42881,1715714161,893665777,map,34.47258328805678,-3.8094243951850557,-1.1176389455795288,0.001183458615174491,0.016322550567063804,-0.14197951469461914,0.9897343033237619
2024/05/14/15:16:01.913475,42882,1715714161,913255093,map,34.472311707862424,-3.8093317045425086,-1.1176389455795288,0.0011834692579101775,0.016322549795413928,-0.14198016002760822,0.9897342107491418
2024/05/14/15:16:01.933799,42883,1715714161,933543650,map,34.47206727919597,-3.809248362052144,-1.1176389455795288,0.0011834796217711436,0.016322549043977112,-0.14198078845071924,0.989734120599873
2024/05/14/15:16:01.953550,42884,1715714161,953269642,map,34.471846039084724,-3.8091730092160074,-1.1176389455795288,0.0011834897166891636,0.016322548312033777,-0.1419814005661776,0.9897340327895966
2024/05/14/15:16:01.973745,42885,1715714161,973521992,map,34.471750757051936,-3.80914572427511,-1.114182949066162,0.0014686312402180297,0.01615050614292519,-0.1419858821335317,0.9897358301831708
2024/05/14/15:16:01.993419,42886,1715714161,993015312,map,34.471666498926595,-3.8091221936640607,-1.114182949066162,0.0014686166399881938,0.016150507470576846,-0.1419849874017621,0.9897359585395132
2024/05/14/15:16:02.013249,42887,1715714162,13027553,map,34.47159074961253,-3.809101598679924,-1.114182949066162,0.001468602421674408,0.016150508763486702,-0.14198411607454375,0.9897360835374943
2024/05/14/15:16:02.033191,42888,1715714162,32969923,map,34.47152228750344,-3.809083514653509,-1.114182949066162,0.001468588587485727,0.01615051002145491,-0.1419832682872553,0.9897362051577566
2024/05/14/15:16:02.053303,42889,1715714162,53002417,map,34.47146009684591,-3.8090675898478126,-1.114182949066162,0.0014685751236714047,0.01615051124573282,-0.14198244319722605,0.9897363235212467
2024/05/14/15:16:02.073362,42890,1715714162,73107179,map,34.471579154319556,-3.809109350888474,-1.1158095598220825,0.0011157096528719636,0.016303538800911045,-0.14197678173269332,0.9897350874165091
2024/05/14/15:16:02.094558,42891,1715714162,93438847,map,34.47168494969026,-3.8091465478944952,-1.1158095598220825,0.0011157207572755935,0.016303538040993066,-0.14197745584509008,0.9897349907153394
2024/05/14/15:16:02.113263,42892,1715714162,113031166,map,34.47177936036884,-3.809179837812749,-1.1158095598220825,0.0011157315732568905,0.016303537300805655,-0.14197811244826758,0.9897348965254104
2024/05/14/15:16:02.133212,42893,1715714162,132990045,map,34.47186424283479,-3.809209849391027,-1.1158095598220825,0.001115742104617993,0.016303536580089185,-0.14197875177304392,0.9897348048136461
2024/05/14/15:16:02.153210,42894,1715714162,152963066,map,34.471941008884,-3.8092370650960086,-1.1158095598220825,0.001115752361938298,0.016303535878120206,-0.14197937446166245,0.9897347154879497
2024/05/14/15:16:02.173282,42895,1715714162,173044203,map,34.471637812309034,-3.8091291857415794,-1.115097999572754,0.0011385880577681196,0.0162564698252426,-0.14197963045618203,0.9897354269407463
2024/05/14/15:16:02.193251,42896,1715714162,192932498,map,34.47136908390576,-3.8090331398730264,-1.115097999572754,0.0011385821311810866,0.01625647024033417,-0.14197926963041302,0.9897354787018954
2024/05/14/15:16:02.213428,42897,1715714162,213159302,map,34.471128883049346,-3.808946916097781,-1.115097999572754,0.0011385763560029067,0.01625647064481914,-0.14197891802279278,0.9897355291405541
2024/05/14/15:16:02.233191,42898,1715714162,232929634,map,34.470912777982555,-3.8088689988412474,-1.115097999572754,0.0011385707281690075,0.016256471038982354,-0.1419785753858604,0.989735578292231
2024/05/14/15:16:02.253196,42899,1715714162,252955389,map,34.47071728265274,-3.808798190598491,-1.115097999572754,0.0011385652420549805,0.016256471423217882,-0.1419782413771882,0.9897356262060573
2024/05/14/15:16:02.273309,42900,1715714162,273097151,map,34.47094002759319,-3.808874370875342,-1.116457462310791,0.0012599085183299678,0.016277696805001383,-0.14198042328060623,0.9897348173234635
2024/05/14/15:16:02.293437,42901,1715714162,293109371,map,34.47113782116634,-3.8089419770484643,-1.116457462310791,0.0012599150011690032,0.016277696303222455,-0.14198081745746682,0.9897347607775323
2024/05/14/15:16:02.313757,42902,1715714162,313501858,map,34.4713145038319,-3.8090023332054925,-1.116457462310791,0.0012599213168796584,0.01627769581437695,-0.1419812014723899,0.9897347056892096
2024/05/14/15:16:02.333178,42903,1715714162,332942871,map,34.47147346521831,-3.8090565908720095,-1.116457462310791,0.0012599274649727076,0.01627769533850293,-0.1419815752956299,0.9897346520627744
2024/05/14/15:16:02.353273,42904,1715714162,353004675,map,34.47161731099027,-3.8091056419951688,-1.116457462310791,0.0012599334514823578,0.01627769487513353,-0.14198193929408612,0.9897345998456052
2024/05/14/15:16:02.373200,42905,1715714162,372990097,map,34.4712263704883,-3.8089706317242715,-1.1155017614364624,0.001331561509798653,0.016238628163692148,-0.14198421431678135,0.9897348214467112
2024/05/14/15:16:02.393421,42906,1715714162,393186169,map,34.47087968182971,-3.8088508101343486,-1.1155017614364624,0.0013315763632819966,0.016238626945705163,-0.1419851196278165,0.9897346915732426
2024/05/14/15:16:02.414150,42907,1715714162,413922647,map,34.47056974881402,-3.808743632663065,-1.1155017614364624,0.001331590850571181,0.016238625757732956,-0.14198600261948488,0.9897345649008357
2024/05/14/15:16:02.433234,42908,1715714162,433006862,map,34.47029081539698,-3.808647134042089,-1.1155017614364624,0.0013316049564830127,0.01623862460102157,-0.14198686236638375,0.9897344415623095
2024/05/14/15:16:02.453174,42909,1715714162,452912770,map,34.47003837907272,-3.8085597689104804,-1.1155017614364624,0.0013316186937104484,0.016238623474531148,-0.14198769964214478,0.9897343214467401
2024/05/14/15:16:02.473305,42910,1715714162,473069859,map,34.4697308027869,-3.808451471724224,-1.1177359819412231,0.0012825975191529118,0.016244743047729607,-0.14198688948919647,0.989734401988786
2024/05/14/15:16:02.493644,42911,1715714162,493013870,map,34.46945865383567,-3.8083553120726705,-1.1177359819412231,0.0012825973319242005,0.016244743062512182,-0.14198687808201718,0.9897344036252552
2024/05/14/15:16:02.513387,42912,1715714162,513172443,map,34.46921504108732,-3.8082689978676667,-1.1177359819412231,0.0012825971590005477,0.0162447430761653,-0.1419868675463942,0.9897344051366911
2024/05/14/15:16:02.533241,42913,1715714162,533005264,map,34.46899569008497,-3.808191056251954,-1.1177359819412231,0.001282596988292306,0.0162447430896435,-0.1419868571457483,0.9897344066287632
2024/05/14/15:16:02.553280,42914,1715714162,553022693,map,34.468797150873236,-3.808120297601517,-1.1177359819412231,0.0012825968188342957,0.016244743103022985,-0.1419868468212746,0.9897344081099076
2024/05/14/15:16:02.573210,42915,1715714162,572871465,map,34.469071461221795,-3.808216699646184,-1.1156258583068848,0.0012708216719955073,0.01626542097305177,-0.14198675749122475,0.9897340965077315
2024/05/14/15:16:02.593362,42916,1715714162,593119013,map,34.46931508406456,-3.808302546129167,-1.1156258583068848,0.0012708250231849428,0.016265420711222105,-0.14198696140764544,0.9897340672539624
2024/05/14/15:16:02.613115,42917,1715714162,612902781,map,34.469532555936844,-3.8083794123378882,-1.1156258583068848,0.0012708282942936289,0.016265420455648504,-0.14198716045123247,0.9897340386992071
2024/05/14/15:16:02.633471,42918,1715714162,633010482,map,34.46972810288787,-3.808448732166189,-1.1156258583068848,0.001270831482344071,0.01626542020656365,-0.14198735444080857,0.9897340108694596
2024/05/14/15:16:02.653115,42919,1715714162,652950913,map,34.46955313689625,-3.808386096802743,-1.1164696216583252,0.00123377900365224,0.01629490059647175,-0.1419863103954902,0.9897337226063365
2024/05/14/15:16:02.673237,42920,1715714162,673041712,map,34.46939847424241,-3.8083304456988714,-1.1164696216583252,0.001233774230697231,0.01629490095785844,-0.14198602049163053,0.9897337641956405
2024/05/14/15:16:02.694048,42921,1715714162,693735000,map,34.469261101400356,-3.808280727486379,-1.1164696216583252,0.001233769626771975,0.01629490130644563,-0.1419857408544404,0.9897338043120164
2024/05/14/15:16:02.713849,42922,1715714162,713625604,map,34.469137978596976,-3.8082359198443956,-1.1164696216583252,0.0012337651236491909,0.016294901647399267,-0.14198546733987275,0.9897338435499714
2024/05/14/15:16:02.733883,42923,1715714162,733648658,map,34.46902696081141,-3.8081952875529375,-1.1164696216583252,0.0012337607342205426,0.01629490197974336,-0.14198520073095292,0.989733881797179
2024/05/14/15:16:02.753989,42924,1715714162,753730290,map,34.46892633917926,-3.808158242901936,-1.1164696216583252,0.0012337564553307615,0.016294902303716895,-0.1419849408360339,0.9897339190811383
2024/05/14/15:16:02.773202,42925,1715714162,773000387,map,34.469039447148546,-3.8081937817275153,-1.1119966506958008,0.0014943741519641142,0.016298315904272356,-0.1419903963341604,0.9897327210380823
2024/05/14/15:16:02.794421,42926,1715714162,793976032,map,34.469140134437936,-3.808225058431041,-1.1119966506958008,0.001494396285808902,0.016298313874830005,-0.14199174043558707,0.9897325282078241
2024/05/14/15:16:02.813783,42927,1715714162,813562733,map,34.46923028753194,-3.8082527230571026,-1.1119966506958008,0.0014944178578222744,0.01629831189687256,-0.14199305041910842,0.9897323402704669
2024/05/14/15:16:02.833289,42928,1715714162,833038150,map,34.46931159424455,-3.808277347865511,-1.1119966506958008,0.0014944388566401827,0.01629830997144427,-0.14199432559463762,0.9897321573251535
2024/05/14/15:16:02.853645,42929,1715714162,853361121,map,34.469385346834734,-3.8082993747498053,-1.1119966506958008,0.0014944593021693152,0.01629830809672204,-0.1419955671710363,0.989731979198588
2024/05/14/15:16:02.873651,42930,1715714162,873403993,map,34.46957945161222,-3.8083690475605247,-1.116897463798523,0.0010575326396659516,0.016311993663425974,-0.14198909256913309,0.9897332459197451
2024/05/14/15:16:02.893660,42931,1715714162,893401861,map,34.469751497772045,-3.808431152774333,-1.116897463798523,0.0010575397487959605,0.016311993202528144,-0.14198952391690967,0.9897331840376423
2024/05/14/15:16:02.913952,42932,1715714162,913695042,map,34.469905479675475,-3.808487031368678,-1.116897463798523,0.0010575467034210169,0.01631199275164415,-0.14198994589005545,0.9897331235002593
2024/05/14/15:16:02.933185,42933,1715714162,932949250,map,34.4700441398073,-3.8085376243707456,-1.116897463798523,0.0010575534812355036,0.01631199231222031,-0.14199035713517402,0.9897330645017706
2024/05/14/15:16:02.953316,42934,1715714162,953012366,map,34.47016966350508,-3.8085836837711518,-1.116897463798523,0.001057560086986215,0.01631199188394911,-0.14199075794027896,0.9897330070008705
2024/05/14/15:16:02.973367,42935,1715714162,973093435,map,34.470093638419954,-3.8085546010996705,-1.1171340942382812,0.0011699967265049805,0.016207839498413847,-0.14199175678602952,0.9897344482492618
2024/05/14/15:16:02.994014,42936,1715714162,993726382,map,34.47002601796625,-3.8085284199101466,-1.1171340942382812,0.0011699752391491753,0.016207841049509165,-0.14199044465696697,0.9897346364923127
2024/05/14/15:16:03.013486,42937,1715714163,13217522,map,34.46996577656193,-3.8085047709642548,-1.1171340942382812,0.0011699542911428236,0.016207842561643204,-0.1419891654632518,0.9897348200086238
2024/05/14/15:16:03.033156,42938,1715714163,32934284,map,34.46991169288027,-3.8084832420827057,-1.1171340942382812,0.001169933890669837,0.016207844034227335,-0.14198791970464525,0.9897349987266292
2024/05/14/15:16:03.053749,42939,1715714163,53473013,map,34.46986284907175,-3.8084635202069275,-1.1171340942382812,0.001169914018523028,0.016207845468650044,-0.14198670620826565,0.9897351728147188
2024/05/14/15:16:03.073298,42940,1715714163,73013389,map,34.47039068125401,-3.808642075808022,-1.115009069442749,0.0013282348393462223,0.015987370119430876,-0.14199025736909276,0.9897380494863954
2024/05/14/15:16:03.095418,42941,1715714163,92980065,map,34.47085875028158,-3.808800137788635,-1.115009069442749,0.0013282328561632045,0.015987370284194103,-0.14199013459519783,0.9897380670998329
2024/05/14/15:16:03.113219,42942,1715714163,112973580,map,34.47127758629453,-3.8089412574319614,-1.115009069442749,0.0013282309000870018,0.015987370446705056,-0.14199001349941706,0.9897380844725088
2024/05/14/15:16:03.133050,42943,1715714163,132839429,map,34.47165481272665,-3.80906804245372,-1.115009069442749,0.0013282289886271791,0.015987370605509043,-0.14198989516572383,0.9897381014489149
2024/05/14/15:16:03.153519,42944,1715714163,153260065,map,34.47199643349105,-3.8091825555730323,-1.115009069442749,0.0013282271214674556,0.015987370760632356,-0.14198977957453798,0.989738118031861
2024/05/14/15:16:03.173284,42945,1715714163,173010726,map,34.472753432067094,-3.809446055219683,-1.1166081428527832,0.0009189095188730438,0.015549418558769498,-0.14198592518670966,0.9897461130192198
2024/05/14/15:16:03.193615,42946,1715714163,193402354,map,34.47342379055459,-3.80967986029653,-1.1166081428527832,0.0009189080746298157,0.015549418644118528,-0.14198583325824804,0.989746126206989
2024/05/14/15:16:03.213178,42947,1715714163,212935962,map,34.47402379994756,-3.809889414276514,-1.1166081428527832,0.0009189066674371196,0.015549418727277893,-0.1419857436881132,0.9897461390564318
2024/05/14/15:16:03.233131,42948,1715714163,232929674,map,34.47456411670942,-3.8100783796424467,-1.1166081428527832,0.0009189053007905932,0.015549418808041017,-0.1419856566988082,0.9897461515356291
2024/05/14/15:16:03.253093,42949,1715714163,252905379,map,34.4760746199106,-3.8106016135230236,-1.1198145151138306,0.0009707812967202794,0.015182901803254252,-0.14198833512317335,0.9897514080643968
2024/05/14/15:16:03.273360,42950,1715714163,273148190,map,34.477411309808666,-3.811065044442871,-1.1198145151138306,0.0009707794463858636,0.015182901921562882,-0.14198821450254856,0.9897514253684532
2024/05/14/15:16:03.293545,42951,1715714163,293107051,map,34.478597060741876,-3.8114768109643413,-1.1198145151138306,0.0009707776706902895,0.015182902035098962,-0.14198809874752075,0.9897514419744842
2024/05/14/15:16:03.313330,42952,1715714163,313119760,map,34.47966171986759,-3.811846783431504,-1.1198145151138306,0.0009707759359703721,0.015182902146014903,-0.14198798566363577,0.989751458197304
2024/05/14/15:16:03.333470,42953,1715714163,333101689,map,34.48062289565763,-3.8121810409232895,-1.1198145151138306,0.0009707742498877255,0.015182902253820843,-0.14198787575034322,0.9897514739652634
2024/05/14/15:16:03.353855,42954,1715714163,353645889,map,34.48149495559341,-3.8124845424273133,-1.1198145151138306,0.0009707726112504233,0.015182902358593008,-0.14198776892994322,0.9897514892895102
2024/05/14/15:16:03.373518,42955,1715714163,373260873,map,34.48375308579508,-3.8132669843420186,-1.123085379600525,0.0009958657534129254,0.015163056965353158,-0.14198757769599465,0.9897517960250894
2024/05/14/15:16:03.393788,42956,1715714163,393531487,map,34.485755496329084,-3.8139618141683886,-1.123085379600525,0.0009958559260649243,0.01516305761078177,-0.14198693622669192,0.989751888048628
2024/05/14/15:16:03.413736,42957,1715714163,413457246,map,34.48755050936414,-3.814585138504023,-1.123085379600525,0.0009958463471632963,0.015163058239887069,-0.14198631097442105,0.9897519777453043
2024/05/14/15:16:03.433342,42958,1715714163,433115942,map,34.48916909702742,-3.815147609230957,-1.123085379600525,0.0009958370256959738,0.015163058852079239,-0.14198570252586187,0.9897520650309874
2024/05/14/15:16:03.453198,42959,1715714163,452976962,map,34.49063616228665,-3.815657805589595,-1.123085379600525,0.0009958279530418856,0.015163059447924947,-0.14198511031828584,0.9897521499864351
2024/05/14/15:16:03.473001,42960,1715714163,472822515,map,34.49360425723902,-3.8166808690255007,-1.1252321004867554,0.0010380466714444464,0.015295340361134797,-0.1419829509693666,0.9897503809831928
2024/05/14/15:16:03.493733,42961,1715714163,493492621,map,34.50624669251408,-3.8204855843886136,-1.1252321004867554,0.0010378809383490486,0.015295351608016986,-0.14197222649657865,0.989751919384827
2024/05/14/15:16:03.513274,42962,1715714163,513055609,map,34.516271971021155,-3.8235137802369277,-1.1252321004867554,0.0010378026607871559,0.015295356919415746,-0.14196716120719544,0.9897526459480243
2024/05/14/15:16:03.533370,42963,1715714163,533101336,map,34.52499741935911,-3.8261524528562236,-1.1252321004867554,0.0010377339253223846,0.015295361583018922,-0.14196271337900548,0.9897532839210058
2024/05/14/15:16:03.553333,42964,1715714163,553049784,map,34.532957467544286,-3.8285592599975278,-1.1252321004867554,0.0010376686457394806,0.015295366011858142,-0.1419584891773334,0.9897538897992945
2024/05/14/15:16:03.573225,42965,1715714163,573021811,map,34.5425918109568,-3.831558174256517,-1.121598243713379,0.0011825445594439159,0.015186403036923377,-0.14195788070761922,0.9897554924607221
2024/05/14/15:16:03.602573,42966,1715714163,593243383,map,34.555684354321876,-3.835536382541236,-1.121598243713379,0.0011824824941076982,0.015186407869739136,-0.14195383567368372,0.9897560726202662
2024/05/14/15:16:03.613292,42967,1715714163,613066596,map,34.566915502064774,-3.8389543354355227,-1.121598243713379,0.00118243093972907,0.0151864118839085,-0.1419504756779933,0.989756554515279
2024/05/14/15:16:03.633690,42968,1715714163,633475155,map,34.57716514228765,-3.8420718430394487,-1.121598243713379,0.0011823807794460349,0.01518641578936065,-0.14194720654011764,0.9897570233681711
2024/05/14/15:16:03.653271,42969,1715714163,653010121,map,34.58679990516512,-3.844998069840515,-1.121598243713379,0.0011823312913663564,0.015186419642312071,-0.14194398121161703,0.989757485927215
2024/05/14/15:16:03.673225,42970,1715714163,672983718,map,34.597581185962234,-3.8483344305777423,-1.1291364431381226,0.0010549429785629407,0.015034089244226459,-0.14193826607976057,0.9897607750755633
2024/05/14/15:16:03.694468,42971,1715714163,693753570,map,34.611534636827635,-3.852567326042358,-1.1291364431381226,0.0010548703408803115,0.015034094341040834,-0.14193348401809985,0.9897614608431632
2024/05/14/15:16:03.713291,42972,1715714163,713066777,map,34.62392052083636,-3.856325929994418,-1.1291364431381226,0.0010548003331359403,0.015034099252984906,-0.14192887509536847,0.9897621217596033
2024/05/14/15:16:03.733505,42973,1715714163,732992800,map,34.63546223897344,-3.859824255903386,-1.1291364431381226,0.0010547312374328834,0.015034104100616313,-0.14192432621485224,0.989762774044553
2024/05/14/15:16:03.753516,42974,1715714163,753206199,map,34.646464391994826,-3.863153311453069,-1.1291364431381226,0.0010546629141969287,0.015034108893739016,-0.14191982818780974,0.9897634190164087
2024/05/14/15:16:03.773210,42975,1715714163,773016165,map,34.65834409646637,-3.8667926879924748,-1.123167872428894,0.001549989094350633,0.015146531015432736,-0.14192219890581526,0.9897607132987972
2024/05/14/15:16:03.793391,42976,1715714163,793125163,map,34.67261748194261,-3.8711052009915976,-1.123167872428894,0.001549926854946327,0.01514653738444493,-0.14191813182785962,0.9897612964702631
2024/05/14/15:16:03.813528,42977,1715714163,813281827,map,34.685621459006676,-3.8750319556804436,-1.123167872428894,0.0015498628662669956,0.015146543932192532,-0.1419139504415731,0.9897618960144267
2024/05/14/15:16:03.833381,42978,1715714163,832899242,map,34.697929557559775,-3.878742906551343,-1.123167872428894,0.0015497987557426271,0.015146550492134184,-0.14190976109250766,0.989762496682246
2024/05/14/15:16:03.853176,42979,1715714163,852931132,map,34.709785533225315,-3.8823110953546336,-1.123167872428894,0.0015497347071400675,0.015146557045466049,-0.14190557578904112,0.9897630967519382
2024/05/14/15:16:03.873891,42980,1715714163,873572224,map,34.72193622369412,-3.8859853178698938,-1.1348971128463745,0.0016051777718066925,0.015140377006598123,-0.14190083483848936,0.9897637826575384
2024/05/14/15:16:03.893722,42981,1715714163,893345262,map,34.73701532316915,-3.8904919545093577,-1.1348971128463745,0.001605070499059379,0.015140388379235082,-0.14189382215352392,0.9897647880295011
2024/05/14/15:16:03.913685,42982,1715714163,913432799,map,34.75086675932488,-3.894629035107434,-1.1348971128463745,0.0016049767161185138,0.015140398321105851,-0.1418876913290696,0.9897656669321915
2024/05/14/15:16:03.933750,42983,1715714163,933504824,map,34.76407104353109,-3.8985679016652153,-1.1348971128463745,0.0016048841123900844,0.015140408137392642,-0.14188163759127786,0.9897665347458644
2024/05/14/15:16:03.953604,42984,1715714163,953331658,map,34.776870005111995,-3.902380536485376,-1.1348971128463745,0.0016047918173561914,0.015140417920386944,-0.1418756040322456,0.989767399629279
2024/05/14/15:16:03.974135,42985,1715714163,973697814,map,34.790561662597554,-3.9065185198770407,-1.13300359249115,0.0016131220172929824,0.015109897493823252,-0.14187834339688551,0.9897674598157078
2024/05/14/15:16:03.993821,42986,1715714163,993469205,map,34.806650186645534,-3.9113349399629276,-1.13300359249115,0.001613153878466474,0.01510989409231283,-0.14188043044953097,0.9897671606446332
2024/05/14/15:16:04.014041,42987,1715714164,13733148,map,34.821617173494644,-3.9158126618239573,-1.13300359249115,0.001613185933178059,0.01510989067007164,-0.14188253017964458,0.9897668596517594
2024/05/14/15:16:04.033579,42988,1715714164,33390198,map,34.83598257949619,-3.9201053918883706,-1.13300359249115,0.0016132160934396208,0.015109887450023875,-0.1418845058144744,0.9897665764435905
2024/05/14/15:16:04.053558,42989,1715714164,53324440,map,34.8499648596206,-3.9242783283090596,-1.13300359249115,0.0016132443994477208,0.01510988442788932,-0.14188635998710558,0.9897663106434229
2024/05/14/15:16:04.073352,42990,1715714164,73080848,map,34.86450879672274,-3.9286449227725533,-1.136167287826538,0.0016476646717690155,0.015300677100789355,-0.14188362442082514,0.9897637150363702
2024/05/14/15:16:04.093217,42991,1715714164,92982235,map,34.881263593715765,-3.93363763663802,-1.136167287826538,0.0016476113323962384,0.015300682844584908,-0.14188017402587255,0.9897642096478206
2024/05/14/15:16:04.113193,42992,1715714164,113001251,map,34.89700509088194,-3.938324425525104,-1.136167287826538,0.0016475655410041906,0.015300687775433853,-0.1418772118911863,0.9897646342577463
2024/05/14/15:16:04.133206,42993,1715714164,132982628,map,34.912204919677706,-3.9428446159732355,-1.136167287826538,0.001647518676648119,0.015300692821676771,-0.14187418034871835,0.9897650688076267
2024/05/14/15:16:04.153172,42994,1715714164,152933015,map,34.92706088376838,-3.9472571961288625,-1.136167287826538,0.0016474702984190506,0.01530069803077763,-0.14187105087710022,0.9897655173850087
2024/05/14/15:16:04.173247,42995,1715714164,173020486,map,34.94233147523891,-3.9518104999169235,-1.13273286819458,0.0013514261306587323,0.015694710036430963,-0.1418551075722139,0.9897620816034334
2024/05/14/15:16:04.193564,42996,1715714164,193075361,map,34.96018093147586,-3.9570979181919452,-1.13273286819458,0.001351237073748829,0.015694726314428063,-0.141843184992903,0.989763790303199
2024/05/14/15:16:04.213193,42997,1715714164,212980118,map,34.97699246861264,-3.9620735849412836,-1.13273286819458,0.0013510706457849873,0.015694740642150547,-0.14183268946599958,0.9897652943618135
2024/05/14/15:16:04.233296,42998,1715714164,233049946,map,34.99326352519679,-3.966884067903777,-1.13273286819458,0.0013509053482301811,0.01569475487079671,-0.14182226522032307,0.9897667880930651
2024/05/14/15:16:04.253197,42999,1715714164,252946304,map,35.009200098273396,-3.971590539707661,-1.13273286819458,0.0013507397293005315,0.015694769125347563,-0.14181182070131768,0.9897682846169923
2024/05/14/15:16:04.273254,43000,1715714164,273029016,map,35.0257781783672,-3.976502608489294,-1.1358553171157837,0.0014617529447413112,0.015600913472232419,-0.14178592161035225,0.9897733211247226
2024/05/14/15:16:04.293454,43001,1715714164,293070474,map,35.045313569551226,-3.982257220068097,-1.1358553171157837,0.0014613106555857694,0.015600954906909204,-0.14175786131025125,0.9897773403821205
2024/05/14/15:16:04.313227,43002,1715714164,312990048,map,35.063706900078,-3.9876686827251717,-1.1358553171157837,0.0014608727347828166,0.015600995919886366,-0.14173007811417848,0.9897813191482799
2024/05/14/15:16:04.333247,43003,1715714164,333020463,map,35.08151236337769,-3.992900189739158,-1.1358553171157837,0.001460436858286584,0.015601036729092745,-0.1417024245775524,0.9897852785559115
2024/05/14/15:16:04.353127,43004,1715714164,352904061,map,35.09895826329215,-3.9980194260999298,-1.1358553171157837,0.0014600029956714916,0.015601077337548619,-0.1416748987706023,0.9897892188923356
2024/05/14/15:16:04.373333,43005,1715714164,373071314,map,35.11681754560581,-4.003326750449593,-1.1432209014892578,0.0016560806845847002,0.015365337849368239,-0.14167793171696788,0.9897921637666885
2024/05/14/15:16:04.393762,43006,1715714164,393538891,map,35.13841049971933,-4.009702930699501,-1.1432209014892578,0.0016560396844663787,0.015365342268317855,-0.1416752906036946,0.9897925418095953
2024/05/14/15:16:04.413314,43007,1715714164,413094578,map,35.158676635851045,-4.015684842567108,-1.1432209014892578,0.0016560125694796506,0.015365345190681796,-0.14167354393173617,0.9897927918202694
2024/05/14/15:16:04.433140,43008,1715714164,432948103,map,35.178277966606,-4.021466931010308,-1.1432209014892578,0.001655985082157947,0.015365348153125366,-0.1416717732748839,0.9897930452608216
2024/05/14/15:16:04.453358,43009,1715714164,453046913,map,35.20130557640982,-4.028237858871709,-1.1432209014892578,0.0016559738900428459,0.015365349359340292,-0.14167105230990992,0.9897931484542332
2024/05/14/15:16:04.473136,43010,1715714164,472927014,map,35.2237814834996,-4.034853914561583,-1.1557186841964722,0.0017842864982787045,0.014732279623992501,-0.14165696195682273,0.9898045672696888
2024/05/14/15:16:04.495143,43011,1715714164,493054986,map,35.24551582701115,-4.0412417079008955,-1.1557186841964722,0.0017840049148559872,0.014732313724979318,-0.14163804345788092,0.9898072746268316
2024/05/14/15:16:04.513198,43012,1715714164,512968427,map,35.2668191889873,-4.0474947091940665,-1.1557186841964722,0.0017837240185486847,0.014732347737312503,-0.14161917111563435,0.9898099750110084
2024/05/14/15:16:04.533019,43013,1715714164,532873427,map,35.287839648192985,-4.053657796292467,-1.1557186841964722,0.0017834441310775491,0.014732381622085731,-0.1416003665453344,0.9898126653326879
2024/05/14/15:16:04.553057,43014,1715714164,552855175,map,35.30865885554588,-4.05975591862843,-1.1557186841964722,0.0017831654748063732,0.014732415352443158,-0.14158164468684942,0.9898153434588389
2024/05/14/15:16:04.573078,43015,1715714164,572878738,map,35.33044913154386,-4.066186300404518,-1.1646512746810913,0.0017744423220993736,0.014191495869068113,-0.1415634505431729,0.9898258646195071
