time,.header.seq,.header.stamp.secs,.header.stamp.nsecs,.header.frame_id,.orientation.x,.orientation.y,.orientation.z,.orientation.w,.orientation_covariance,.angular_velocity.x,.angular_velocity.y,.angular_velocity.z,.angular_velocity_covariance,.linear_acceleration.x,.linear_acceleration.y,.linear_acceleration.z,.linear_acceleration_covariance
2024/05/14/15:15:58.734976,87529,1715714158,732564158,gps,0.01829688964797817,-0.010685889983268266,-0.9414579416613175,0.3364639351658816,"(0.0025338456167567497, 0.0, 0.0, 0.0, 0.0025446478207159645, 0.0, 0.0, 0.0, 0.014107533114451398)",0.0004379724595210678,0.00039746414221704753,-0.0013950901049529338,"(0.001, 0.0, 0.0, 0.0, 0.001, 0.0, 0.0, 0.0, 0.001)",-0.012344751477438324,-0.02099188247545363,-0.0022973267964495384,"(0.001, 0.0, 0.0, 0.0, 0.001, 0.0, 0.0, 0.0, 0.001)"
2024/05/14/15:15:58.742587,87530,1715714158,740570243,gps,0.01829688964797817,-0.010685889983268266,-0.9414579416613175,0.3364639351658816,"(0.0025338456167567497, 0.0, 0.0, 0.0, 0.0025446478207159645, 0.0, 0.0, 0.0, 0.014107533114451398)",0.0004176068482120349,-0.000628983653083206,-0.00037271835560867414,"(0.001, 0.0, 0.0, 0.0, 0.001, 0.0, 0.0, 0.0, 0.001)",-0.0046342880683295,-0.021967614656850137,0.016723076271090424,"(0.001, 0.0, 0.0, 0.0, 0.001, 0.0, 0.0, 0.0, 0.001)"
2024/05/14/15:15:58.760549,87531,1715714158,757740896,gps,0.01828417068098757,-0.01067254675478134,-0.9414579752780097,0.3364649560261903,"(0.0025338456167567497, 0.0, 0.0, 0.0, 0.0025446478207159645, 0.0, 0.0, 0.0, 0.014107533114451398)",0.00018614272549963615,-0.0007475259243909794,-0.00042373313855697024,"(0.001, 0.0, 0.0, 0.0, 0.001, 0.0, 0.0, 0.0, 0.001)",0.0029879478741649144,0.00509891034806062,0.011264915404279756,"(0.001, 0.0, 0.0, 0.0, 0.001, 0.0, 0.0, 0.0, 0.001)"
2024/05/14/15:15:58.764145,87532,1715714158,762194438,gps,0.01828417068098757,-0.01067254675478134,-0.9414579752780097,0.3364649560261903,"(0.0025338456167567497, 0.0, 0.0, 0.0, 0.0025446478207159645, 0.0, 0.0, 0.0, 0.014107533114451398)",6.728254966903351e-05,-0.00016209347152995192,-0.0009557410401922615,"(0.001, 0.0, 0.0, 0.0, 0.001, 0.0, 0.0, 0.0, 0.001)",-0.015702665152904832,-0.016269029230140102,0.017197229746251392,"(0.001, 0.0, 0.0, 0.0, 0.001, 0.0, 0.0, 0.0, 0.001)"
2024/05/14/15:15:58.774289,87533,1715714158,772294816,gps,0.018282480872621753,-0.010685118698692405,-0.9414586070851413,0.3364628809792291,"(0.0025338456167567497, 0.0, 0.0, 0.0, 0.0025446478207159645, 0.0, 0.0, 0.0, 0.014107533114451398)",0.0008758735563486558,2.4511619988557167e-07,-0.0004997363834121952,"(0.001, 0.0, 0.0, 0.0, 0.001, 0.0, 0.0, 0.0, 0.001)",-0.002105008373243074,0.007141166284958956,0.022464816722424646,"(0.001, 0.0, 0.0, 0.0, 0.001, 0.0, 0.0, 0.0, 0.001)"
2024/05/14/15:15:58.780472,87534,1715714158,780398364,gps,0.018282480872621753,-0.010685118698692405,-0.9414586070851413,0.3364628809792291,"(0.0025338456167567497, 0.0, 0.0, 0.0, 0.0025446478207159645, 0.0, 0.0, 0.0, 0.014107533114451398)",0.0004342875874694814,5.939354043155635e-05,-0.00038833608673008983,"(0.001, 0.0, 0.0, 0.0, 0.001, 0.0, 0.0, 0.0, 0.001)",0.004946416023082089,-0.012559413235369103,0.01054620049531942,"(0.001, 0.0, 0.0, 0.0, 0.001, 0.0, 0.0, 0.0, 0.001)"
2024/05/14/15:15:58.792684,87535,1715714158,792615288,gps,0.018289158783244587,-0.01068952200521981,-0.9414587996640326,0.33646183933019824,"(0.0025338456167567497, 0.0, 0.0, 0.0, 0.0025446478207159645, 0.0, 0.0, 0.0, 0.014107533114451398)",-0.00014124411372906106,0.0008642330657573797,5.205361697849517e-05,"(0.001, 0.0, 0.0, 0.0, 0.001, 0.0, 0.0, 0.0, 0.001)",-0.001011204779257333,-0.009559141520966872,-0.0018835068092031687,"(0.001, 0.0, 0.0, 0.0, 0.001, 0.0, 0.0, 0.0, 0.001)"
2024/05/14/15:15:58.800117,87536,1715714158,800009089,gps,0.018289158783244587,-0.01068952200521981,-0.9414587996640326,0.33646183933019824,"(0.0025338456167567497, 0.0, 0.0, 0.0, 0.0025446478207159645, 0.0, 0.0, 0.0, 0.014107533114451398)",0.00038215626585881357,0.0006209095119672531,3.1231726824376224e-05,"(0.001, 0.0, 0.0, 0.0, 0.001, 0.0, 0.0, 0.0, 0.001)",-0.006845147993475115,-0.002643289983002727,0.010847575950851559,"(0.001, 0.0, 0.0, 0.0, 0.001, 0.0, 0.0, 0.0, 0.001)"
2024/05/14/15:15:58.814118,87537,1715714158,814061752,gps,0.01828501087148959,-0.010695079595823876,-0.9414586695553403,0.3364622522200031,"(0.0025338456167567497, 0.0, 0.0, 0.0, 0.0025446478207159645, 0.0, 0.0, 0.0, 0.014107533114451398)",0.0004119040005673982,0.0007832473958877937,-1.978431934352785e-05,"(0.001, 0.0, 0.0, 0.0, 0.001, 0.0, 0.0, 0.0, 0.001)",-0.003246729605557493,-0.010140366466366282,0.02577990025911708,"(0.001, 0.0, 0.0, 0.0, 0.001, 0.0, 0.0, 0.0, 0.001)"
2024/05/14/15:15:58.821591,87538,1715714158,821467367,gps,0.01828501087148959,-0.010695079595823876,-0.9414586695553403,0.3364622522200031,"(0.0025338456167567497, 0.0, 0.0, 0.0, 0.0025446478207159645, 0.0, 0.0, 0.0, 0.014107533114451398)",0.0005322953805555488,-5.810911099579519e-05,2.2902980576961584e-05,"(0.001, 0.0, 0.0, 0.0, 0.001, 0.0, 0.0, 0.0, 0.001)",-0.007616478516828766,0.0116726838850079,0.002469834059120901,"(0.001, 0.0, 0.0, 0.0, 0.001, 0.0, 0.0, 0.0, 0.001)"
2024/05/14/15:15:58.831685,87539,1715714158,831623145,gps,0.018273290277461485,-0.010676054009587006,-0.9414608542934481,0.33645738001457354,"(0.0025338456167567497, 0.0, 0.0, 0.0, 0.0025446478207159645, 0.0, 0.0, 0.0, 0.014107533114451398)",0.0003289825872998391,-0.0010158059457388694,-0.0003050471276703375,"(0.001, 0.0, 0.0, 0.0, 0.001, 0.0, 0.0, 0.0, 0.001)",-0.010295292033531482,0.011882161701244356,-0.0005147770295418305,"(0.001, 0.0, 0.0, 0.0, 0.001, 0.0, 0.0, 0.0, 0.001)"
2024/05/14/15:15:58.840919,87540,1715714158,840804026,gps,0.018273290277461485,-0.010676054009587006,-0.9414608542934481,0.33645738001457354,"(0.0025338456167567497, 0.0, 0.0, 0.0, 0.0025446478207159645, 0.0, 0.0, 0.0, 0.014107533114451398)",0.001125551214315189,-0.00043453295230118025,2.4984538197281622e-05,"(0.001, 0.0, 0.0, 0.0, 0.001, 0.0, 0.0, 0.0, 0.001)",-0.00733083305872735,-0.005907692191353052,0.009200904690063537,"(0.001, 0.0, 0.0, 0.0, 0.001, 0.0, 0.0, 0.0, 0.001)"
2024/05/14/15:15:58.905930,87541,1715714158,905855896,gps,0.018272418703415415,-0.010688386992394355,-0.9414593286310574,0.33646130480604514,"(0.0025221469567358046, 0.0, 0.0, 0.0, 0.0025328481025727184, 0.0, 0.0, 0.0, 0.014116831865047752)",0.0005318058939701707,0.00011150641805588564,0.00035813652597089797,"(0.001, 0.0, 0.0, 0.0, 0.001, 0.0, 0.0, 0.0, 0.001)",-0.013505207540425425,0.011593935033440202,0.015567279232888455,"(0.001, 0.0, 0.0, 0.0, 0.001, 0.0, 0.0, 0.0, 0.001)"
2024/05/14/15:15:58.931689,87542,1715714158,931101841,gps,0.018272418703415415,-0.010688386992394355,-0.9414593286310574,0.33646130480604514,"(0.0025221469567358046, 0.0, 0.0, 0.0, 0.0025328481025727184, 0.0, 0.0, 0.0, 0.014116831865047752)",0.0006209185029621883,9.162765806071041e-05,0.0004487158858681347,"(0.001, 0.0, 0.0, 0.0, 0.001, 0.0, 0.0, 0.0, 0.001)",-0.001059330526379964,-0.010806416145014708,0.013074724687474313,"(0.001, 0.0, 0.0, 0.0, 0.001, 0.0, 0.0, 0.0, 0.001)"
2024/05/14/15:15:58.939468,87543,1715714158,939375302,gps,0.01826972636180184,-0.01068540278937747,-0.94145690275146,0.3364683336177741,"(0.0025221469567358046, 0.0, 0.0, 0.0, 0.0025328481025727184, 0.0, 0.0, 0.0, 0.014116831865047752)",7.979390809415799e-05,-3.6273534113537107e-05,0.00043518123933229425,"(0.001, 0.0, 0.0, 0.0, 0.001, 0.0, 0.0, 0.0, 0.001)",5.246041713756388e-05,-0.005391909377039301,0.04950644466679653,"(0.001, 0.0, 0.0, 0.0, 0.001, 0.0, 0.0, 0.0, 0.001)"
2024/05/14/15:15:58.943479,87544,1715714158,943358674,gps,0.01826972636180184,-0.01068540278937747,-0.94145690275146,0.3364683336177741,"(0.0025221469567358046, 0.0, 0.0, 0.0, 0.0025328481025727184, 0.0, 0.0, 0.0, 0.014116831865047752)",-0.0002736573930626777,8.746778380765201e-05,0.00023528793253814464,"(0.001, 0.0, 0.0, 0.0, 0.001, 0.0, 0.0, 0.0, 0.001)",-0.0025959019833308133,-0.004345352485195409,-0.010119577221596818,"(0.001, 0.0, 0.0, 0.0, 0.001, 0.0, 0.0, 0.0, 0.001)"
2024/05/14/15:15:58.965796,87545,1715714158,965645300,gps,0.018279765430758335,-0.010687048499584503,-0.9414586973090205,0.3364627147714382,"(0.0025221469567358046, 0.0, 0.0, 0.0, 0.0025328481025727184, 0.0, 0.0, 0.0, 0.014116831865047752)",-0.0007417765831489157,0.0005506543463902475,-0.00025690976657413754,"(0.001, 0.0, 0.0, 0.0, 0.001, 0.0, 0.0, 0.0, 0.001)",0.01287662188072717,0.005720298473454315,0.01825447233836894,"(0.001, 0.0, 0.0, 0.0, 0.001, 0.0, 0.0, 0.0, 0.001)"
2024/05/14/15:15:58.970741,87546,1715714158,970433813,gps,0.018279765430758335,-0.010687048499584503,-0.9414586973090205,0.3364627147714382,"(0.0025221469567358046, 0.0, 0.0, 0.0, 0.0025328481025727184, 0.0, 0.0, 0.0, 0.014116831865047752)",0.00025208318538760637,-0.0003974518366812802,-0.0008098613797515357,"(0.001, 0.0, 0.0, 0.0, 0.001, 0.0, 0.0, 0.0, 0.001)",-0.003406480851333207,-0.002955644949844217,-0.02176015462428843,"(0.001, 0.0, 0.0, 0.0, 0.001, 0.0, 0.0, 0.0, 0.001)"
2024/05/14/15:15:58.975455,87547,1715714158,975356709,gps,0.018266204432405914,-0.01068923400174783,-0.9414635490086599,0.3364498059742464,"(0.0025221469567358046, 0.0, 0.0, 0.0, 0.0025328481025727184, 0.0, 0.0, 0.0, 0.014116831865047752)",0.0006555805693160966,0.00011415174515631961,-0.0008806571184218871,"(0.001, 0.0, 0.0, 0.0, 0.001, 0.0, 0.0, 0.0, 0.001)",-0.0220182190519779,-0.006433689570660938,-0.00828558293960175,"(0.001, 0.0, 0.0, 0.0, 0.001, 0.0, 0.0, 0.0, 0.001)"
2024/05/14/15:15:58.977089,87548,1715714158,977005244,gps,0.018266204432405914,-0.01068923400174783,-0.9414635490086599,0.3364498059742464,"(0.0025221469567358046, 0.0, 0.0, 0.0, 0.0025328481025727184, 0.0, 0.0, 0.0, 0.014116831865047752)",0.00027293505591153964,-0.0012210082926871495,4.697218001680262e-05,"(0.001, 0.0, 0.0, 0.0, 0.001, 0.0, 0.0, 0.0, 0.001)",-0.005322566193312919,-0.0022348960206544964,0.0023839611213596597,"(0.001, 0.0, 0.0, 0.0, 0.001, 0.0, 0.0, 0.0, 0.001)"
2024/05/14/15:15:58.989175,87549,1715714158,989111194,gps,0.01826175777439293,-0.010678236251849969,-0.9414599535746473,0.336460457243882,"(0.0025221469567358046, 0.0, 0.0, 0.0, 0.0025328481025727184, 0.0, 0.0, 0.0, 0.014116831865047752)",0.0006636865763456595,-0.0004527946607349249,0.00014183439709695268,"(0.001, 0.0, 0.0, 0.0, 0.001, 0.0, 0.0, 0.0, 0.001)",-0.0024489796039665794,0.0006147373314169615,0.0005911370969963581,"(0.001, 0.0, 0.0, 0.0, 0.001, 0.0, 0.0, 0.0, 0.001)"
2024/05/14/15:15:58.992101,87550,1715714158,991987676,gps,0.01826175777439293,-0.010678236251849969,-0.9414599535746473,0.336460457243882,"(0.0025221469567358046, 0.0, 0.0, 0.0, 0.0025328481025727184, 0.0, 0.0, 0.0, 0.014116831865047752)",-8.468749091809534e-05,0.0002930046876765295,0.00047590885093864364,"(0.001, 0.0, 0.0, 0.0, 0.001, 0.0, 0.0, 0.0, 0.001)",-0.00039350032072253753,-0.005827992878063942,-0.012494586487608485,"(0.001, 0.0, 0.0, 0.0, 0.001, 0.0, 0.0, 0.0, 0.001)"
2024/05/14/15:15:58.995662,87551,1715714158,995559637,gps,0.018261053207984858,-0.010676705019316756,-0.941461716509366,0.3364556111181733,"(0.0025221469567358046, 0.0, 0.0, 0.0, 0.0025328481025727184, 0.0, 0.0, 0.0, 0.014116831865047752)",0.0002645938359150935,-0.0005097552517806012,-0.0004007061185861122,"(0.001, 0.0, 0.0, 0.0, 0.001, 0.0, 0.0, 0.0, 0.001)",-0.010029235999350608,0.006402806199269667,-0.005758608900520724,"(0.001, 0.0, 0.0, 0.0, 0.001, 0.0, 0.0, 0.0, 0.001)"
2024/05/14/15:15:59.011811,87552,1715714159,11691657,gps,0.018261053207984858,-0.010676705019316756,-0.941461716509366,0.3364556111181733,"(0.0025221469567358046, 0.0, 0.0, 0.0, 0.0025328481025727184, 0.0, 0.0, 0.0, 0.014116831865047752)",-0.00011179591057135951,0.00013806780381470882,-1.1331028623812405e-05,"(0.001, 0.0, 0.0, 0.0, 0.001, 0.0, 0.0, 0.0, 0.001)",-0.007191365112611944,0.0020741040625788442,-0.01172069831818605,"(0.001, 0.0, 0.0, 0.0, 0.001, 0.0, 0.0, 0.0, 0.001)"
2024/05/14/15:15:59.015245,87553,1715714159,15153970,gps,0.018265410506474043,-0.01067744695066949,-0.9414613634305934,0.33645633902938105,"(0.0025221469567358046, 0.0, 0.0, 0.0, 0.0025328481025727184, 0.0, 0.0, 0.0, 0.014116831865047752)",-0.00022463457758564945,-0.00037168711677668657,-0.0005567515534510572,"(0.001, 0.0, 0.0, 0.0, 0.001, 0.0, 0.0, 0.0, 0.001)",0.01450358298627712,0.02988979043181927,-0.01530258313537693,"(0.001, 0.0, 0.0, 0.0, 0.001, 0.0, 0.0, 0.0, 0.001)"
2024/05/14/15:15:59.023402,87554,1715714159,23257700,gps,0.018265410506474043,-0.01067744695066949,-0.9414613634305934,0.33645633902938105,"(0.0025221469567358046, 0.0, 0.0, 0.0, 0.0025328481025727184, 0.0, 0.0, 0.0, 0.014116831865047752)",-9.407148886581629e-05,-0.0005378307217671052,-0.00023516974534201364,"(0.001, 0.0, 0.0, 0.0, 0.001, 0.0, 0.0, 0.0, 0.001)",-0.005950675772565399,0.0007529421993126538,-0.03599046214729261,"(0.001, 0.0, 0.0, 0.0, 0.001, 0.0, 0.0, 0.0, 0.001)"
2024/05/14/15:15:59.027992,87555,1715714159,27936639,gps,0.018268050261356493,-0.010681894322303674,-0.9414604595673103,0.3364585836988631,"(0.0025221469567358046, 0.0, 0.0, 0.0, 0.0025328481025727184, 0.0, 0.0, 0.0, 0.014116831865047752)",-3.4641835518420674e-05,0.0003876308279969053,0.00017294546195459752,"(0.001, 0.0, 0.0, 0.0, 0.001, 0.0, 0.0, 0.0, 0.001)",0.003989092332178904,0.005913343497039894,-0.01008151069563057,"(0.001, 0.0, 0.0, 0.0, 0.001, 0.0, 0.0, 0.0, 0.001)"
2024/05/14/15:15:59.029987,87556,1715714159,29930165,gps,0.018268050261356493,-0.010681894322303674,-0.9414604595673103,0.3364585836988631,"(0.0025221469567358046, 0.0, 0.0, 0.0, 0.0025328481025727184, 0.0, 0.0, 0.0, 0.014116831865047752)",0.00016867120406594577,4.344231397873987e-05,0.00038949659382694505,"(0.001, 0.0, 0.0, 0.0, 0.001, 0.0, 0.0, 0.0, 0.001)",0.0030224027233606335,0.013284614870659985,0.006673399672952572,"(0.001, 0.0, 0.0, 0.0, 0.001, 0.0, 0.0, 0.0, 0.001)"
2024/05/14/15:15:59.036715,87557,1715714159,36641662,gps,0.01826790202834269,-0.010675127800964721,-0.9414592020193986,0.3364623252831042,"(0.0025221469567358046, 0.0, 0.0, 0.0, 0.0025328481025727184, 0.0, 0.0, 0.0, 0.014116831865047752)",-0.0004633971822565024,-0.0005630184032981223,0.00048019431740100265,"(0.001, 0.0, 0.0, 0.0, 0.001, 0.0, 0.0, 0.0, 0.001)",0.010505090088761203,-0.0020356540112401894,-0.010087599059969332,"(0.001, 0.0, 0.0, 0.0, 0.001, 0.0, 0.0, 0.0, 0.001)"
2024/05/14/15:15:59.038422,87558,1715714159,38371748,gps,0.01826790202834269,-0.010675127800964721,-0.9414592020193986,0.3364623252831042,"(0.0025221469567358046, 0.0, 0.0, 0.0, 0.0025328481025727184, 0.0, 0.0, 0.0, 0.014116831865047752)",-0.0008020171716612873,-0.0003516987092434571,-0.0005422974110310977,"(0.001, 0.0, 0.0, 0.0, 0.001, 0.0, 0.0, 0.0, 0.001)",-0.012983825386711702,0.006818992644392987,-0.004387016760852292,"(0.001, 0.0, 0.0, 0.0, 0.001, 0.0, 0.0, 0.0, 0.001)"
2024/05/14/15:15:59.044605,87559,1715714159,44447669,gps,0.018274720395714168,-0.01066593143166399,-0.9414620362295084,0.33645431612589166,"(0.0025221469567358046, 0.0, 0.0, 0.0, 0.0025328481025727184, 0.0, 0.0, 0.0, 0.014116831865047752)",-0.0005392747238359322,-0.0003995311268422199,-0.00034448621042809305,"(0.001, 0.0, 0.0, 0.0, 0.001, 0.0, 0.0, 0.0, 0.001)",-0.005305612458662478,0.008034399527757835,-0.004446493110241843,"(0.001, 0.0, 0.0, 0.0, 0.001, 0.0, 0.0, 0.0, 0.001)"
2024/05/14/15:15:59.045733,87560,1715714159,45609146,gps,0.018274720395714168,-0.01066593143166399,-0.9414620362295084,0.33645431612589166,"(0.0025221469567358046, 0.0, 0.0, 0.0, 0.0025328481025727184, 0.0, 0.0, 0.0, 0.014116831865047752)",-1.9002602505073477e-05,-0.0008529029742976015,-0.0003538561264330753,"(0.001, 0.0, 0.0, 0.0, 0.001, 0.0, 0.0, 0.0, 0.001)",-0.004916246416229695,0.0034648379944059063,0.003422142651265348,"(0.001, 0.0, 0.0, 0.0, 0.001, 0.0, 0.0, 0.0, 0.001)"
2024/05/14/15:15:59.060206,87561,1715714159,60107097,gps,0.01827628666676959,-0.010665014998618761,-0.941462148697409,0.336453945393439,"(0.0025221469567358046, 0.0, 0.0, 0.0, 0.0025328481025727184, 0.0, 0.0, 0.0, 0.014116831865047752)",-0.000985756568056587,0.00020958772516117298,-0.00022880155229704435,"(0.001, 0.0, 0.0, 0.0, 0.001, 0.0, 0.0, 0.0, 0.001)",-0.007813118164036207,-0.0329788507295115,-0.0020351119021708173,"(0.001, 0.0, 0.0, 0.0, 0.001, 0.0, 0.0, 0.0, 0.001)"
2024/05/14/15:15:59.067208,87562,1715714159,67149174,gps,0.01827628666676959,-0.010665014998618761,-0.941462148697409,0.336453945393439,"(0.0025221469567358046, 0.0, 0.0, 0.0, 0.0025328481025727184, 0.0, 0.0, 0.0, 0.014116831865047752)",-0.0007311193242831941,0.000319002073780283,0.000753885691149422,"(0.001, 0.0, 0.0, 0.0, 0.001, 0.0, 0.0, 0.0, 0.001)",0.018256938204513913,-0.004168514456140473,0.005096693035564178,"(0.001, 0.0, 0.0, 0.0, 0.001, 0.0, 0.0, 0.0, 0.001)"
2024/05/14/15:15:59.072562,87563,1715714159,72429851,gps,0.018290379891199686,-0.010670600082232608,-0.9414522318369726,0.3364807505140583,"(0.0025221469567358046, 0.0, 0.0, 0.0, 0.0025328481025727184, 0.0, 0.0, 0.0, 0.014116831865047752)",-0.0008604050603002383,0.00048745684591641,0.0017408588818902792,"(0.001, 0.0, 0.0, 0.0, 0.001, 0.0, 0.0, 0.0, 0.001)",-0.01354157219667334,-0.0007059196193798261,0.0013134428146301853,"(0.001, 0.0, 0.0, 0.0, 0.001, 0.0, 0.0, 0.0, 0.001)"
2024/05/14/15:15:59.080784,87564,1715714159,80696930,gps,0.018290379891199686,-0.010670600082232608,-0.9414522318369726,0.3364807505140583,"(0.0025221469567358046, 0.0, 0.0, 0.0, 0.0025328481025727184, 0.0, 0.0, 0.0, 0.014116831865047752)",-0.0005225921230450697,-0.00032986106859864183,-0.0002185107174132115,"(0.001, 0.0, 0.0, 0.0, 0.001, 0.0, 0.0, 0.0, 0.001)",-0.008970284713304561,3.893960629811627e-05,0.0033410459893417595,"(0.001, 0.0, 0.0, 0.0, 0.001, 0.0, 0.0, 0.0, 0.001)"
2024/05/14/15:15:59.093124,87565,1715714159,92963245,gps,0.01828383035940865,-0.010664728617315681,-0.9414570059770988,0.3364679345904219,"(0.0025221469567358046, 0.0, 0.0, 0.0, 0.0025328481025727184, 0.0, 0.0, 0.0, 0.014116831865047752)",-0.00048320731685364015,-0.00023546484604480128,-5.181019812361124e-05,"(0.001, 0.0, 0.0, 0.0, 0.001, 0.0, 0.0, 0.0, 0.001)",-0.0014104596915587206,-0.005030689380544925,0.02794018236091371,"(0.001, 0.0, 0.0, 0.0, 0.001, 0.0, 0.0, 0.0, 0.001)"
2024/05/14/15:15:59.101772,87566,1715714159,101673801,gps,0.01828383035940865,-0.010664728617315681,-0.9414570059770988,0.3364679345904219,"(0.0025221469567358046, 0.0, 0.0, 0.0, 0.0025328481025727184, 0.0, 0.0, 0.0, 0.014116831865047752)",-0.0005111234722683933,-0.00015724651162137815,0.0006299945949809764,"(0.001, 0.0, 0.0, 0.0, 0.001, 0.0, 0.0, 0.0, 0.001)",-0.0137401425640779,0.009581604702602435,-0.00041431683138171534,"(0.001, 0.0, 0.0, 0.0, 0.001, 0.0, 0.0, 0.0, 0.001)"
2024/05/14/15:15:59.112232,87567,1715714159,112120747,gps,0.01828668465369501,-0.010671239322661064,-0.9414582476919154,0.33646409863247356,"(0.0025221469567358046, 0.0, 0.0, 0.0, 0.0025328481025727184, 0.0, 0.0, 0.0, 0.014116831865047752)",0.00013217943608901265,0.0005259311699231341,-0.00017166039370417258,"(0.001, 0.0, 0.0, 0.0, 0.001, 0.0, 0.0, 0.0, 0.001)",-0.013699322743877683,-0.003206324906520248,-0.008999521544581593,"(0.001, 0.0, 0.0, 0.0, 0.001, 0.0, 0.0, 0.0, 0.001)"
2024/05/14/15:15:59.121382,87568,1715714159,121289150,gps,0.01828668465369501,-0.010671239322661064,-0.9414582476919154,0.33646409863247356,"(0.0025221469567358046, 0.0, 0.0, 0.0, 0.0025328481025727184, 0.0, 0.0, 0.0, 0.014116831865047752)",0.00012175323537657145,-0.0007291609140441344,9.492959205896254e-06,"(0.001, 0.0, 0.0, 0.0, 0.001, 0.0, 0.0, 0.0, 0.001)",-0.022437553822176128,-0.0035089421153750248,0.0141336134967359,"(0.001, 0.0, 0.0, 0.0, 0.001, 0.0, 0.0, 0.0, 0.001)"
2024/05/14/15:15:59.132714,87569,1715714159,132649607,gps,0.018287294469651487,-0.010671317883375386,-0.9414557705072295,0.33647099431340444,"(0.0025221469567358046, 0.0, 0.0, 0.0, 0.0025328481025727184, 0.0, 0.0, 0.0, 0.014116831865047752)",0.00018511906208886747,0.0006359241835317662,0.001079876904490814,"(0.001, 0.0, 0.0, 0.0, 0.001, 0.0, 0.0, 0.0, 0.001)",-0.007876608668535175,-0.021388683706807354,0.010290168419072846,"(0.001, 0.0, 0.0, 0.0, 0.001, 0.0, 0.0, 0.0, 0.001)"
2024/05/14/15:15:59.140898,87570,1715714159,140716340,gps,0.018287294469651487,-0.010671317883375386,-0.9414557705072295,0.33647099431340444,"(0.0025221469567358046, 0.0, 0.0, 0.0, 0.0025328481025727184, 0.0, 0.0, 0.0, 0.014116831865047752)",-0.0015777333034116326,-0.00047647918192267433,-0.0003153336819661318,"(0.001, 0.0, 0.0, 0.0, 0.001, 0.0, 0.0, 0.0, 0.001)",-0.010401184630066306,-0.020839736183462507,0.0019432998198430638,"(0.001, 0.0, 0.0, 0.0, 0.001, 0.0, 0.0, 0.0, 0.001)"
2024/05/14/15:15:59.156404,87571,1715714159,156330415,gps,0.0183025531631874,-0.010661356353197097,-0.9414571058403833,0.3364667441086389,"(0.0025221469567358046, 0.0, 0.0, 0.0, 0.0025328481025727184, 0.0, 0.0, 0.0, 0.014116831865047752)",-0.0008614467524666803,0.0002462132143895832,-0.00017686552841292941,"(0.001, 0.0, 0.0, 0.0, 0.001, 0.0, 0.0, 0.0, 0.001)",0.0008974863777829417,0.0034360786484995275,-0.008548573787595373,"(0.001, 0.0, 0.0, 0.0, 0.001, 0.0, 0.0, 0.0, 0.001)"
2024/05/14/15:15:59.160732,87572,1715714159,160663645,gps,0.0183025531631874,-0.010661356353197097,-0.9414571058403833,0.3364667441086389,"(0.0025221469567358046, 0.0, 0.0, 0.0, 0.0025328481025727184, 0.0, 0.0, 0.0, 0.014116831865047752)",-7.6346342001859e-05,-0.0003714539877838021,-0.0009962191370968701,"(0.001, 0.0, 0.0, 0.0, 0.001, 0.0, 0.0, 0.0, 0.001)",-0.010099394057969722,-0.006197543191573493,-0.0035108787729153513,"(0.001, 0.0, 0.0, 0.0, 0.001, 0.0, 0.0, 0.0, 0.001)"
2024/05/14/15:15:59.173378,87573,1715714159,171983023,gps,0.018312459838713546,-0.010652621348790872,-0.941457893189796,0.33646427867410467,"(0.0025221469567358046, 0.0, 0.0, 0.0, 0.0025328481025727184, 0.0, 0.0, 0.0, 0.014116831865047752)",-0.0021420318771871497,7.860647028786292e-06,-0.000375593462158411,"(0.001, 0.0, 0.0, 0.0, 0.001, 0.0, 0.0, 0.0, 0.001)",-0.01990354739594682,-0.005581435102082089,-0.008893675950774806,"(0.001, 0.0, 0.0, 0.0, 0.001, 0.0, 0.0, 0.0, 0.001)"
2024/05/14/15:15:59.181627,87574,1715714159,181499038,gps,0.018312459838713546,-0.010652621348790872,-0.941457893189796,0.33646427867410467,"(0.0025221469567358046, 0.0, 0.0, 0.0, 0.0025328481025727184, 0.0, 0.0, 0.0, 0.014116831865047752)",4.772599563857373e-05,0.0002025412026630062,0.0004103219600701191,"(0.001, 0.0, 0.0, 0.0, 0.001, 0.0, 0.0, 0.0, 0.001)",-0.005399610207884471,-0.008641977126592745,-0.005861113649333621,"(0.001, 0.0, 0.0, 0.0, 0.001, 0.0, 0.0, 0.0, 0.001)"
2024/05/14/15:15:59.191868,87575,1715714159,191774071,gps,0.01830199599125748,-0.010660057867149327,-0.9414562652340056,0.3364691676225962,"(0.0025221469567358046, 0.0, 0.0, 0.0, 0.0025328481025727184, 0.0, 0.0, 0.0, 0.014116831865047752)",3.521465445390655e-05,0.00011519413584135929,0.000327033160569912,"(0.001, 0.0, 0.0, 0.0, 0.001, 0.0, 0.0, 0.0, 0.001)",0.01574184254176462,0.0024326380290481658,0.016290495694250933,"(0.001, 0.0, 0.0, 0.0, 0.001, 0.0, 0.0, 0.0, 0.001)"
2024/05/14/15:15:59.200552,87576,1715714159,200426523,gps,0.01830199599125748,-0.010660057867149327,-0.9414562652340056,0.3364691676225962,"(0.0025221469567358046, 0.0, 0.0, 0.0, 0.0025328481025727184, 0.0, 0.0, 0.0, 0.014116831865047752)",-0.0003036399400170786,-0.0009132120122239036,-0.0001768643288789542,"(0.001, 0.0, 0.0, 0.0, 0.001, 0.0, 0.0, 0.0, 0.001)",-0.010630480608093405,-0.0060129952289497005,-0.030130725047448646,"(0.001, 0.0, 0.0, 0.0, 0.001, 0.0, 0.0, 0.0, 0.001)"
2024/05/14/15:15:59.218919,87577,1715714159,218841533,gps,0.018302134397578506,-0.010661826819284258,-0.9414592627642002,0.33646071669788913,"(0.0025221469567358046, 0.0, 0.0, 0.0, 0.0025328481025727184, 0.0, 0.0, 0.0, 0.014116831865047752)",-0.0003080461500336129,0.0008137416589818624,-0.0013042625375651615,"(0.001, 0.0, 0.0, 0.0, 0.001, 0.0, 0.0, 0.0, 0.001)",0.0023002491659762487,-0.008770603165321954,-0.009483820614125633,"(0.001, 0.0, 0.0, 0.0, 0.001, 0.0, 0.0, 0.0, 0.001)"
2024/05/14/15:15:59.221027,87578,1715714159,220915673,gps,0.018302134397578506,-0.010661826819284258,-0.9414592627642002,0.33646071669788913,"(0.0025221469567358046, 0.0, 0.0, 0.0, 0.0025328481025727184, 0.0, 0.0, 0.0, 0.014116831865047752)",-0.00013056395056682975,-4.806087994503381e-05,0.000232292322952303,"(0.001, 0.0, 0.0, 0.0, 0.001, 0.0, 0.0, 0.0, 0.001)",-0.005404149691495777,-0.008320493013624773,-0.01256772428518056,"(0.001, 0.0, 0.0, 0.0, 0.001, 0.0, 0.0, 0.0, 0.001)"
2024/05/14/15:15:59.231600,87579,1715714159,231534642,gps,0.01830968182021554,-0.010649625723244736,-0.9414558478656376,0.3364702476344534,"(0.0025221469567358046, 0.0, 0.0, 0.0, 0.0025328481025727184, 0.0, 0.0, 0.0, 0.014116831865047752)",-0.0005340616929053125,-0.0004047275144564131,0.0006466543612687989,"(0.001, 0.0, 0.0, 0.0, 0.001, 0.0, 0.0, 0.0, 0.001)",-0.011488430210638844,0.003677111893292483,0.004127922312793142,"(0.001, 0.0, 0.0, 0.0, 0.001, 0.0, 0.0, 0.0, 0.001)"
2024/05/14/15:15:59.242849,87580,1715714159,242685447,gps,0.01830968182021554,-0.010649625723244736,-0.9414558478656376,0.3364702476344534,"(0.0025221469567358046, 0.0, 0.0, 0.0, 0.0025328481025727184, 0.0, 0.0, 0.0, 0.014116831865047752)",-0.00048818585363947267,-0.0004494408562982015,0.00026560797084080175,"(0.001, 0.0, 0.0, 0.0, 0.001, 0.0, 0.0, 0.0, 0.001)",-0.012037063344589644,-0.011525177834959275,-0.007469594703960675,"(0.001, 0.0, 0.0, 0.0, 0.001, 0.0, 0.0, 0.0, 0.001)"
2024/05/14/15:15:59.261387,87581,1715714159,261267937,gps,0.01830489635719125,-0.010647436762575724,-0.9414603220053268,0.33645805823217506,"(0.0025221469567358046, 0.0, 0.0, 0.0, 0.0025328481025727184, 0.0, 0.0, 0.0, 0.014116831865047752)",0.00015488127645002305,-0.0012565879506182798,-0.0009023936335494318,"(0.001, 0.0, 0.0, 0.0, 0.001, 0.0, 0.0, 0.0, 0.001)",-0.014415453528702684,-0.009998283443952538,0.001451428267063909,"(0.001, 0.0, 0.0, 0.0, 0.001, 0.0, 0.0, 0.0, 0.001)"
2024/05/14/15:15:59.264608,87582,1715714159,264488438,gps,0.01830489635719125,-0.010647436762575724,-0.9414603220053268,0.33645805823217506,"(0.0025221469567358046, 0.0, 0.0, 0.0, 0.0025328481025727184, 0.0, 0.0, 0.0, 0.014116831865047752)",-0.00014203346420421718,0.0003044465813026879,-0.00023933106131243944,"(0.001, 0.0, 0.0, 0.0, 0.001, 0.0, 0.0, 0.0, 0.001)",0.005505226774859756,0.006207707171884205,-0.0029105735384980123,"(0.001, 0.0, 0.0, 0.0, 0.001, 0.0, 0.0, 0.0, 0.001)"
2024/05/14/15:15:59.275393,87583,1715714159,274502513,gps,0.018300636119823188,-0.010648282597790604,-0.9414625281478884,0.336452090034694,"(0.0025221469567358046, 0.0, 0.0, 0.0, 0.0025328481025727184, 0.0, 0.0, 0.0, 0.014116831865047752)",0.0003803241772605776,-0.00017388168718084223,-0.0007047073332933525,"(0.001, 0.0, 0.0, 0.0, 0.001, 0.0, 0.0, 0.0, 0.001)",0.007032151450836541,0.010927511662323348,-7.95510262268448e-05,"(0.001, 0.0, 0.0, 0.0, 0.001, 0.0, 0.0, 0.0, 0.001)"
2024/05/14/15:15:59.280973,87584,1715714159,280862991,gps,0.018300636119823188,-0.010648282597790604,-0.9414625281478884,0.336452090034694,"(0.0025221469567358046, 0.0, 0.0, 0.0, 0.0025328481025727184, 0.0, 0.0, 0.0, 0.014116831865047752)",0.0003104676446504056,0.0004198695229366839,0.0003572252416426941,"(0.001, 0.0, 0.0, 0.0, 0.001, 0.0, 0.0, 0.0, 0.001)",0.01663219602933593,0.006095878340967271,-0.009917587271229331,"(0.001, 0.0, 0.0, 0.0, 0.001, 0.0, 0.0, 0.0, 0.001)"
2024/05/14/15:15:59.292185,87585,1715714159,292099678,gps,0.018296881462338557,-0.010651254324882122,-0.9414578736069994,0.336465224255713,"(0.0025221469567358046, 0.0, 0.0, 0.0, 0.0025328481025727184, 0.0, 0.0, 0.0, 0.014116831865047752)",0.0012538123750664052,-7.42849215641161e-05,0.0006311613278835598,"(0.001, 0.0, 0.0, 0.0, 0.001, 0.0, 0.0, 0.0, 0.001)",0.012797266409152176,0.006531232254404668,0.017516392674280578,"(0.001, 0.0, 0.0, 0.0, 0.001, 0.0, 0.0, 0.0, 0.001)"
2024/05/14/15:15:59.300629,87586,1715714159,300481755,gps,0.018296881462338557,-0.010651254324882122,-0.9414578736069994,0.336465224255713,"(0.0025221469567358046, 0.0, 0.0, 0.0, 0.0025328481025727184, 0.0, 0.0, 0.0, 0.014116831865047752)",0.00029378604740402437,0.0003533186866117865,0.00015733152886396502,"(0.001, 0.0, 0.0, 0.0, 0.001, 0.0, 0.0, 0.0, 0.001)",-0.0023057112748656387,0.00984125265102195,0.0014387202972201986,"(0.001, 0.0, 0.0, 0.0, 0.001, 0.0, 0.0, 0.0, 0.001)"
2024/05/14/15:15:59.311824,87587,1715714159,311728413,gps,0.01828342313349708,-0.01067097195926536,-0.9414600310759685,0.33645929424285886,"(0.0025221469567358046, 0.0, 0.0, 0.0, 0.0025328481025727184, 0.0, 0.0, 0.0, 0.014116831865047752)",0.0014657023533062087,0.0007994117593925393,-0.000247660480436737,"(0.001, 0.0, 0.0, 0.0, 0.001, 0.0, 0.0, 0.0, 0.001)",-0.00946841066867559,0.0007297455125313547,0.02156170172968441,"(0.001, 0.0, 0.0, 0.0, 0.001, 0.0, 0.0, 0.0, 0.001)"
2024/05/14/15:15:59.320636,87588,1715714159,320493993,gps,0.01828342313349708,-0.01067097195926536,-0.9414600310759685,0.33645929424285886,"(0.0025221469567358046, 0.0, 0.0, 0.0, 0.0025328481025727184, 0.0, 0.0, 0.0, 0.014116831865047752)",0.00048145977626944716,-5.4281264974024775e-06,0.000663310956922142,"(0.001, 0.0, 0.0, 0.0, 0.001, 0.0, 0.0, 0.0, 0.001)",-0.0134367419565937,0.002683258768990636,-0.01314218980346359,"(0.001, 0.0, 0.0, 0.0, 0.001, 0.0, 0.0, 0.0, 0.001)"
2024/05/14/15:15:59.332926,87589,1715714159,332858979,gps,0.018285920915510526,-0.010658980342251838,-0.941458146121401,0.3364648129240113,"(0.0025221469567358046, 0.0, 0.0, 0.0, 0.0025328481025727184, 0.0, 0.0, 0.0, 0.014116831865047752)",0.000747095411231409,-0.0006358034923236961,-2.9945848673885808e-05,"(0.001, 0.0, 0.0, 0.0, 0.001, 0.0, 0.0, 0.0, 0.001)",-0.0017559848497616412,0.014511422350090973,-0.014453947363669837,"(0.001, 0.0, 0.0, 0.0, 0.001, 0.0, 0.0, 0.0, 0.001)"
2024/05/14/15:15:59.340634,87590,1715714159,340523013,gps,0.018285920915510526,-0.010658980342251838,-0.941458146121401,0.3364648129240113,"(0.0025221469567358046, 0.0, 0.0, 0.0, 0.0025328481025727184, 0.0, 0.0, 0.0, 0.014116831865047752)",0.0010423947633992916,0.00022853626270010296,-0.00044963690173994286,"(0.001, 0.0, 0.0, 0.0, 0.001, 0.0, 0.0, 0.0, 0.001)",0.002264915593697882,0.002339232122628126,0.01076336227859318,"(0.001, 0.0, 0.0, 0.0, 0.001, 0.0, 0.0, 0.0, 0.001)"
2024/05/14/15:15:59.359838,87591,1715714159,359740286,gps,0.01827341837330422,-0.010657616494515396,-0.9414592662732268,0.3364624010790613,"(0.0025221469567358046, 0.0, 0.0, 0.0, 0.0025328481025727184, 0.0, 0.0, 0.0, 0.014116831865047752)",0.0007410745903268485,-0.00047959790541249927,-2.06996735495471e-05,"(0.001, 0.0, 0.0, 0.0, 0.001, 0.0, 0.0, 0.0, 0.001)",-0.0076817461599911025,0.011923382768047571,0.0013693252515924238,"(0.001, 0.0, 0.0, 0.0, 0.001, 0.0, 0.0, 0.0, 0.001)"
2024/05/14/15:15:59.365573,87592,1715714159,365432213,gps,0.01827341837330422,-0.010657616494515396,-0.9414592662732268,0.3364624010790613,"(0.0025221469567358046, 0.0, 0.0, 0.0, 0.0025328481025727184, 0.0, 0.0, 0.0, 0.014116831865047752)",0.0004866727090292705,-0.0004036894952534037,-0.0004267332246041109,"(0.001, 0.0, 0.0, 0.0, 0.001, 0.0, 0.0, 0.0, 0.001)",-0.015224594094307627,0.015608401663668855,0.0011585808338285296,"(0.001, 0.0, 0.0, 0.0, 0.001, 0.0, 0.0, 0.0, 0.001)"
2024/05/14/15:15:59.372523,87593,1715714159,372416894,gps,0.018275711309932375,-0.010662907229031751,-0.941460359951414,0.33645904866074716,"(0.0025221469567358046, 0.0, 0.0, 0.0, 0.0025328481025727184, 0.0, 0.0, 0.0, 0.014116831865047752)",0.0003071040910677657,0.000308374158813363,-0.000534887135274945,"(0.001, 0.0, 0.0, 0.0, 0.001, 0.0, 0.0, 0.0, 0.001)",-0.02644920928937647,0.027165413913290276,0.0027950401185640405,"(0.001, 0.0, 0.0, 0.0, 0.001, 0.0, 0.0, 0.0, 0.001)"
2024/05/14/15:15:59.380715,87594,1715714159,380627519,gps,0.018275711309932375,-0.010662907229031751,-0.941460359951414,0.33645904866074716,"(0.0025221469567358046, 0.0, 0.0, 0.0, 0.0025328481025727184, 0.0, 0.0, 0.0, 0.014116831865047752)",0.00013426336978486532,-1.166813226013588e-05,-0.00019144256845038523,"(0.001, 0.0, 0.0, 0.0, 0.001, 0.0, 0.0, 0.0, 0.001)",-0.0009532345844343601,0.008248859607663191,0.006614310950993626,"(0.001, 0.0, 0.0, 0.0, 0.001, 0.0, 0.0, 0.0, 0.001)"
2024/05/14/15:15:59.394491,87595,1715714159,394415977,gps,0.018284967687575513,-0.010665364613707292,-0.9414604941489183,0.3364580923550442,"(0.0025221469567358046, 0.0, 0.0, 0.0, 0.0025328481025727184, 0.0, 0.0, 0.0, 0.014116831865047752)",-0.00033387758274448326,0.0005103337354425278,-1.6536048529060933e-05,"(0.001, 0.0, 0.0, 0.0, 0.001, 0.0, 0.0, 0.0, 0.001)",0.0009143101109225742,0.013667601688281936,0.017408793703408684,"(0.001, 0.0, 0.0, 0.0, 0.001, 0.0, 0.0, 0.0, 0.001)"
2024/05/14/15:15:59.401021,87596,1715714159,400910849,gps,0.018284967687575513,-0.010665364613707292,-0.9414604941489183,0.3364580923550442,"(0.0025221469567358046, 0.0, 0.0, 0.0, 0.0025328481025727184, 0.0, 0.0, 0.0, 0.014116831865047752)",0.0003125531793011109,0.0007380597515816142,0.0005310883942466661,"(0.001, 0.0, 0.0, 0.0, 0.001, 0.0, 0.0, 0.0, 0.001)",0.0002879028716564795,-0.007928473779193899,-0.0033401543567200846,"(0.001, 0.0, 0.0, 0.0, 0.001, 0.0, 0.0, 0.0, 0.001)"
2024/05/14/15:15:59.416485,87597,1715714159,416394428,gps,0.018277105001877982,-0.010667096283580126,-0.941458489809943,0.3364640730515053,"(0.0025221469567358046, 0.0, 0.0, 0.0, 0.0025328481025727184, 0.0, 0.0, 0.0, 0.014116831865047752)",0.00031961704410400556,0.0006442433848479327,0.0005957597398120457,"(0.001, 0.0, 0.0, 0.0, 0.001, 0.0, 0.0, 0.0, 0.001)",0.012032708941704775,0.007968920501114607,0.009422008503778972,"(0.001, 0.0, 0.0, 0.0, 0.001, 0.0, 0.0, 0.0, 0.001)"
2024/05/14/15:15:59.422246,87598,1715714159,422126190,gps,0.018277105001877982,-0.010667096283580126,-0.941458489809943,0.3364640730515053,"(0.0025221469567358046, 0.0, 0.0, 0.0, 0.0025328481025727184, 0.0, 0.0, 0.0, 0.014116831865047752)",-0.0005079957818819817,0.00042090668177617303,0.00031141425987214104,"(0.001, 0.0, 0.0, 0.0, 0.001, 0.0, 0.0, 0.0, 0.001)",-0.007108532623910842,-0.003783695012219177,-0.01281773504682038,"(0.001, 0.0, 0.0, 0.0, 0.001, 0.0, 0.0, 0.0, 0.001)"
2024/05/14/15:15:59.432101,87599,1715714159,432031734,gps,0.018287184916968208,-0.010677251194732154,-0.9414573571778887,0.3364663724510411,"(0.0025221469567358046, 0.0, 0.0, 0.0, 0.0025328481025727184, 0.0, 0.0, 0.0, 0.014116831865047752)",-0.00013473398709767842,0.0006964654882066182,0.00021459130239393208,"(0.001, 0.0, 0.0, 0.0, 0.001, 0.0, 0.0, 0.0, 0.001)",-0.01650572427767438,0.006278759109785358,0.012376689426557841,"(0.001, 0.0, 0.0, 0.0, 0.001, 0.0, 0.0, 0.0, 0.001)"
2024/05/14/15:15:59.442338,87600,1715714159,442236102,gps,0.018287184916968208,-0.010677251194732154,-0.9414573571778887,0.3364663724510411,"(0.0025221469567358046, 0.0, 0.0, 0.0, 0.0025328481025727184, 0.0, 0.0, 0.0, 0.014116831865047752)",-0.0006852423352069199,-0.0007094040602293393,-0.001183619913281393,"(0.001, 0.0, 0.0, 0.0, 0.001, 0.0, 0.0, 0.0, 0.001)",-0.004198860323864989,0.015625866028513614,-0.003991215891184834,"(0.001, 0.0, 0.0, 0.0, 0.001, 0.0, 0.0, 0.0, 0.001)"
2024/05/14/15:15:59.461861,87601,1715714159,461759520,gps,0.01828969762498293,-0.010663395965896764,-0.941458969881437,0.33646216277175206,"(0.0025221469567358046, 0.0, 0.0, 0.0, 0.0025328481025727184, 0.0, 0.0, 0.0, 0.014116831865047752)",-6.71985552609335e-05,-0.00014083838545143198,-3.918968075454132e-06,"(0.001, 0.0, 0.0, 0.0, 0.001, 0.0, 0.0, 0.0, 0.001)",-0.007743482448994418,0.017494563167970864,-0.018954961361878936,"(0.001, 0.0, 0.0, 0.0, 0.001, 0.0, 0.0, 0.0, 0.001)"
2024/05/14/15:15:59.463935,87602,1715714159,463801253,gps,0.01828969762498293,-0.010663395965896764,-0.941458969881437,0.33646216277175206,"(0.0025221469567358046, 0.0, 0.0, 0.0, 0.0025328481025727184, 0.0, 0.0, 0.0, 0.014116831865047752)",3.625691808725755e-05,-0.0003579360711153039,0.0001562893990718525,"(0.001, 0.0, 0.0, 0.0, 0.001, 0.0, 0.0, 0.0, 0.001)",0.004043772849037036,-0.006645696628038838,0.007098217512361711,"(0.001, 0.0, 0.0, 0.0, 0.001, 0.0, 0.0, 0.0, 0.001)"
2024/05/14/15:15:59.472041,87603,1715714159,471917794,gps,0.018279603453669677,-0.010658170963673606,-0.9414593567300314,0.3364617944355065,"(0.0025221469567358046, 0.0, 0.0, 0.0, 0.0025328481025727184, 0.0, 0.0, 0.0, 0.014116831865047752)",0.00018118243732743043,-0.0006459730087008794,5.634265891617762e-05,"(0.001, 0.0, 0.0, 0.0, 0.001, 0.0, 0.0, 0.0, 0.001)",-0.014596908651009708,0.0009305820620929407,-0.002593187588260615,"(0.001, 0.0, 0.0, 0.0, 0.001, 0.0, 0.0, 0.0, 0.001)"
2024/05/14/15:15:59.481042,87604,1715714159,480964862,gps,0.018279603453669677,-0.010658170963673606,-0.9414593567300314,0.3364617944355065,"(0.0025221469567358046, 0.0, 0.0, 0.0, 0.0025328481025727184, 0.0, 0.0, 0.0, 0.014116831865047752)",-1.2779958350079796e-06,-0.00013540952102617228,-0.0002133052483480124,"(0.001, 0.0, 0.0, 0.0, 0.001, 0.0, 0.0, 0.0, 0.001)",-0.005212909466824343,-0.0058680815287359255,-0.00047676186657101305,"(0.001, 0.0, 0.0, 0.0, 0.001, 0.0, 0.0, 0.0, 0.001)"
2024/05/14/15:15:59.492224,87605,1715714159,492029633,gps,0.018287135672184176,-0.010671337586286784,-0.9414583626787418,0.33646374925880057,"(0.0025221469567358046, 0.0, 0.0, 0.0, 0.0025328481025727184, 0.0, 0.0, 0.0, 0.014116831865047752)",-0.00021003928554940335,0.000994671511701149,0.0006988301175916015,"(0.001, 0.0, 0.0, 0.0, 0.001, 0.0, 0.0, 0.0, 0.001)",0.008727235334255378,0.004383043309332576,-0.019374001544687738,"(0.001, 0.0, 0.0, 0.0, 0.001, 0.0, 0.0, 0.0, 0.001)"
2024/05/14/15:15:59.500559,87606,1715714159,500478597,gps,0.018287135672184176,-0.010671337586286784,-0.9414583626787418,0.33646374925880057,"(0.0025221469567358046, 0.0, 0.0, 0.0, 0.0025328481025727184, 0.0, 0.0, 0.0, 0.014116831865047752)",1.227664729797384e-05,-0.00036937457981054447,-0.0003215803968760296,"(0.001, 0.0, 0.0, 0.0, 0.001, 0.0, 0.0, 0.0, 0.001)",0.00037678511878047263,-0.004739862549313024,-0.016097004082349892,"(0.001, 0.0, 0.0, 0.0, 0.001, 0.0, 0.0, 0.0, 0.001)"
2024/05/14/15:15:59.513508,87607,1715714159,513248564,gps,0.01828986653304649,-0.010659821746328377,-0.9414576810654351,0.33646587307694853,"(0.0025221469567358046, 0.0, 0.0, 0.0, 0.0025328481025727184, 0.0, 0.0, 0.0, 0.014116831865047752)",-0.0004735891767294028,-0.00024043378675152338,0.00029371582493300814,"(0.001, 0.0, 0.0, 0.0, 0.001, 0.0, 0.0, 0.0, 0.001)",0.002386076281398269,-0.006315422452241822,-0.0029190608766597606,"(0.001, 0.0, 0.0, 0.0, 0.001, 0.0, 0.0, 0.0, 0.001)"
2024/05/14/15:15:59.521988,87608,1715714159,521896079,gps,0.01828986653304649,-0.010659821746328377,-0.9414576810654351,0.33646587307694853,"(0.0025221469567358046, 0.0, 0.0, 0.0, 0.0025328481025727184, 0.0, 0.0, 0.0, 0.014116831865047752)",-0.0002911288881068036,-0.00013956883160547382,0.0004311425232989698,"(0.001, 0.0, 0.0, 0.0, 0.001, 0.0, 0.0, 0.0, 0.001)",-0.011045449805415608,-0.005326576638575935,0.002089860743166093,"(0.001, 0.0, 0.0, 0.0, 0.001, 0.0, 0.0, 0.0, 0.001)"
2024/05/14/15:15:59.532116,87609,1715714159,532044415,gps,0.018295585493098315,-0.01066358773078709,-0.9414599332526788,0.3364591409488438,"(0.0025221469567358046, 0.0, 0.0, 0.0, 0.0025328481025727184, 0.0, 0.0, 0.0, 0.014116831865047752)",-0.0007063308821649252,-0.0001512367400991412,-0.0007764230269271451,"(0.001, 0.0, 0.0, 0.0, 0.001, 0.0, 0.0, 0.0, 0.001)",-0.010339269486495509,-0.008534087094086686,-0.02304039160219397,"(0.001, 0.0, 0.0, 0.0, 0.001, 0.0, 0.0, 0.0, 0.001)"
2024/05/14/15:15:59.540689,87610,1715714159,540545130,gps,0.018295585493098315,-0.01066358773078709,-0.9414599332526788,0.3364591409488438,"(0.0025221469567358046, 0.0, 0.0, 0.0, 0.0025328481025727184, 0.0, 0.0, 0.0, 0.014116831865047752)",0.00024061219708978364,0.00011831298069320282,-0.0001789479793698118,"(0.001, 0.0, 0.0, 0.0, 0.001, 0.0, 0.0, 0.0, 0.001)",-0.003682539869830603,-0.0048187411557855005,-0.00658493430970503,"(0.001, 0.0, 0.0, 0.0, 0.001, 0.0, 0.0, 0.0, 0.001)"
2024/05/14/15:15:59.555362,87611,1715714159,555243379,gps,0.01829537991827597,-0.010667365346623034,-0.9414588902421009,0.336461950856734,"(0.0025221469567358046, 0.0, 0.0, 0.0, 0.0025328481025727184, 0.0, 0.0, 0.0, 0.014116831865047752)",-0.0002942570309327985,0.0005363303790155484,5.42607325358663e-05,"(0.001, 0.0, 0.0, 0.0, 0.001, 0.0, 0.0, 0.0, 0.001)",-0.0016986009389824556,-0.0076386492155870855,-0.02715422528404833,"(0.001, 0.0, 0.0, 0.0, 0.001, 0.0, 0.0, 0.0, 0.001)"
2024/05/14/15:15:59.560628,87612,1715714159,560543148,gps,0.01829537991827597,-0.010667365346623034,-0.9414588902421009,0.336461950856734,"(0.0025221469567358046, 0.0, 0.0, 0.0, 0.0025328481025727184, 0.0, 0.0, 0.0, 0.014116831865047752)",0.00027814703509909547,0.00011311381502039309,-0.0006641052755913758,"(0.001, 0.0, 0.0, 0.0, 0.001, 0.0, 0.0, 0.0, 0.001)",0.02249609064558625,-0.0057244364847174566,0.002062645317574205,"(0.001, 0.0, 0.0, 0.0, 0.001, 0.0, 0.0, 0.0, 0.001)"
2024/05/14/15:15:59.575361,87613,1715714159,572150478,gps,0.018286294509345987,-0.010665211846724344,-0.9414625455517225,0.33645228489735773,"(0.0025221469567358046, 0.0, 0.0, 0.0, 0.0025328481025727184, 0.0, 0.0, 0.0, 0.014116831865047752)",0.0009014040282789927,-3.7892736034008504e-05,-0.0008461768283085712,"(0.001, 0.0, 0.0, 0.0, 0.001, 0.0, 0.0, 0.0, 0.001)",-0.03534507178120242,0.006588617697060337,-0.030492042338806424,"(0.001, 0.0, 0.0, 0.0, 0.001, 0.0, 0.0, 0.0, 0.001)"
2024/05/14/15:15:59.581045,87614,1715714159,580962909,gps,0.018286294509345987,-0.010665211846724344,-0.9414625455517225,0.33645228489735773,"(0.0025221469567358046, 0.0, 0.0, 0.0, 0.0025328481025727184, 0.0, 0.0, 0.0, 0.014116831865047752)",-0.0007060962473543618,0.00017550457959288697,0.00013338499156995983,"(0.001, 0.0, 0.0, 0.0, 0.001, 0.0, 0.0, 0.0, 0.001)",-0.003909357136522485,0.0033180910754629913,-0.022533508954697055,"(0.001, 0.0, 0.0, 0.0, 0.001, 0.0, 0.0, 0.0, 0.001)"
2024/05/14/15:15:59.591885,87615,1715714159,591797942,gps,0.018287762950695074,-0.0106710002693676,-0.9414626323344458,0.3364517787104212,"(0.0025221469567358046, 0.0, 0.0, 0.0, 0.0025328481025727184, 0.0, 0.0, 0.0, 0.014116831865047752)",0.00028753026145173237,0.0003793142456904961,-0.0003528133182234783,"(0.001, 0.0, 0.0, 0.0, 0.001, 0.0, 0.0, 0.0, 0.001)",0.008655838586038063,-0.010741753004045342,0.0024207025958902307,"(0.001, 0.0, 0.0, 0.0, 0.001, 0.0, 0.0, 0.0, 0.001)"
2024/05/14/15:15:59.600835,87616,1715714159,600702261,gps,0.018287762950695074,-0.0106710002693676,-0.9414626323344458,0.3364517787104212,"(0.0025221469567358046, 0.0, 0.0, 0.0, 0.0025328481025727184, 0.0, 0.0, 0.0, 0.014116831865047752)",0.0008432520437500683,4.9683616492582744e-05,2.2053936637778935e-06,"(0.001, 0.0, 0.0, 0.0, 0.001, 0.0, 0.0, 0.0, 0.001)",0.0060039825651157005,-0.017782953004855256,0.006712150884229726,"(0.001, 0.0, 0.0, 0.0, 0.001, 0.0, 0.0, 0.0, 0.001)"
2024/05/14/15:15:59.627534,87617,1715714159,627452183,gps,0.01827902704898688,-0.010679182387563727,-0.9414569865683098,0.3364677914383379,"(0.0025221469567358046, 0.0, 0.0, 0.0, 0.0025328481025727184, 0.0, 0.0, 0.0, 0.014116831865047752)",0.0017177834172216065,0.001152728455761006,0.0014682113655558376,"(0.001, 0.0, 0.0, 0.0, 0.001, 0.0, 0.0, 0.0, 0.001)",-0.014056713863527292,-0.023321084630738013,-0.0115312722327726,"(0.001, 0.0, 0.0, 0.0, 0.001, 0.0, 0.0, 0.0, 0.001)"
2024/05/14/15:15:59.631507,87618,1715714159,628616292,gps,0.01827902704898688,-0.010679182387563727,-0.9414569865683098,0.3364677914383379,"(0.0025221469567358046, 0.0, 0.0, 0.0, 0.0025328481025727184, 0.0, 0.0, 0.0, 0.014116831865047752)",4.5641016894917356e-05,-0.00034857802173156836,0.0002874690940798635,"(0.001, 0.0, 0.0, 0.0, 0.001, 0.0, 0.0, 0.0, 0.001)",-0.0002402991274864603,-0.006993821967777738,0.0339599008180582,"(0.001, 0.0, 0.0, 0.0, 0.001, 0.0, 0.0, 0.0, 0.001)"
2024/05/14/15:15:59.632014,87619,1715714159,631948809,gps,0.01827207955184029,-0.010675601095011408,-0.9414583227099798,0.3364645438233026,"(0.0025221469567358046, 0.0, 0.0, 0.0, 0.0025328481025727184, 0.0, 0.0, 0.0, 0.014116831865047752)",0.0006263859346515202,-6.366078208549726e-05,0.0002239612229915396,"(0.001, 0.0, 0.0, 0.0, 0.001, 0.0, 0.0, 0.0, 0.001)",0.0010402540776905814,-0.005109170278589878,-0.018155513375824855,"(0.001, 0.0, 0.0, 0.0, 0.001, 0.0, 0.0, 0.0, 0.001)"
2024/05/14/15:15:59.641498,87620,1715714159,641365852,gps,0.01827207955184029,-0.010675601095011408,-0.9414583227099798,0.3364645438233026,"(0.0025221469567358046, 0.0, 0.0, 0.0, 0.0025328481025727184, 0.0, 0.0, 0.0, 0.014116831865047752)",-0.0001941638213201646,0.0005571260117935149,0.0004613341736981943,"(0.001, 0.0, 0.0, 0.0, 0.001, 0.0, 0.0, 0.0, 0.001)",0.011165257952784566,-0.02229856891748003,-0.00986554902998195,"(0.001, 0.0, 0.0, 0.0, 0.001, 0.0, 0.0, 0.0, 0.001)"
2024/05/14/15:15:59.661675,87621,1715714159,661582698,gps,0.018275631648126154,-0.010679029909754053,-0.9414557350177574,0.3364714826106706,"(0.0025221469567358046, 0.0, 0.0, 0.0, 0.0025328481025727184, 0.0, 0.0, 0.0, 0.014116831865047752)",0.00023412320376680406,-0.00036440691113524603,0.0011079863837777906,"(0.001, 0.0, 0.0, 0.0, 0.001, 0.0, 0.0, 0.0, 0.001)",0.0372396798280043,-0.0014897674696435395,0.013239725479727073,"(0.001, 0.0, 0.0, 0.0, 0.001, 0.0, 0.0, 0.0, 0.001)"
2024/05/14/15:15:59.664664,87622,1715714159,664576936,gps,0.018275631648126154,-0.010679029909754053,-0.9414557350177574,0.3364714826106706,"(0.0025221469567358046, 0.0, 0.0, 0.0, 0.0025328481025727184, 0.0, 0.0, 0.0, 0.014116831865047752)",-0.0003599413380811439,0.0007619748378859833,-4.1522182640596176e-05,"(0.001, 0.0, 0.0, 0.0, 0.001, 0.0, 0.0, 0.0, 0.001)",-0.0005380324560670307,0.0019164510308547797,-0.0019935715464778976,"(0.001, 0.0, 0.0, 0.0, 0.001, 0.0, 0.0, 0.0, 0.001)"
2024/05/14/15:15:59.673255,87623,1715714159,673146523,gps,0.0182827838286118,-0.010681679880339377,-0.9414523277066369,0.3364805435477144,"(0.0025221469567358046, 0.0, 0.0, 0.0, 0.0025328481025727184, 0.0, 0.0, 0.0, 0.014116831865047752)",-5.9663671428065816e-05,0.00033875832451995413,0.0009444098958770844,"(0.001, 0.0, 0.0, 0.0, 0.001, 0.0, 0.0, 0.0, 0.001)",0.005258903029964091,-0.0016567765642824593,-0.009445944774152374,"(0.001, 0.0, 0.0, 0.0, 0.001, 0.0, 0.0, 0.0, 0.001)"
2024/05/14/15:15:59.680716,87624,1715714159,680615644,gps,0.0182827838286118,-0.010681679880339377,-0.9414523277066369,0.3364805435477144,"(0.0025221469567358046, 0.0, 0.0, 0.0, 0.0025328481025727184, 0.0, 0.0, 0.0, 0.014116831865047752)",-0.0006216407848135731,0.0002098173506885699,0.00017815265086145392,"(0.001, 0.0, 0.0, 0.0, 0.001, 0.0, 0.0, 0.0, 0.001)",0.004990139926501489,-0.0011982479023041337,0.013571893904787025,"(0.001, 0.0, 0.0, 0.0, 0.001, 0.0, 0.0, 0.0, 0.001)"
2024/05/14/15:15:59.691900,87625,1715714159,691841180,gps,0.018272981950132983,-0.010672427090648806,-0.9414550402095565,0.33647378009982765,"(0.0025221469567358046, 0.0, 0.0, 0.0, 0.0025328481025727184, 0.0, 0.0, 0.0, 0.014116831865047752)",0.0012767552241966132,-0.0009020072857725357,-0.00021214083820650565,"(0.001, 0.0, 0.0, 0.0, 0.001, 0.0, 0.0, 0.0, 0.001)",-0.014118849479808432,0.018772587356949484,0.01604594390553922,"(0.001, 0.0, 0.0, 0.0, 0.001, 0.0, 0.0, 0.0, 0.001)"
2024/05/14/15:15:59.700872,87626,1715714159,700784570,gps,0.018272981950132983,-0.010672427090648806,-0.9414550402095565,0.33647378009982765,"(0.0025221469567358046, 0.0, 0.0, 0.0, 0.0025328481025727184, 0.0, 0.0, 0.0, 0.014116831865047752)",-0.00010136863727832607,0.0002451718633610049,-0.0005235563341143427,"(0.001, 0.0, 0.0, 0.0, 0.001, 0.0, 0.0, 0.0, 0.001)",-0.002087704567623987,-0.008204971344582332,-0.0008321619699405156,"(0.001, 0.0, 0.0, 0.0, 0.001, 0.0, 0.0, 0.0, 0.001)"
2024/05/14/15:15:59.712129,87627,1715714159,711986242,gps,0.018284206747613236,-0.010675074173545896,-0.9414569179771171,0.3364678322931149,"(0.0025221469567358046, 0.0, 0.0, 0.0, 0.0025328481025727184, 0.0, 0.0, 0.0, 0.014116831865047752)",-0.00043813825364840314,-3.5585907420347066e-05,-0.00017686640135244905,"(0.001, 0.0, 0.0, 0.0, 0.001, 0.0, 0.0, 0.0, 0.001)",0.007132846137605132,-0.0224136079200078,0.00542950383137285,"(0.001, 0.0, 0.0, 0.0, 0.001, 0.0, 0.0, 0.0, 0.001)"
2024/05/14/15:15:59.721874,87628,1715714159,720514367,gps,0.018284206747613236,-0.010675074173545896,-0.9414569179771171,0.3364678322931149,"(0.0025221469567358046, 0.0, 0.0, 0.0, 0.0025328481025727184, 0.0, 0.0, 0.0, 0.014116831865047752)",0.00021559068690153708,-0.0003652163648497536,0.0005415000417859121,"(0.001, 0.0, 0.0, 0.0, 0.001, 0.0, 0.0, 0.0, 0.001)",-0.005916327597446769,-0.0030889908931322134,0.0020889902478336995,"(0.001, 0.0, 0.0, 0.0, 0.001, 0.0, 0.0, 0.0, 0.001)"
2024/05/14/15:15:59.732229,87629,1715714159,732155527,gps,0.018269956499714166,-0.010674606669271188,-0.9414558278519536,0.33647167141610557,"(0.0025221469567358046, 0.0, 0.0, 0.0, 0.0025328481025727184, 0.0, 0.0, 0.0, 0.014116831865047752)",0.0012100266021405478,-0.00011692555701528948,0.000552033122240418,"(0.001, 0.0, 0.0, 0.0, 0.001, 0.0, 0.0, 0.0, 0.001)",-0.007469735387937276,-0.0015602322206052536,0.008467516581111388,"(0.001, 0.0, 0.0, 0.0, 0.001, 0.0, 0.0, 0.0, 0.001)"
2024/05/14/15:15:59.740602,87630,1715714159,740490295,gps,0.018269956499714166,-0.010674606669271188,-0.9414558278519536,0.33647167141610557,"(0.0025221469567358046, 0.0, 0.0, 0.0, 0.0025328481025727184, 0.0, 0.0, 0.0, 0.014116831865047752)",8.004904897149779e-05,-0.0006958876486175477,-0.0004371445790697099,"(0.001, 0.0, 0.0, 0.0, 0.001, 0.0, 0.0, 0.0, 0.001)",-0.003552426141720686,-0.0028386064114932423,-0.008439967394508056,"(0.001, 0.0, 0.0, 0.0, 0.001, 0.0, 0.0, 0.0, 0.001)"
2024/05/14/15:15:59.757203,87631,1715714159,757138077,gps,0.018267482275379998,-0.010660607855948353,-0.9414581522380212,0.33646574582865224,"(0.0025221469567358046, 0.0, 0.0, 0.0, 0.0025328481025727184, 0.0, 0.0, 0.0, 0.014116831865047752)",5.60681751593467e-05,-0.001083749468446068,-0.0005100225673408576,"(0.001, 0.0, 0.0, 0.0, 0.001, 0.0, 0.0, 0.0, 0.001)",-0.005780111817943664,0.010610400163468,-0.013421683499501855,"(0.001, 0.0, 0.0, 0.0, 0.001, 0.0, 0.0, 0.0, 0.001)"
2024/05/14/15:15:59.760874,87632,1715714159,760775350,gps,0.018267482275379998,-0.010660607855948353,-0.9414581522380212,0.33646574582865224,"(0.0025221469567358046, 0.0, 0.0, 0.0, 0.0025328481025727184, 0.0, 0.0, 0.0, 0.014116831865047752)",0.0002844036157449185,-0.0005991818718205675,-6.338649761148651e-05,"(0.001, 0.0, 0.0, 0.0, 0.001, 0.0, 0.0, 0.0, 0.001)",-0.00891125936232531,-0.0023362573757840953,-0.021443618120669323,"(0.001, 0.0, 0.0, 0.0, 0.001, 0.0, 0.0, 0.0, 0.001)"
2024/05/14/15:15:59.772422,87633,1715714159,772327071,gps,0.01826943153813514,-0.010661828794582273,-0.9414563820117862,0.3364705545026282,"(0.0025221469567358046, 0.0, 0.0, 0.0, 0.0025328481025727184, 0.0, 0.0, 0.0, 0.014116831865047752)",-8.810601060461841e-06,-0.0010954192714693561,-0.00018403502425193765,"(0.001, 0.0, 0.0, 0.0, 0.001, 0.0, 0.0, 0.0, 0.001)",-0.015918578390133664,-0.00527614486410693,-0.003479246854131751,"(0.001, 0.0, 0.0, 0.0, 0.001, 0.0, 0.0, 0.0, 0.001)"
2024/05/14/15:15:59.780679,87634,1715714159,780597030,gps,0.01826943153813514,-0.010661828794582273,-0.9414563820117862,0.3364705545026282,"(0.0025221469567358046, 0.0, 0.0, 0.0, 0.0025328481025727184, 0.0, 0.0, 0.0, 0.014116831865047752)",2.2702858242824672e-05,0.00026388890682824237,0.0007393091094307857,"(0.001, 0.0, 0.0, 0.0, 0.001, 0.0, 0.0, 0.0, 0.001)",0.006845043037860389,-0.0032765593778808855,-0.006389951352313635,"(0.001, 0.0, 0.0, 0.0, 0.001, 0.0, 0.0, 0.0, 0.001)"
2024/05/14/15:15:59.792618,87635,1715714159,792522060,gps,0.018272977545282905,-0.010667101206338722,-0.9414542339021507,0.3364762052674719,"(0.0025221469567358046, 0.0, 0.0, 0.0, 0.0025328481025727184, 0.0, 0.0, 0.0, 0.014116831865047752)",-0.00026923318273031,0.000218135517397736,0.0002999605262994055,"(0.001, 0.0, 0.0, 0.0, 0.001, 0.0, 0.0, 0.0, 0.001)",0.0004090076877080618,0.0002899552947599749,-0.010354019602514341,"(0.001, 0.0, 0.0, 0.0, 0.001, 0.0, 0.0, 0.0, 0.001)"
2024/05/14/15:15:59.800692,87636,1715714159,800549311,gps,0.018272977545282905,-0.010667101206338722,-0.9414542339021507,0.3364762052674719,"(0.0025221469567358046, 0.0, 0.0, 0.0, 0.0025328481025727184, 0.0, 0.0, 0.0, 0.014116831865047752)",-0.00014411739905097987,1.9525241950195986e-05,-0.0006724365685027925,"(0.001, 0.0, 0.0, 0.0, 0.001, 0.0, 0.0, 0.0, 0.001)",0.011260529900512385,-0.00840134407856298,0.001929478853557962,"(0.001, 0.0, 0.0, 0.0, 0.001, 0.0, 0.0, 0.0, 0.001)"
2024/05/14/15:15:59.819578,87637,1715714159,819501052,gps,0.018259533457125172,-0.010657230236518746,-0.9414551431524845,0.3364747038238519,"(0.0025221469567358046, 0.0, 0.0, 0.0, 0.0025328481025727184, 0.0, 0.0, 0.0, 0.014116831865047752)",0.000608426408981344,-0.0009643986587984728,0.00010018847776899641,"(0.001, 0.0, 0.0, 0.0, 0.001, 0.0, 0.0, 0.0, 0.001)",-0.0013377310532578222,-0.004010332068272916,-0.004730860519028278,"(0.001, 0.0, 0.0, 0.0, 0.001, 0.0, 0.0, 0.0, 0.001)"
2024/05/14/15:15:59.821116,87638,1715714159,821003637,gps,0.018259533457125172,-0.010657230236518746,-0.9414551431524845,0.3364747038238519,"(0.0025221469567358046, 0.0, 0.0, 0.0, 0.0025328481025727184, 0.0, 0.0, 0.0, 0.014116831865047752)",4.978180315465422e-06,-0.00025395378026491834,-0.0003507338774835101,"(0.001, 0.0, 0.0, 0.0, 0.001, 0.0, 0.0, 0.0, 0.001)",0.009679653992871295,0.005501577174890117,-0.013190355559927536,"(0.001, 0.0, 0.0, 0.0, 0.001, 0.0, 0.0, 0.0, 0.001)"
2024/05/14/15:15:59.831871,87639,1715714159,831799136,gps,0.01827237030093612,-0.010651050066204364,-0.9414578348596065,0.3364666711541196,"(0.0025221469567358046, 0.0, 0.0, 0.0, 0.0025328481025727184, 0.0, 0.0, 0.0, 0.014116831865047752)",-0.0006581347210348898,-0.0006033413638380989,-0.0002955550993054004,"(0.001, 0.0, 0.0, 0.0, 0.001, 0.0, 0.0, 0.0, 0.001)",0.009117759267350251,-0.013525252750791332,0.0056814283589612675,"(0.001, 0.0, 0.0, 0.0, 0.001, 0.0, 0.0, 0.0, 0.001)"
2024/05/14/15:15:59.840928,87640,1715714159,840837093,gps,0.01827237030093612,-0.010651050066204364,-0.9414578348596065,0.3364666711541196,"(0.0025221469567358046, 0.0, 0.0, 0.0, 0.0025328481025727184, 0.0, 0.0, 0.0, 0.014116831865047752)",-0.00013786264491217611,-0.0004712808362435392,-0.00035177500955133035,"(0.001, 0.0, 0.0, 0.0, 0.001, 0.0, 0.0, 0.0, 0.001)",0.0023979028554526865,-0.0002080175423583346,-0.011730543158713587,"(0.001, 0.0, 0.0, 0.0, 0.001, 0.0, 0.0, 0.0, 0.001)"
2024/05/14/15:15:59.901394,87641,1715714159,901317730,gps,0.018269507732989576,-0.010663384208397752,-0.9414583113913179,0.33646510255393003,"(0.0024772436343801912, 0.0, 0.0, 0.0, 0.002487929465308847, 0.0, 0.0, 0.0, 0.014113944375071574)",0.0003404682010749135,0.0004165152222387679,-0.0006213026914871834,"(0.001, 0.0, 0.0, 0.0, 0.001, 0.0, 0.0, 0.0, 0.001)",0.016230100784332194,-0.005744313518054188,-0.028441011697073557,"(0.001, 0.0, 0.0, 0.0, 0.001, 0.0, 0.0, 0.0, 0.001)"
2024/05/14/15:15:59.907350,87642,1715714159,907277217,gps,0.018269507732989576,-0.010663384208397752,-0.9414583113913179,0.33646510255393003,"(0.0024772436343801912, 0.0, 0.0, 0.0, 0.002487929465308847, 0.0, 0.0, 0.0, 0.014113944375071574)",7.483349176575212e-05,0.0003231604678615962,-0.00039550174721479533,"(0.001, 0.0, 0.0, 0.0, 0.001, 0.0, 0.0, 0.0, 0.001)",0.002282278073556633,-0.01225397589441228,-0.003978074038050707,"(0.001, 0.0, 0.0, 0.0, 0.001, 0.0, 0.0, 0.0, 0.001)"
2024/05/14/15:15:59.923615,87643,1715714159,923425055,gps,0.018263755207974946,-0.010658211212842179,-0.9414588083352843,0.33646418826875485,"(0.0024772436343801912, 0.0, 0.0, 0.0, 0.002487929465308847, 0.0, 0.0, 0.0, 0.014113944375071574)",0.0002322705749845405,-0.00022379754467008814,-1.9618814777551496e-06,"(0.001, 0.0, 0.0, 0.0, 0.001, 0.0, 0.0, 0.0, 0.001)",0.0075476754565302106,0.004550288122246891,-0.0034723179923926927,"(0.001, 0.0, 0.0, 0.0, 0.001, 0.0, 0.0, 0.0, 0.001)"
2024/05/14/15:15:59.928266,87644,1715714159,928211588,gps,0.018263755207974946,-0.010658211212842179,-0.9414588083352843,0.33646418826875485,"(0.0024772436343801912, 0.0, 0.0, 0.0, 0.002487929465308847, 0.0, 0.0, 0.0, 0.014113944375071574)",-0.0004944426155135425,-0.0003964117741558581,-6.338756303293803e-05,"(0.001, 0.0, 0.0, 0.0, 0.001, 0.0, 0.0, 0.0, 0.001)",0.00774495354045629,0.0023324917183303174,0.0006717952971964116,"(0.001, 0.0, 0.0, 0.0, 0.001, 0.0, 0.0, 0.0, 0.001)"
2024/05/14/15:15:59.934231,87645,1715714159,934142414,gps,0.01826131791821845,-0.010664216629115361,-0.9414574204359443,0.3364680137214752,"(0.0024772436343801912, 0.0, 0.0, 0.0, 0.002487929465308847, 0.0, 0.0, 0.0, 0.014113944375071574)",0.0004469094964358826,-0.0002028386864115727,9.232715905793779e-05,"(0.001, 0.0, 0.0, 0.0, 0.001, 0.0, 0.0, 0.0, 0.001)",-0.02598253061237699,-0.00262560154761836,-0.03396363897603964,"(0.001, 0.0, 0.0, 0.0, 0.001, 0.0, 0.0, 0.0, 0.001)"
2024/05/14/15:15:59.936543,87646,1715714159,936404113,gps,0.01826131791821845,-0.010664216629115361,-0.9414574204359443,0.3364680137214752,"(0.0024772436343801912, 0.0, 0.0, 0.0, 0.002487929465308847, 0.0, 0.0, 0.0, 0.014113944375071574)",0.00015412002931310928,0.0007642507373266166,1.3888956851383004e-05,"(0.001, 0.0, 0.0, 0.0, 0.001, 0.0, 0.0, 0.0, 0.001)",-0.010895198668971857,-0.02803028620690451,0.017558616634105777,"(0.001, 0.0, 0.0, 0.0, 0.001, 0.0, 0.0, 0.0, 0.001)"
2024/05/14/15:15:59.942048,87647,1715714159,941948529,gps,0.0182738771270076,-0.010657348358504595,-0.9414561099512212,0.3364712162670477,"(0.0024772436343801912, 0.0, 0.0, 0.0, 0.002487929465308847, 0.0, 0.0, 0.0, 0.014113944375071574)",-0.0005632091587231417,-0.00010921853517002616,0.000528197740341009,"(0.001, 0.0, 0.0, 0.0, 0.001, 0.0, 0.0, 0.0, 0.001)",-0.006390713960963812,0.013247976032617887,-0.005218041844585778,"(0.001, 0.0, 0.0, 0.0, 0.001, 0.0, 0.0, 0.0, 0.001)"
2024/05/14/15:15:59.956638,87648,1715714159,956559934,gps,0.0182738771270076,-0.010657348358504595,-0.9414561099512212,0.3364712162670477,"(0.0024772436343801912, 0.0, 0.0, 0.0, 0.002487929465308847, 0.0, 0.0, 0.0, 0.014113944375071574)",-0.0005361006128542694,4.46784329365655e-05,-0.0004254593260507046,"(0.001, 0.0, 0.0, 0.0, 0.001, 0.0, 0.0, 0.0, 0.001)",-0.001761981277809008,0.0025059193391210946,-0.012222961182003004,"(0.001, 0.0, 0.0, 0.0, 0.001, 0.0, 0.0, 0.0, 0.001)"
2024/05/14/15:15:59.977046,87649,1715714159,976815050,gps,0.018279658372073373,-0.010651162556794689,-0.9414611013799673,0.33645713161472396,"(0.0024772436343801912, 0.0, 0.0, 0.0, 0.002487929465308847, 0.0, 0.0, 0.0, 0.014113944375071574)",-0.001460060053937257,-0.0008974545186631501,-0.0006770526188978433,"(0.001, 0.0, 0.0, 0.0, 0.001, 0.0, 0.0, 0.0, 0.001)",-0.025889087784565615,0.0064273841838302335,0.010973774262049008,"(0.001, 0.0, 0.0, 0.0, 0.001, 0.0, 0.0, 0.0, 0.001)"
2024/05/14/15:15:59.983354,87650,1715714159,980469432,gps,0.018279658372073373,-0.010651162556794689,-0.9414611013799673,0.33645713161472396,"(0.0024772436343801912, 0.0, 0.0, 0.0, 0.002487929465308847, 0.0, 0.0, 0.0, 0.014113944375071574)",-0.0007498404454944273,0.00041070460053573726,-0.000881465249031459,"(0.001, 0.0, 0.0, 0.0, 0.001, 0.0, 0.0, 0.0, 0.001)",-0.0034596915982796467,0.0015985616314597641,-0.013769756522444736,"(0.001, 0.0, 0.0, 0.0, 0.001, 0.0, 0.0, 0.0, 0.001)"
2024/05/14/15:15:59.983358,87651,1715714159,982702156,gps,0.018285174386129182,-0.01066164721044659,-0.9414605120272441,0.33645814891280057,"(0.0024772436343801912, 0.0, 0.0, 0.0, 0.002487929465308847, 0.0, 0.0, 0.0, 0.014113944375071574)",-0.0002191419869641438,0.0005323668961167256,-4.8576411477973734e-05,"(0.001, 0.0, 0.0, 0.0, 0.001, 0.0, 0.0, 0.0, 0.001)",0.006490954536435603,-0.006502294444227166,-0.0006499566948977562,"(0.001, 0.0, 0.0, 0.0, 0.001, 0.0, 0.0, 0.0, 0.001)"
