time,.header.seq,.header.stamp.secs,.header.stamp.nsecs,.header.frame_id,.status.status,.status.service,.latitude,.longitude,.altitude,.position_covariance,.position_covariance_type
2024/05/14/15:15:58.531619,43719,1715714158,531483973,gps,0,0,34.8151447482118,-82.3267393508817,281.88777726888657,"(0.9195868991786291, 0.0, 0.0, 0.0, 1.9364703048413645, 0.0, 0.0, 0.0, 5.9862900267035)",2
2024/05/14/15:15:58.554416,43720,1715714158,554347908,gps,0,0,34.8151447482118,-82.3267393508817,281.88777726888657,"(0.9195868991786291, 0.0, 0.0, 0.0, 1.9364703048413645, 0.0, 0.0, 0.0, 5.9862900267035)",2
2024/05/14/15:15:58.572805,43721,1715714158,572612582,gps,0,0,34.81514472856768,-82.32673939641226,281.8887778976932,"(0.9196143351896389, 0.0, 0.0, 0.0, 1.9366040130464626, 0.0, 0.0, 0.0, 5.9862456932298755)",2
2024/05/14/15:15:58.591182,43722,1715714158,591068833,gps,0,0,34.81514472856768,-82.32673939641226,281.8887778976932,"(0.9196143351896389, 0.0, 0.0, 0.0, 1.9366040130464626, 0.0, 0.0, 0.0, 5.9862456932298755)",2
2024/05/14/15:15:58.612188,43723,1715714158,612053361,gps,0,0,34.81514472856768,-82.32673939641226,281.8887778976932,"(0.9196143351896389, 0.0, 0.0, 0.0, 1.9366040130464626, 0.0, 0.0, 0.0, 5.9862456932298755)",2
2024/05/14/15:15:58.631312,43724,1715714158,631190564,gps,0,0,34.81514472856768,-82.32673939641226,281.8887778976932,"(0.9196143351896389, 0.0, 0.0, 0.0, 1.9366040130464626, 0.0, 0.0, 0.0, 5.9862456932298755)",2
2024/05/14/15:15:58.661552,43725,1715714158,661401815,gps,0,0,34.81514472856768,-82.32673939641226,281.8887778976932,"(0.9196143351896389, 0.0, 0.0, 0.0, 1.9366040130464626, 0.0, 0.0, 0.0, 5.9862456932298755)",2
2024/05/14/15:15:58.671777,43726,1715714158,671599574,gps,0,0,34.815144769654665,-82.32673942545414,281.89328754507005,"(0.9195819836032229, 0.0, 0.0, 0.0, 1.9365996998065071, 0.0, 0.0, 0.0, 5.986027528264515)",2
2024/05/14/15:15:58.691596,43727,1715714158,691437872,gps,0,0,34.815144769654665,-82.32673942545414,281.89328754507005,"(0.9195819836032229, 0.0, 0.0, 0.0, 1.9365996998065071, 0.0, 0.0, 0.0, 5.986027528264515)",2
2024/05/14/15:15:58.711635,43728,1715714158,711504334,gps,0,0,34.815144769654665,-82.32673942545414,281.89328754507005,"(0.9195819836032229, 0.0, 0.0, 0.0, 1.9365996998065071, 0.0, 0.0, 0.0, 5.986027528264515)",2
2024/05/14/15:15:58.734945,43729,1715714158,732002977,gps,0,0,34.815144769654665,-82.32673942545414,281.89328754507005,"(0.9195819836032229, 0.0, 0.0, 0.0, 1.9365996998065071, 0.0, 0.0, 0.0, 5.986027528264515)",2
2024/05/14/15:15:58.759447,43730,1715714158,756988256,gps,0,0,34.815144769654665,-82.32673942545414,281.89328754507005,"(0.9195819836032229, 0.0, 0.0, 0.0, 1.9365996998065071, 0.0, 0.0, 0.0, 5.986027528264515)",2
2024/05/14/15:15:58.774282,43731,1715714158,771606784,gps,0,0,34.81514472869143,-82.32673941923728,281.8881402462721,"(0.9192923308010137, 0.0, 0.0, 0.0, 1.936461346888393, 0.0, 0.0, 0.0, 5.985838532952187)",2
2024/05/14/15:15:58.792230,43732,1715714158,792075980,gps,0,0,34.81514472869143,-82.32673941923728,281.8881402462721,"(0.9192923308010137, 0.0, 0.0, 0.0, 1.936461346888393, 0.0, 0.0, 0.0, 5.985838532952187)",2
2024/05/14/15:15:58.813586,43733,1715714158,813484943,gps,0,0,34.81514472869143,-82.32673941923728,281.8881402462721,"(0.9192923308010137, 0.0, 0.0, 0.0, 1.936461346888393, 0.0, 0.0, 0.0, 5.985838532952187)",2
2024/05/14/15:15:58.831339,43734,1715714158,831239505,gps,0,0,34.81514472869143,-82.32673941923728,281.8881402462721,"(0.9192923308010137, 0.0, 0.0, 0.0, 1.936461346888393, 0.0, 0.0, 0.0, 5.985838532952187)",2
2024/05/14/15:15:58.901446,43735,1715714158,901344066,gps,0,0,34.81514472869143,-82.32673941923728,281.8881402462721,"(0.9192923308010137, 0.0, 0.0, 0.0, 1.936461346888393, 0.0, 0.0, 0.0, 5.985838532952187)",2
2024/05/14/15:15:58.938697,43736,1715714158,938593761,gps,0,0,34.81514471256608,-82.32673940951703,281.8932041153312,"(0.9192755291380514, 0.0, 0.0, 0.0, 1.9364457534641275, 0.0, 0.0, 0.0, 5.985877031755308)",2
2024/05/14/15:15:58.964388,43737,1715714158,964229012,gps,0,0,34.81514471256608,-82.32673940951703,281.8932041153312,"(0.9192755291380514, 0.0, 0.0, 0.0, 1.9364457534641275, 0.0, 0.0, 0.0, 5.985877031755308)",2
2024/05/14/15:15:58.974184,43738,1715714158,973437895,gps,0,0,34.81514471256608,-82.32673940951703,281.8932041153312,"(0.9192755291380514, 0.0, 0.0, 0.0, 1.9364457534641275, 0.0, 0.0, 0.0, 5.985877031755308)",2
2024/05/14/15:15:58.988497,43739,1715714158,988343942,gps,0,0,34.81514471256608,-82.32673940951703,281.8932041153312,"(0.9192755291380514, 0.0, 0.0, 0.0, 1.9364457534641275, 0.0, 0.0, 0.0, 5.985877031755308)",2
2024/05/14/15:15:58.995040,43740,1715714158,994934258,gps,0,0,34.81514471256608,-82.32673940951703,281.8932041153312,"(0.9192755291380514, 0.0, 0.0, 0.0, 1.9364457534641275, 0.0, 0.0, 0.0, 5.985877031755308)",2
2024/05/14/15:15:59.014288,43741,1715714159,14192522,gps,0,0,34.81514469036598,-82.32673935320516,281.8906228169799,"(0.9189862674431879, 0.0, 0.0, 0.0, 1.936115983834398, 0.0, 0.0, 0.0, 5.985412721114699)",2
2024/05/14/15:15:59.026681,43742,1715714159,26512483,gps,0,0,34.81514469036598,-82.32673935320516,281.8906228169799,"(0.9189862674431879, 0.0, 0.0, 0.0, 1.936115983834398, 0.0, 0.0, 0.0, 5.985412721114699)",2
2024/05/14/15:15:59.035802,43743,1715714159,35706127,gps,0,0,34.81514469036598,-82.32673935320516,281.8906228169799,"(0.9189862674431879, 0.0, 0.0, 0.0, 1.936115983834398, 0.0, 0.0, 0.0, 5.985412721114699)",2
2024/05/14/15:15:59.044186,43744,1715714159,43996302,gps,0,0,34.81514469036598,-82.32673935320516,281.8906228169799,"(0.9189862674431879, 0.0, 0.0, 0.0, 1.936115983834398, 0.0, 0.0, 0.0, 5.985412721114699)",2
2024/05/14/15:15:59.056721,43745,1715714159,56617744,gps,0,0,34.81514469036598,-82.32673935320516,281.8906228169799,"(0.9189862674431879, 0.0, 0.0, 0.0, 1.936115983834398, 0.0, 0.0, 0.0, 5.985412721114699)",2
2024/05/14/15:15:59.072134,43746,1715714159,71848940,gps,0,0,34.815144715159846,-82.32673935429521,281.8957360126078,"(0.9189570123746762, 0.0, 0.0, 0.0, 1.9359547586032164, 0.0, 0.0, 0.0, 5.985385889643169)",2
2024/05/14/15:15:59.092520,43747,1715714159,92332632,gps,0,0,34.815144715159846,-82.32673935429521,281.8957360126078,"(0.9189570123746762, 0.0, 0.0, 0.0, 1.9359547586032164, 0.0, 0.0, 0.0, 5.985385889643169)",2
2024/05/14/15:15:59.111518,43748,1715714159,111359702,gps,0,0,34.815144715159846,-82.32673935429521,281.8957360126078,"(0.9189570123746762, 0.0, 0.0, 0.0, 1.9359547586032164, 0.0, 0.0, 0.0, 5.985385889643169)",2
2024/05/14/15:15:59.131843,43749,1715714159,131733610,gps,0,0,34.815144715159846,-82.32673935429521,281.8957360126078,"(0.9189570123746762, 0.0, 0.0, 0.0, 1.9359547586032164, 0.0, 0.0, 0.0, 5.985385889643169)",2
2024/05/14/15:15:59.155532,43750,1715714159,155358519,gps,0,0,34.815144715159846,-82.32673935429521,281.8957360126078,"(0.9189570123746762, 0.0, 0.0, 0.0, 1.9359547586032164, 0.0, 0.0, 0.0, 5.985385889643169)",2
2024/05/14/15:15:59.171752,43751,1715714159,171560210,gps,0,0,34.81514470585408,-82.32673935242559,281.8930623838678,"(0.9188251417919133, 0.0, 0.0, 0.0, 1.9357543975071536, 0.0, 0.0, 0.0, 5.985464051053896)",2
2024/05/14/15:15:59.191360,43752,1715714159,191243224,gps,0,0,34.81514470585408,-82.32673935242559,281.8930623838678,"(0.9188251417919133, 0.0, 0.0, 0.0, 1.9357543975071536, 0.0, 0.0, 0.0, 5.985464051053896)",2
2024/05/14/15:15:59.216324,43753,1715714159,216173421,gps,0,0,34.81514470585408,-82.32673935242559,281.8930623838678,"(0.9188251417919133, 0.0, 0.0, 0.0, 1.9357543975071536, 0.0, 0.0, 0.0, 5.985464051053896)",2
2024/05/14/15:15:59.231293,43754,1715714159,231179105,gps,0,0,34.81514470585408,-82.32673935242559,281.8930623838678,"(0.9188251417919133, 0.0, 0.0, 0.0, 1.9357543975071536, 0.0, 0.0, 0.0, 5.985464051053896)",2
2024/05/14/15:15:59.259626,43755,1715714159,259497596,gps,0,0,34.81514470585408,-82.32673935242559,281.8930623838678,"(0.9188251417919133, 0.0, 0.0, 0.0, 1.9357543975071536, 0.0, 0.0, 0.0, 5.985464051053896)",2
2024/05/14/15:15:59.272865,43756,1715714159,272577598,gps,0,0,34.81514466500475,-82.32673927791332,281.8920198334381,"(0.9187678941640378, 0.0, 0.0, 0.0, 1.9355139115396582, 0.0, 0.0, 0.0, 5.985402221836068)",2
2024/05/14/15:15:59.291667,43757,1715714159,291521410,gps,0,0,34.81514466500475,-82.32673927791332,281.8920198334381,"(0.9187678941640378, 0.0, 0.0, 0.0, 1.9355139115396582, 0.0, 0.0, 0.0, 5.985402221836068)",2
2024/05/14/15:15:59.311503,43758,1715714159,311288856,gps,0,0,34.81514466500475,-82.32673927791332,281.8920198334381,"(0.9187678941640378, 0.0, 0.0, 0.0, 1.9355139115396582, 0.0, 0.0, 0.0, 5.985402221836068)",2
2024/05/14/15:15:59.332365,43759,1715714159,332230113,gps,0,0,34.81514466500475,-82.32673927791332,281.8920198334381,"(0.9187678941640378, 0.0, 0.0, 0.0, 1.9355139115396582, 0.0, 0.0, 0.0, 5.985402221836068)",2
2024/05/14/15:15:59.359072,43760,1715714159,358978757,gps,0,0,34.81514466500475,-82.32673927791332,281.8920198334381,"(0.9187678941640378, 0.0, 0.0, 0.0, 1.9355139115396582, 0.0, 0.0, 0.0, 5.985402221836068)",2
2024/05/14/15:15:59.371964,43761,1715714159,371828938,gps,0,0,34.81514467660324,-82.32673928891849,281.89105239510536,"(0.9186033600138934, 0.0, 0.0, 0.0, 1.9353848845373847, 0.0, 0.0, 0.0, 5.985058083912008)",2
2024/05/14/15:15:59.392758,43762,1715714159,392611888,gps,0,0,34.81514467660324,-82.32673928891849,281.89105239510536,"(0.9186033600138934, 0.0, 0.0, 0.0, 1.9353848845373847, 0.0, 0.0, 0.0, 5.985058083912008)",2
2024/05/14/15:15:59.415980,43763,1715714159,415831109,gps,0,0,34.81514467660324,-82.32673928891849,281.89105239510536,"(0.9186033600138934, 0.0, 0.0, 0.0, 1.9353848845373847, 0.0, 0.0, 0.0, 5.985058083912008)",2
2024/05/14/15:15:59.431704,43764,1715714159,431565591,gps,0,0,34.81514467660324,-82.32673928891849,281.89105239510536,"(0.9186033600138934, 0.0, 0.0, 0.0, 1.9353848845373847, 0.0, 0.0, 0.0, 5.985058083912008)",2
2024/05/14/15:15:59.461421,43765,1715714159,461258384,gps,0,0,34.81514467660324,-82.32673928891849,281.89105239510536,"(0.9186033600138934, 0.0, 0.0, 0.0, 1.9353848845373847, 0.0, 0.0, 0.0, 5.985058083912008)",2
2024/05/14/15:15:59.471611,43766,1715714159,471443014,gps,0,0,34.8151446593246,-82.32673927916638,281.89259707089514,"(0.9183618414327874, 0.0, 0.0, 0.0, 1.9351523814405027, 0.0, 0.0, 0.0, 5.984716288919628)",2
2024/05/14/15:15:59.491706,43767,1715714159,491606675,gps,0,0,34.8151446593246,-82.32673927916638,281.89259707089514,"(0.9183618414327874, 0.0, 0.0, 0.0, 1.9351523814405027, 0.0, 0.0, 0.0, 5.984716288919628)",2
2024/05/14/15:15:59.512500,43768,1715714159,512354676,gps,0,0,34.8151446593246,-82.32673927916638,281.89259707089514,"(0.9183618414327874, 0.0, 0.0, 0.0, 1.9351523814405027, 0.0, 0.0, 0.0, 5.984716288919628)",2
2024/05/14/15:15:59.531646,43769,1715714159,531524905,gps,0,0,34.8151446593246,-82.32673927916638,281.89259707089514,"(0.9183618414327874, 0.0, 0.0, 0.0, 1.9351523814405027, 0.0, 0.0, 0.0, 5.984716288919628)",2
2024/05/14/15:15:59.552845,43770,1715714159,552699611,gps,0,0,34.8151446593246,-82.32673927916638,281.89259707089514,"(0.9183618414327874, 0.0, 0.0, 0.0, 1.9351523814405027, 0.0, 0.0, 0.0, 5.984716288919628)",2
2024/05/14/15:15:59.571666,43771,1715714159,571524986,gps,0,0,34.81514463745735,-82.32673927662819,281.8922317624092,"(0.9180167557538113, 0.0, 0.0, 0.0, 1.934813436186289, 0.0, 0.0, 0.0, 5.984033894667164)",2
2024/05/14/15:15:59.591379,43772,1715714159,591259426,gps,0,0,34.81514463745735,-82.32673927662819,281.8922317624092,"(0.9180167557538113, 0.0, 0.0, 0.0, 1.934813436186289, 0.0, 0.0, 0.0, 5.984033894667164)",2
2024/05/14/15:15:59.626917,43773,1715714159,626806218,gps,0,0,34.81514463745735,-82.32673927662819,281.8922317624092,"(0.9180167557538113, 0.0, 0.0, 0.0, 1.934813436186289, 0.0, 0.0, 0.0, 5.984033894667164)",2
2024/05/14/15:15:59.631783,43774,1715714159,631324802,gps,0,0,34.81514463745735,-82.32673927662819,281.8922317624092,"(0.9180167557538113, 0.0, 0.0, 0.0, 1.934813436186289, 0.0, 0.0, 0.0, 5.984033894667164)",2
2024/05/14/15:15:59.660747,43775,1715714159,660639068,gps,0,0,34.81514463745735,-82.32673927662819,281.8922317624092,"(0.9180167557538113, 0.0, 0.0, 0.0, 1.934813436186289, 0.0, 0.0, 0.0, 5.984033894667164)",2
2024/05/14/15:15:59.671853,43776,1715714159,671667463,gps,0,0,34.81514464248137,-82.32673926722451,281.89203606173396,"(0.9179344062610006, 0.0, 0.0, 0.0, 1.9346953761219652, 0.0, 0.0, 0.0, 5.983918416412109)",2
2024/05/14/15:15:59.691449,43777,1715714159,691342180,gps,0,0,34.81514464248137,-82.32673926722451,281.89203606173396,"(0.9179344062610006, 0.0, 0.0, 0.0, 1.9346953761219652, 0.0, 0.0, 0.0, 5.983918416412109)",2
2024/05/14/15:15:59.711384,43778,1715714159,711279356,gps,0,0,34.81514464248137,-82.32673926722451,281.89203606173396,"(0.9179344062610006, 0.0, 0.0, 0.0, 1.9346953761219652, 0.0, 0.0, 0.0, 5.983918416412109)",2
2024/05/14/15:15:59.731772,43779,1715714159,731659602,gps,0,0,34.81514464248137,-82.32673926722451,281.89203606173396,"(0.9179344062610006, 0.0, 0.0, 0.0, 1.9346953761219652, 0.0, 0.0, 0.0, 5.983918416412109)",2
2024/05/14/15:15:59.756071,43780,1715714159,755908183,gps,0,0,34.81514464248137,-82.32673926722451,281.89203606173396,"(0.9179344062610006, 0.0, 0.0, 0.0, 1.9346953761219652, 0.0, 0.0, 0.0, 5.983918416412109)",2
2024/05/14/15:15:59.772022,43781,1715714159,771812986,gps,0,0,34.81514462101945,-82.32673921453795,281.88638992700726,"(0.9178907773747689, 0.0, 0.0, 0.0, 1.9346542549229184, 0.0, 0.0, 0.0, 5.983728287975282)",2
2024/05/14/15:15:59.792091,43782,1715714159,791936902,gps,0,0,34.81514462101945,-82.32673921453795,281.88638992700726,"(0.9178907773747689, 0.0, 0.0, 0.0, 1.9346542549229184, 0.0, 0.0, 0.0, 5.983728287975282)",2
2024/05/14/15:15:59.819149,43783,1715714159,819026859,gps,0,0,34.81514462101945,-82.32673921453795,281.88638992700726,"(0.9178907773747689, 0.0, 0.0, 0.0, 1.9346542549229184, 0.0, 0.0, 0.0, 5.983728287975282)",2
2024/05/14/15:15:59.831518,43784,1715714159,831394032,gps,0,0,34.81514462101945,-82.32673921453795,281.88638992700726,"(0.9178907773747689, 0.0, 0.0, 0.0, 1.9346542549229184, 0.0, 0.0, 0.0, 5.983728287975282)",2
2024/05/14/15:15:59.894136,43785,1715714159,894010442,gps,0,0,34.81514462101945,-82.32673921453795,281.88638992700726,"(0.9178907773747689, 0.0, 0.0, 0.0, 1.9346542549229184, 0.0, 0.0, 0.0, 5.983728287975282)",2
2024/05/14/15:15:59.912379,43786,1715714159,912248848,gps,0,0,34.815144600880494,-82.32673920407909,281.88455927558243,"(0.9177299761931046, 0.0, 0.0, 0.0, 1.934489442890154, 0.0, 0.0, 0.0, 5.983662968473254)",2
2024/05/14/15:15:59.933364,43787,1715714159,933244960,gps,0,0,34.815144600880494,-82.32673920407909,281.88455927558243,"(0.9177299761931046, 0.0, 0.0, 0.0, 1.934489442890154, 0.0, 0.0, 0.0, 5.983662968473254)",2
2024/05/14/15:15:59.939258,43788,1715714159,939132176,gps,0,0,34.815144600880494,-82.32673920407909,281.88455927558243,"(0.9177299761931046, 0.0, 0.0, 0.0, 1.934489442890154, 0.0, 0.0, 0.0, 5.983662968473254)",2
2024/05/14/15:15:59.974842,43789,1715714159,974360921,gps,0,0,34.815144600880494,-82.32673920407909,281.88455927558243,"(0.9177299761931046, 0.0, 0.0, 0.0, 1.934489442890154, 0.0, 0.0, 0.0, 5.983662968473254)",2
2024/05/14/15:15:59.983485,43790,1715714159,981920373,gps,0,0,34.815144600880494,-82.32673920407909,281.88455927558243,"(0.9177299761931046, 0.0, 0.0, 0.0, 1.934489442890154, 0.0, 0.0, 0.0, 5.983662968473254)",2
2024/05/14/15:15:59.999173,43791,1715714159,999067288,gps,0,0,34.81514461342554,-82.32673910620787,281.8929693996906,"(0.9176355349065943, 0.0, 0.0, 0.0, 1.9343800142315928, 0.0, 0.0, 0.0, 5.98340052763939)",2
2024/05/14/15:16:00.011361,43792,1715714160,11209624,gps,0,0,34.81514461342554,-82.32673910620787,281.8929693996906,"(0.9176355349065943, 0.0, 0.0, 0.0, 1.9343800142315928, 0.0, 0.0, 0.0, 5.98340052763939)",2
2024/05/14/15:16:00.034518,43793,1715714160,34391935,gps,0,0,34.81514461342554,-82.32673910620787,281.8929693996906,"(0.9176355349065943, 0.0, 0.0, 0.0, 1.9343800142315928, 0.0, 0.0, 0.0, 5.98340052763939)",2
2024/05/14/15:16:00.039465,43794,1715714160,39341486,gps,0,0,34.81514461342554,-82.32673910620787,281.8929693996906,"(0.9176355349065943, 0.0, 0.0, 0.0, 1.9343800142315928, 0.0, 0.0, 0.0, 5.98340052763939)",2
2024/05/14/15:16:00.063062,43795,1715714160,62868324,gps,0,0,34.81514461342554,-82.32673910620787,281.8929693996906,"(0.9176355349065943, 0.0, 0.0, 0.0, 1.9343800142315928, 0.0, 0.0, 0.0, 5.98340052763939)",2
2024/05/14/15:16:00.071605,43796,1715714160,71469148,gps,0,0,34.815144598178144,-82.32673908669126,281.889475395903,"(0.9174550022723658, 0.0, 0.0, 0.0, 1.9341933294526825, 0.0, 0.0, 0.0, 5.983163752625842)",2
2024/05/14/15:16:00.092461,43797,1715714160,92319322,gps,0,0,34.815144598178144,-82.32673908669126,281.889475395903,"(0.9174550022723658, 0.0, 0.0, 0.0, 1.9341933294526825, 0.0, 0.0, 0.0, 5.983163752625842)",2
2024/05/14/15:16:00.111184,43798,1715714160,111093689,gps,0,0,34.815144598178144,-82.32673908669126,281.889475395903,"(0.9174550022723658, 0.0, 0.0, 0.0, 1.9341933294526825, 0.0, 0.0, 0.0, 5.983163752625842)",2
2024/05/14/15:16:00.131958,43799,1715714160,131837435,gps,0,0,34.815144598178144,-82.32673908669126,281.889475395903,"(0.9174550022723658, 0.0, 0.0, 0.0, 1.9341933294526825, 0.0, 0.0, 0.0, 5.983163752625842)",2
2024/05/14/15:16:00.154727,43800,1715714160,154630468,gps,0,0,34.815144598178144,-82.32673908669126,281.889475395903,"(0.9174550022723658, 0.0, 0.0, 0.0, 1.9341933294526825, 0.0, 0.0, 0.0, 5.983163752625842)",2
2024/05/14/15:16:00.171832,43801,1715714160,171634031,gps,0,0,34.81514458480082,-82.32673907617311,281.894147740677,"(0.9172966369078495, 0.0, 0.0, 0.0, 1.9341147454816934, 0.0, 0.0, 0.0, 5.982936313058929)",2
2024/05/14/15:16:00.191251,43802,1715714160,191147780,gps,0,0,34.81514458480082,-82.32673907617311,281.894147740677,"(0.9172966369078495, 0.0, 0.0, 0.0, 1.9341147454816934, 0.0, 0.0, 0.0, 5.982936313058929)",2
2024/05/14/15:16:00.212519,43803,1715714160,212415906,gps,0,0,34.81514458480082,-82.32673907617311,281.894147740677,"(0.9172966369078495, 0.0, 0.0, 0.0, 1.9341147454816934, 0.0, 0.0, 0.0, 5.982936313058929)",2
2024/05/14/15:16:00.231354,43804,1715714160,231192385,gps,0,0,34.81514458480082,-82.32673907617311,281.894147740677,"(0.9172966369078495, 0.0, 0.0, 0.0, 1.9341147454816934, 0.0, 0.0, 0.0, 5.982936313058929)",2
2024/05/14/15:16:00.256641,43805,1715714160,256480310,gps,0,0,34.81514458480082,-82.32673907617311,281.894147740677,"(0.9172966369078495, 0.0, 0.0, 0.0, 1.9341147454816934, 0.0, 0.0, 0.0, 5.982936313058929)",2
2024/05/14/15:16:00.272446,43806,1715714160,272268496,gps,0,0,34.81514461150106,-82.32673907702805,281.8928688103333,"(0.9172611293186641, 0.0, 0.0, 0.0, 1.9340975036425476, 0.0, 0.0, 0.0, 5.983036619206871)",2
2024/05/14/15:16:00.291838,43807,1715714160,291681527,gps,0,0,34.81514461150106,-82.32673907702805,281.8928688103333,"(0.9172611293186641, 0.0, 0.0, 0.0, 1.9340975036425476, 0.0, 0.0, 0.0, 5.983036619206871)",2
2024/05/14/15:16:00.311314,43808,1715714160,311153284,gps,0,0,34.81514461150106,-82.32673907702805,281.8928688103333,"(0.9172611293186641, 0.0, 0.0, 0.0, 1.9340975036425476, 0.0, 0.0, 0.0, 5.983036619206871)",2
2024/05/14/15:16:00.332303,43809,1715714160,332141745,gps,0,0,34.81514461150106,-82.32673907702805,281.8928688103333,"(0.9172611293186641, 0.0, 0.0, 0.0, 1.9340975036425476, 0.0, 0.0, 0.0, 5.983036619206871)",2
2024/05/14/15:16:00.360784,43810,1715714160,360593658,gps,0,0,34.81514461150106,-82.32673907702805,281.8928688103333,"(0.9172611293186641, 0.0, 0.0, 0.0, 1.9340975036425476, 0.0, 0.0, 0.0, 5.983036619206871)",2
2024/05/14/15:16:00.372770,43811,1715714160,371874335,gps,0,0,34.815144647113534,-82.32673912645521,281.90214413776994,"(0.9171620313871678, 0.0, 0.0, 0.0, 1.9340471048610794, 0.0, 0.0, 0.0, 5.982865166184638)",2
2024/05/14/15:16:00.392404,43812,1715714160,392227075,gps,0,0,34.815144647113534,-82.32673912645521,281.90214413776994,"(0.9171620313871678, 0.0, 0.0, 0.0, 1.9340471048610794, 0.0, 0.0, 0.0, 5.982865166184638)",2
2024/05/14/15:16:00.414188,43813,1715714160,414092543,gps,0,0,34.815144647113534,-82.32673912645521,281.90214413776994,"(0.9171620313871678, 0.0, 0.0, 0.0, 1.9340471048610794, 0.0, 0.0, 0.0, 5.982865166184638)",2
2024/05/14/15:16:00.431704,43814,1715714160,431599601,gps,0,0,34.815144647113534,-82.32673912645521,281.90214413776994,"(0.9171620313871678, 0.0, 0.0, 0.0, 1.9340471048610794, 0.0, 0.0, 0.0, 5.982865166184638)",2
2024/05/14/15:16:00.463150,43815,1715714160,463035793,gps,0,0,34.815144647113534,-82.32673912645521,281.90214413776994,"(0.9171620313871678, 0.0, 0.0, 0.0, 1.9340471048610794, 0.0, 0.0, 0.0, 5.982865166184638)",2
2024/05/14/15:16:00.471771,43816,1715714160,471624207,gps,0,0,34.8151446368294,-82.32673912568764,281.911733741872,"(0.9170508380084961, 0.0, 0.0, 0.0, 1.9340573835066266, 0.0, 0.0, 0.0, 5.982778857429594)",2
2024/05/14/15:16:00.492576,43817,1715714160,492434427,gps,0,0,34.8151446368294,-82.32673912568764,281.911733741872,"(0.9170508380084961, 0.0, 0.0, 0.0, 1.9340573835066266, 0.0, 0.0, 0.0, 5.982778857429594)",2
2024/05/14/15:16:00.512895,43818,1715714160,512722625,gps,0,0,34.8151446368294,-82.32673912568764,281.911733741872,"(0.9170508380084961, 0.0, 0.0, 0.0, 1.9340573835066266, 0.0, 0.0, 0.0, 5.982778857429594)",2
2024/05/14/15:16:00.531851,43819,1715714160,531760100,gps,0,0,34.8151446368294,-82.32673912568764,281.911733741872,"(0.9170508380084961, 0.0, 0.0, 0.0, 1.9340573835066266, 0.0, 0.0, 0.0, 5.982778857429594)",2
2024/05/14/15:16:00.558708,43820,1715714160,558612060,gps,0,0,34.8151446368294,-82.32673912568764,281.911733741872,"(0.9170508380084961, 0.0, 0.0, 0.0, 1.9340573835066266, 0.0, 0.0, 0.0, 5.982778857429594)",2
2024/05/14/15:16:00.572290,43821,1715714160,572105713,gps,0,0,34.81514463169948,-82.32673911969553,281.9069797284901,"(0.9169812028776256, 0.0, 0.0, 0.0, 1.9341389505009374, 0.0, 0.0, 0.0, 5.983057613623316)",2
2024/05/14/15:16:00.591207,43822,1715714160,591090637,gps,0,0,34.81514463169948,-82.32673911969553,281.9069797284901,"(0.9169812028776256, 0.0, 0.0, 0.0, 1.9341389505009374, 0.0, 0.0, 0.0, 5.983057613623316)",2
2024/05/14/15:16:00.612376,43823,1715714160,612067292,gps,0,0,34.81514463169948,-82.32673911969553,281.9069797284901,"(0.9169812028776256, 0.0, 0.0, 0.0, 1.9341389505009374, 0.0, 0.0, 0.0, 5.983057613623316)",2
2024/05/14/15:16:00.631857,43824,1715714160,631732816,gps,0,0,34.81514463169948,-82.32673911969553,281.9069797284901,"(0.9169812028776256, 0.0, 0.0, 0.0, 1.9341389505009374, 0.0, 0.0, 0.0, 5.983057613623316)",2
2024/05/14/15:16:00.660379,43825,1715714160,660257717,gps,0,0,34.81514463169948,-82.32673911969553,281.9069797284901,"(0.9169812028776256, 0.0, 0.0, 0.0, 1.9341389505009374, 0.0, 0.0, 0.0, 5.983057613623316)",2
2024/05/14/15:16:00.671659,43826,1715714160,671519136,gps,0,0,34.815144659766524,-82.32673912959963,281.90726638771594,"(0.9171181925356429, 0.0, 0.0, 0.0, 1.9343584604667399, 0.0, 0.0, 0.0, 5.983178915417341)",2
2024/05/14/15:16:00.692004,43827,1715714160,691857552,gps,0,0,34.815144659766524,-82.32673912959963,281.90726638771594,"(0.9171181925356429, 0.0, 0.0, 0.0, 1.9343584604667399, 0.0, 0.0, 0.0, 5.983178915417341)",2
2024/05/14/15:16:00.711625,43828,1715714160,711478898,gps,0,0,34.815144659766524,-82.32673912959963,281.90726638771594,"(0.9171181925356429, 0.0, 0.0, 0.0, 1.9343584604667399, 0.0, 0.0, 0.0, 5.983178915417341)",2
2024/05/14/15:16:00.731967,43829,1715714160,731825264,gps,0,0,34.815144659766524,-82.32673912959963,281.90726638771594,"(0.9171181925356429, 0.0, 0.0, 0.0, 1.9343584604667399, 0.0, 0.0, 0.0, 5.983178915417341)",2
2024/05/14/15:16:00.752714,43830,1715714160,752576305,gps,0,0,34.815144659766524,-82.32673912959963,281.90726638771594,"(0.9171181925356429, 0.0, 0.0, 0.0, 1.9343584604667399, 0.0, 0.0, 0.0, 5.983178915417341)",2
2024/05/14/15:16:00.771847,43831,1715714160,771700778,gps,0,0,34.81514466643577,-82.3267391426884,281.91210893634707,"(0.9172530231808338, 0.0, 0.0, 0.0, 1.9345740035189465, 0.0, 0.0, 0.0, 5.983388863735911)",2
2024/05/14/15:16:00.791552,43832,1715714160,791416226,gps,0,0,34.81514466643577,-82.3267391426884,281.91210893634707,"(0.9172530231808338, 0.0, 0.0, 0.0, 1.9345740035189465, 0.0, 0.0, 0.0, 5.983388863735911)",2
2024/05/14/15:16:00.812801,43833,1715714160,812662679,gps,0,0,34.81514466643577,-82.3267391426884,281.91210893634707,"(0.9172530231808338, 0.0, 0.0, 0.0, 1.9345740035189465, 0.0, 0.0, 0.0, 5.983388863735911)",2
2024/05/14/15:16:00.831397,43834,1715714160,831273024,gps,0,0,34.81514466643577,-82.3267391426884,281.91210893634707,"(0.9172530231808338, 0.0, 0.0, 0.0, 1.9345740035189465, 0.0, 0.0, 0.0, 5.983388863735911)",2
2024/05/14/15:16:00.892029,43835,1715714160,891897107,gps,0,0,34.81514466643577,-82.3267391426884,281.91210893634707,"(0.9172530231808338, 0.0, 0.0, 0.0, 1.9345740035189465, 0.0, 0.0, 0.0, 5.983388863735911)",2
2024/05/14/15:16:00.908090,43836,1715714160,907986605,gps,0,0,34.81514467885284,-82.3267391430643,281.91446636617184,"(0.9171583781095229, 0.0, 0.0, 0.0, 1.9345368629367385, 0.0, 0.0, 0.0, 5.983401694030363)",2
2024/05/14/15:16:00.927940,43837,1715714160,927848314,gps,0,0,34.81514467885284,-82.3267391430643,281.91446636617184,"(0.9171583781095229, 0.0, 0.0, 0.0, 1.9345368629367385, 0.0, 0.0, 0.0, 5.983401694030363)",2
2024/05/14/15:16:00.933310,43838,1715714160,933206681,gps,0,0,34.81514467885284,-82.3267391430643,281.91446636617184,"(0.9171583781095229, 0.0, 0.0, 0.0, 1.9345368629367385, 0.0, 0.0, 0.0, 5.983401694030363)",2
2024/05/14/15:16:00.939478,43839,1715714160,939367365,gps,0,0,34.81514467885284,-82.3267391430643,281.91446636617184,"(0.9171583781095229, 0.0, 0.0, 0.0, 1.9345368629367385, 0.0, 0.0, 0.0, 5.983401694030363)",2
2024/05/14/15:16:00.955742,43840,1715714160,955576752,gps,0,0,34.81514467885284,-82.3267391430643,281.91446636617184,"(0.9171583781095229, 0.0, 0.0, 0.0, 1.9345368629367385, 0.0, 0.0, 0.0, 5.983401694030363)",2
2024/05/14/15:16:00.976870,43841,1715714160,976672939,gps,0,0,34.815144673423795,-82.32673917481297,281.9092463264242,"(0.9173157039676347, 0.0, 0.0, 0.0, 1.9346804530556625, 0.0, 0.0, 0.0, 5.983634974510096)",2
2024/05/14/15:16:00.991307,43842,1715714160,991144117,gps,0,0,34.815144673423795,-82.32673917481297,281.9092463264242,"(0.9173157039676347, 0.0, 0.0, 0.0, 1.9346804530556625, 0.0, 0.0, 0.0, 5.983634974510096)",2
2024/05/14/15:16:01.012240,43843,1715714161,12107376,gps,0,0,34.815144673423795,-82.32673917481297,281.9092463264242,"(0.9173157039676347, 0.0, 0.0, 0.0, 1.9346804530556625, 0.0, 0.0, 0.0, 5.983634974510096)",2
2024/05/14/15:16:01.048591,43844,1715714161,48486936,gps,0,0,34.815144673423795,-82.32673917481297,281.9092463264242,"(0.9173157039676347, 0.0, 0.0, 0.0, 1.9346804530556625, 0.0, 0.0, 0.0, 5.983634974510096)",2
2024/05/14/15:16:01.066464,43845,1715714161,66360600,gps,0,0,34.815144673423795,-82.32673917481297,281.9092463264242,"(0.9173157039676347, 0.0, 0.0, 0.0, 1.9346804530556625, 0.0, 0.0, 0.0, 5.983634974510096)",2
2024/05/14/15:16:01.072916,43846,1715714161,72793379,gps,0,0,34.81514467855809,-82.32673915675716,281.9096121909097,"(0.9172183156154148, 0.0, 0.0, 0.0, 1.9345106657762159, 0.0, 0.0, 0.0, 5.983371367902009)",2
2024/05/14/15:16:01.091916,43847,1715714161,91780456,gps,0,0,34.81514467855809,-82.32673915675716,281.9096121909097,"(0.9172183156154148, 0.0, 0.0, 0.0, 1.9345106657762159, 0.0, 0.0, 0.0, 5.983371367902009)",2
2024/05/14/15:16:01.111305,43848,1715714161,111200806,gps,0,0,34.81514467855809,-82.32673915675716,281.9096121909097,"(0.9172183156154148, 0.0, 0.0, 0.0, 1.9345106657762159, 0.0, 0.0, 0.0, 5.983371367902009)",2
2024/05/14/15:16:01.131652,43849,1715714161,131540808,gps,0,0,34.81514467855809,-82.32673915675716,281.9096121909097,"(0.9172183156154148, 0.0, 0.0, 0.0, 1.9345106657762159, 0.0, 0.0, 0.0, 5.983371367902009)",2
2024/05/14/15:16:01.154659,43850,1715714161,154490178,gps,0,0,34.81514467855809,-82.32673915675716,281.9096121909097,"(0.9172183156154148, 0.0, 0.0, 0.0, 1.9345106657762159, 0.0, 0.0, 0.0, 5.983371367902009)",2
2024/05/14/15:16:01.171685,43851,1715714161,171551707,gps,0,0,34.81514469695669,-82.32673918209379,281.90846021845937,"(0.9172397794270779, 0.0, 0.0, 0.0, 1.934259977869047, 0.0, 0.0, 0.0, 5.983281556357326)",2
2024/05/14/15:16:01.191243,43852,1715714161,191108127,gps,0,0,34.81514469695669,-82.32673918209379,281.90846021845937,"(0.9172397794270779, 0.0, 0.0, 0.0, 1.934259977869047, 0.0, 0.0, 0.0, 5.983281556357326)",2
2024/05/14/15:16:01.215169,43853,1715714161,215044227,gps,0,0,34.81514469695669,-82.32673918209379,281.90846021845937,"(0.9172397794270779, 0.0, 0.0, 0.0, 1.934259977869047, 0.0, 0.0, 0.0, 5.983281556357326)",2
2024/05/14/15:16:01.231318,43854,1715714161,231207643,gps,0,0,34.81514469695669,-82.32673918209379,281.90846021845937,"(0.9172397794270779, 0.0, 0.0, 0.0, 1.934259977869047, 0.0, 0.0, 0.0, 5.983281556357326)",2
2024/05/14/15:16:01.258630,43855,1715714161,258542176,gps,0,0,34.81514469695669,-82.32673918209379,281.90846021845937,"(0.9172397794270779, 0.0, 0.0, 0.0, 1.934259977869047, 0.0, 0.0, 0.0, 5.983281556357326)",2
2024/05/14/15:16:01.271748,43856,1715714161,271578922,gps,0,0,34.81514467786086,-82.32673913526506,281.90461155679077,"(0.9170750396894825, 0.0, 0.0, 0.0, 1.9340242266835617, 0.0, 0.0, 0.0, 5.983178915417341)",2
2024/05/14/15:16:01.292289,43857,1715714161,292174396,gps,0,0,34.81514467786086,-82.32673913526506,281.90461155679077,"(0.9170750396894825, 0.0, 0.0, 0.0, 1.9340242266835617, 0.0, 0.0, 0.0, 5.983178915417341)",2
2024/05/14/15:16:01.311172,43858,1715714161,311079988,gps,0,0,34.81514467786086,-82.32673913526506,281.90461155679077,"(0.9170750396894825, 0.0, 0.0, 0.0, 1.9340242266835617, 0.0, 0.0, 0.0, 5.983178915417341)",2
2024/05/14/15:16:01.331754,43859,1715714161,331659503,gps,0,0,34.81514467786086,-82.32673913526506,281.90461155679077,"(0.9170750396894825, 0.0, 0.0, 0.0, 1.9340242266835617, 0.0, 0.0, 0.0, 5.983178915417341)",2
2024/05/14/15:16:01.360606,43860,1715714161,360465120,gps,0,0,34.81514467786086,-82.32673913526506,281.90461155679077,"(0.9170750396894825, 0.0, 0.0, 0.0, 1.9340242266835617, 0.0, 0.0, 0.0, 5.983178915417341)",2
2024/05/14/15:16:01.371914,43861,1715714161,371760160,gps,0,0,34.81514468977583,-82.32673914042273,281.9081737548113,"(0.9171908012028815, 0.0, 0.0, 0.0, 1.9342079190575987, 0.0, 0.0, 0.0, 5.983327045237274)",2
2024/05/14/15:16:01.392301,43862,1715714161,392110624,gps,0,0,34.81514468977583,-82.32673914042273,281.9081737548113,"(0.9171908012028815, 0.0, 0.0, 0.0, 1.9342079190575987, 0.0, 0.0, 0.0, 5.983327045237274)",2
2024/05/14/15:16:01.419561,43863,1715714161,419391917,gps,0,0,34.81514468977583,-82.32673914042273,281.9081737548113,"(0.9171908012028815, 0.0, 0.0, 0.0, 1.9342079190575987, 0.0, 0.0, 0.0, 5.983327045237274)",2
2024/05/14/15:16:01.432214,43864,1715714161,432112637,gps,0,0,34.81514468977583,-82.32673914042273,281.9081737548113,"(0.9171908012028815, 0.0, 0.0, 0.0, 1.9342079190575987, 0.0, 0.0, 0.0, 5.983327045237274)",2
2024/05/14/15:16:01.463256,43865,1715714161,463118204,gps,0,0,34.81514468977583,-82.32673914042273,281.9081737548113,"(0.9171908012028815, 0.0, 0.0, 0.0, 1.9342079190575987, 0.0, 0.0, 0.0, 5.983327045237274)",2
2024/05/14/15:16:01.471437,43866,1715714161,471321664,gps,0,0,34.81514473919799,-82.32673919467794,281.91161121986806,"(0.9172493697219721, 0.0, 0.0, 0.0, 1.9341067877002303, 0.0, 0.0, 0.0, 5.983366702350622)",2
2024/05/14/15:16:01.491948,43867,1715714161,491777611,gps,0,0,34.81514473919799,-82.32673919467794,281.91161121986806,"(0.9172493697219721, 0.0, 0.0, 0.0, 1.9341067877002303, 0.0, 0.0, 0.0, 5.983366702350622)",2
2024/05/14/15:16:01.512691,43868,1715714161,512574868,gps,0,0,34.81514473919799,-82.32673919467794,281.91161121986806,"(0.9172493697219721, 0.0, 0.0, 0.0, 1.9341067877002303, 0.0, 0.0, 0.0, 5.983366702350622)",2
2024/05/14/15:16:01.531628,43869,1715714161,531513852,gps,0,0,34.81514473919799,-82.32673919467794,281.91161121986806,"(0.9172493697219721, 0.0, 0.0, 0.0, 1.9341067877002303, 0.0, 0.0, 0.0, 5.983366702350622)",2
2024/05/14/15:16:01.555758,43870,1715714161,555624964,gps,0,0,34.81514473919799,-82.32673919467794,281.91161121986806,"(0.9172493697219721, 0.0, 0.0, 0.0, 1.9341067877002303, 0.0, 0.0, 0.0, 5.983366702350622)",2
2024/05/14/15:16:01.572428,43871,1715714161,572212385,gps,0,0,34.8151447717132,-82.32673919989432,281.9087745202705,"(0.9171451350390534, 0.0, 0.0, 0.0, 1.9340315211602501, 0.0, 0.0, 0.0, 5.9831824145258)",2
2024/05/14/15:16:01.591278,43872,1715714161,591136720,gps,0,0,34.8151447717132,-82.32673919989432,281.9087745202705,"(0.9171451350390534, 0.0, 0.0, 0.0, 1.9340315211602501, 0.0, 0.0, 0.0, 5.9831824145258)",2
2024/05/14/15:16:01.618657,43873,1715714161,618555900,gps,0,0,34.8151447717132,-82.32673919989432,281.9087745202705,"(0.9171451350390534, 0.0, 0.0, 0.0, 1.9340315211602501, 0.0, 0.0, 0.0, 5.9831824145258)",2
2024/05/14/15:16:01.632803,43874,1715714161,632631724,gps,0,0,34.8151447717132,-82.32673919989432,281.9087745202705,"(0.9171451350390534, 0.0, 0.0, 0.0, 1.9340315211602501, 0.0, 0.0, 0.0, 5.9831824145258)",2
2024/05/14/15:16:01.660447,43875,1715714161,660324546,gps,0,0,34.8151447717132,-82.32673919989432,281.9087745202705,"(0.9171451350390534, 0.0, 0.0, 0.0, 1.9340315211602501, 0.0, 0.0, 0.0, 5.9831824145258)",2
2024/05/14/15:16:01.671664,43876,1715714161,671542440,gps,0,0,34.81514473158799,-82.32673914627712,281.90839792229235,"(0.9170337143705218, 0.0, 0.0, 0.0, 1.9337490360214815, 0.0, 0.0, 0.0, 5.982956140951728)",2
2024/05/14/15:16:01.692380,43877,1715714161,692234727,gps,0,0,34.81514473158799,-82.32673914627712,281.90839792229235,"(0.9170337143705218, 0.0, 0.0, 0.0, 1.9337490360214815, 0.0, 0.0, 0.0, 5.982956140951728)",2
2024/05/14/15:16:01.711412,43878,1715714161,711270415,gps,0,0,34.81514473158799,-82.32673914627712,281.90839792229235,"(0.9170337143705218, 0.0, 0.0, 0.0, 1.9337490360214815, 0.0, 0.0, 0.0, 5.982956140951728)",2
2024/05/14/15:16:01.731909,43879,1715714161,731802316,gps,0,0,34.81514473158799,-82.32673914627712,281.90839792229235,"(0.9170337143705218, 0.0, 0.0, 0.0, 1.9337490360214815, 0.0, 0.0, 0.0, 5.982956140951728)",2
2024/05/14/15:16:01.755699,43880,1715714161,755574416,gps,0,0,34.81514473158799,-82.32673914627712,281.90839792229235,"(0.9170337143705218, 0.0, 0.0, 0.0, 1.9337490360214815, 0.0, 0.0, 0.0, 5.982956140951728)",2
2024/05/14/15:16:01.771710,43881,1715714161,771576901,gps,0,0,34.81514474591637,-82.32673914140503,281.90995179954916,"(0.9168065559029834, 0.0, 0.0, 0.0, 1.9336044858791865, 0.0, 0.0, 0.0, 5.982720541055642)",2
2024/05/14/15:16:01.791436,43882,1715714161,791303053,gps,0,0,34.81514474591637,-82.32673914140503,281.90995179954916,"(0.9168065559029834, 0.0, 0.0, 0.0, 1.9336044858791865, 0.0, 0.0, 0.0, 5.982720541055642)",2
2024/05/14/15:16:01.813269,43883,1715714161,813164841,gps,0,0,34.81514474591637,-82.32673914140503,281.90995179954916,"(0.9168065559029834, 0.0, 0.0, 0.0, 1.9336044858791865, 0.0, 0.0, 0.0, 5.982720541055642)",2
2024/05/14/15:16:01.832650,43884,1715714161,832532781,gps,0,0,34.81514474591637,-82.32673914140503,281.90995179954916,"(0.9168065559029834, 0.0, 0.0, 0.0, 1.9336044858791865, 0.0, 0.0, 0.0, 5.982720541055642)",2
2024/05/14/15:16:01.899471,43885,1715714161,898313531,gps,0,0,34.81514474591637,-82.32673914140503,281.90995179954916,"(0.9168065559029834, 0.0, 0.0, 0.0, 1.9336044858791865, 0.0, 0.0, 0.0, 5.982720541055642)",2
2024/05/14/15:16:01.912185,43886,1715714161,912027113,gps,0,0,34.81514480477553,-82.3267391783066,281.908869208768,"(0.9169480985787324, 0.0, 0.0, 0.0, 1.9336860433227798, 0.0, 0.0, 0.0, 5.983005127651268)",2
2024/05/14/15:16:01.933168,43887,1715714161,933051547,gps,0,0,34.81514480477553,-82.3267391783066,281.908869208768,"(0.9169480985787324, 0.0, 0.0, 0.0, 1.9336860433227798, 0.0, 0.0, 0.0, 5.983005127651268)",2
2024/05/14/15:16:01.942283,43888,1715714161,942175399,gps,0,0,34.81514480477553,-82.3267391783066,281.908869208768,"(0.9169480985787324, 0.0, 0.0, 0.0, 1.9336860433227798, 0.0, 0.0, 0.0, 5.983005127651268)",2
2024/05/14/15:16:01.948751,43889,1715714161,948651977,gps,0,0,34.81514480477553,-82.3267391783066,281.908869208768,"(0.9169480985787324, 0.0, 0.0, 0.0, 1.9336860433227798, 0.0, 0.0, 0.0, 5.983005127651268)",2
2024/05/14/15:16:01.965603,43890,1715714161,965449749,gps,0,0,34.81514480477553,-82.3267391783066,281.908869208768,"(0.9169480985787324, 0.0, 0.0, 0.0, 1.9336860433227798, 0.0, 0.0, 0.0, 5.983005127651268)",2
2024/05/14/15:16:01.975454,43891,1715714161,975317369,gps,0,0,34.815144794960545,-82.32673914029023,281.91130929626524,"(0.9167898911133001, 0.0, 0.0, 0.0, 1.9335656969668804, 0.0, 0.0, 0.0, 5.982943311134989)",2
2024/05/14/15:16:01.991606,43892,1715714161,991444713,gps,0,0,34.815144794960545,-82.32673914029023,281.91130929626524,"(0.9167898911133001, 0.0, 0.0, 0.0, 1.9335656969668804, 0.0, 0.0, 0.0, 5.982943311134989)",2
2024/05/14/15:16:02.013379,43893,1715714162,13244173,gps,0,0,34.815144794960545,-82.32673914029023,281.91130929626524,"(0.9167898911133001, 0.0, 0.0, 0.0, 1.9335656969668804, 0.0, 0.0, 0.0, 5.982943311134989)",2
2024/05/14/15:16:02.037780,43894,1715714162,37692866,gps,0,0,34.815144794960545,-82.32673914029023,281.91130929626524,"(0.9167898911133001, 0.0, 0.0, 0.0, 1.9335656969668804, 0.0, 0.0, 0.0, 5.982943311134989)",2
2024/05/14/15:16:02.069246,43895,1715714162,69145930,gps,0,0,34.815144794960545,-82.32673914029023,281.91130929626524,"(0.9167898911133001, 0.0, 0.0, 0.0, 1.9335656969668804, 0.0, 0.0, 0.0, 5.982943311134989)",2
2024/05/14/15:16:02.082713,43896,1715714162,82386741,gps,0,0,34.81514477633672,-82.32673912343759,281.91200708877295,"(0.9166247352568604, 0.0, 0.0, 0.0, 1.9335534304687485, 0.0, 0.0, 0.0, 5.982654060736024)",2
2024/05/14/15:16:02.094509,43897,1715714162,91787451,gps,0,0,34.81514477633672,-82.32673912343759,281.91200708877295,"(0.9166247352568604, 0.0, 0.0, 0.0, 1.9335534304687485, 0.0, 0.0, 0.0, 5.982654060736024)",2
2024/05/14/15:16:02.111373,43898,1715714162,111225391,gps,0,0,34.81514477633672,-82.32673912343759,281.91200708877295,"(0.9166247352568604, 0.0, 0.0, 0.0, 1.9335534304687485, 0.0, 0.0, 0.0, 5.982654060736024)",2
2024/05/14/15:16:02.132476,43899,1715714162,132335265,gps,0,0,34.81514477633672,-82.32673912343759,281.91200708877295,"(0.9166247352568604, 0.0, 0.0, 0.0, 1.9335534304687485, 0.0, 0.0, 0.0, 5.982654060736024)",2
2024/05/14/15:16:02.155344,43900,1715714162,155125323,gps,0,0,34.81514477633672,-82.32673912343759,281.91200708877295,"(0.9166247352568604, 0.0, 0.0, 0.0, 1.9335534304687485, 0.0, 0.0, 0.0, 5.982654060736024)",2
2024/05/14/15:16:02.172114,43901,1715714162,171994986,gps,0,0,34.81514478803957,-82.32673914646801,281.91351333539933,"(0.9167798466556896, 0.0, 0.0, 0.0, 1.9337463836766347, 0.0, 0.0, 0.0, 5.982940978442514)",2
2024/05/14/15:16:02.191282,43902,1715714162,191156160,gps,0,0,34.81514478803957,-82.32673914646801,281.91351333539933,"(0.9167798466556896, 0.0, 0.0, 0.0, 1.9337463836766347, 0.0, 0.0, 0.0, 5.982940978442514)",2
2024/05/14/15:16:02.213203,43903,1715714162,213071130,gps,0,0,34.81514478803957,-82.32673914646801,281.91351333539933,"(0.9167798466556896, 0.0, 0.0, 0.0, 1.9337463836766347, 0.0, 0.0, 0.0, 5.982940978442514)",2
2024/05/14/15:16:02.231365,43904,1715714162,231250815,gps,0,0,34.81514478803957,-82.32673914646801,281.91351333539933,"(0.9167798466556896, 0.0, 0.0, 0.0, 1.9337463836766347, 0.0, 0.0, 0.0, 5.982940978442514)",2
2024/05/14/15:16:02.256541,43905,1715714162,256433364,gps,0,0,34.81514478803957,-82.32673914646801,281.91351333539933,"(0.9167798466556896, 0.0, 0.0, 0.0, 1.9337463836766347, 0.0, 0.0, 0.0, 5.982940978442514)",2
2024/05/14/15:16:02.272350,43906,1715714162,272220567,gps,0,0,34.81514477278964,-82.3267391188282,281.91261145379394,"(0.9166572630499594, 0.0, 0.0, 0.0, 1.9337433997908562, 0.0, 0.0, 0.0, 5.9828733305585615)",2
2024/05/14/15:16:02.291620,43907,1715714162,291495489,gps,0,0,34.81514477278964,-82.3267391188282,281.91261145379394,"(0.9166572630499594, 0.0, 0.0, 0.0, 1.9337433997908562, 0.0, 0.0, 0.0, 5.9828733305585615)",2
2024/05/14/15:16:02.311268,43908,1715714162,311105934,gps,0,0,34.81514477278964,-82.3267391188282,281.91261145379394,"(0.9166572630499594, 0.0, 0.0, 0.0, 1.9337433997908562, 0.0, 0.0, 0.0, 5.9828733305585615)",2
2024/05/14/15:16:02.331561,43909,1715714162,331481379,gps,0,0,34.81514477278964,-82.3267391188282,281.91261145379394,"(0.9166572630499594, 0.0, 0.0, 0.0, 1.9337433997908562, 0.0, 0.0, 0.0, 5.9828733305585615)",2
2024/05/14/15:16:02.359621,43910,1715714162,359528341,gps,0,0,34.81514477278964,-82.3267391188282,281.91261145379394,"(0.9166572630499594, 0.0, 0.0, 0.0, 1.9337433997908562, 0.0, 0.0, 0.0, 5.9828733305585615)",2
2024/05/14/15:16:02.371660,43911,1715714162,371562395,gps,0,0,34.81514477358165,-82.32673910809145,281.90954305883497,"(0.916362936074222, 0.0, 0.0, 0.0, 1.9335643708570984, 0.0, 0.0, 0.0, 5.982551425178428)",2
2024/05/14/15:16:02.391753,43912,1715714162,391643876,gps,0,0,34.81514477358165,-82.32673910809145,281.90954305883497,"(0.916362936074222, 0.0, 0.0, 0.0, 1.9335643708570984, 0.0, 0.0, 0.0, 5.982551425178428)",2
2024/05/14/15:16:02.412693,43913,1715714162,412579233,gps,0,0,34.81514477358165,-82.32673910809145,281.90954305883497,"(0.916362936074222, 0.0, 0.0, 0.0, 1.9335643708570984, 0.0, 0.0, 0.0, 5.982551425178428)",2
2024/05/14/15:16:02.431259,43914,1715714162,431102087,gps,0,0,34.81514477358165,-82.32673910809145,281.90954305883497,"(0.916362936074222, 0.0, 0.0, 0.0, 1.9335643708570984, 0.0, 0.0, 0.0, 5.982551425178428)",2
2024/05/14/15:16:02.460602,43915,1715714162,460464944,gps,0,0,34.81514477358165,-82.32673910809145,281.90954305883497,"(0.916362936074222, 0.0, 0.0, 0.0, 1.9335643708570984, 0.0, 0.0, 0.0, 5.982551425178428)",2
2024/05/14/15:16:02.471307,43916,1715714162,471169776,gps,0,0,34.8151447929563,-82.32673911230115,281.905817175284,"(0.9162757540625535, 0.0, 0.0, 0.0, 1.9334430337364807, 0.0, 0.0, 0.0, 5.9823951409067035)",2
2024/05/14/15:16:02.491727,43917,1715714162,491597708,gps,0,0,34.8151447929563,-82.32673911230115,281.905817175284,"(0.9162757540625535, 0.0, 0.0, 0.0, 1.9334430337364807, 0.0, 0.0, 0.0, 5.9823951409067035)",2
2024/05/14/15:16:02.512297,43918,1715714162,512140749,gps,0,0,34.8151447929563,-82.32673911230115,281.905817175284,"(0.9162757540625535, 0.0, 0.0, 0.0, 1.9334430337364807, 0.0, 0.0, 0.0, 5.9823951409067035)",2
2024/05/14/15:16:02.531830,43919,1715714162,531723028,gps,0,0,34.8151447929563,-82.32673911230115,281.905817175284,"(0.9162757540625535, 0.0, 0.0, 0.0, 1.9334430337364807, 0.0, 0.0, 0.0, 5.9823951409067035)",2
2024/05/14/15:16:02.555269,43920,1715714162,555158977,gps,0,0,34.8151447929563,-82.32673911230115,281.905817175284,"(0.9162757540625535, 0.0, 0.0, 0.0, 1.9334430337364807, 0.0, 0.0, 0.0, 5.9823951409067035)",2
2024/05/14/15:16:02.573158,43921,1715714162,572032588,gps,0,0,34.815144800754176,-82.32673913530842,281.90895953029394,"(0.9163289300318098, 0.0, 0.0, 0.0, 1.9335849256098214, 0.0, 0.0, 0.0, 5.982540928409662)",2
2024/05/14/15:16:02.591320,43922,1715714162,591191775,gps,0,0,34.815144800754176,-82.32673913530842,281.90895953029394,"(0.9163289300318098, 0.0, 0.0, 0.0, 1.9335849256098214, 0.0, 0.0, 0.0, 5.982540928409662)",2
2024/05/14/15:16:02.615268,43923,1715714162,615167800,gps,0,0,34.815144800754176,-82.32673913530842,281.90895953029394,"(0.9163289300318098, 0.0, 0.0, 0.0, 1.9335849256098214, 0.0, 0.0, 0.0, 5.982540928409662)",2
2024/05/14/15:16:02.632249,43924,1715714162,632135998,gps,0,0,34.815144800754176,-82.32673913530842,281.90895953029394,"(0.9163289300318098, 0.0, 0.0, 0.0, 1.9335849256098214, 0.0, 0.0, 0.0, 5.982540928409662)",2
2024/05/14/15:16:02.659441,43925,1715714162,659277136,gps,0,0,34.815144800754176,-82.32673913530842,281.90895953029394,"(0.9163289300318098, 0.0, 0.0, 0.0, 1.9335849256098214, 0.0, 0.0, 0.0, 5.982540928409662)",2
2024/05/14/15:16:02.671204,43926,1715714162,671091792,gps,0,0,34.815144771380005,-82.32673912406669,281.9164874330163,"(0.9162977773991123, 0.0, 0.0, 0.0, 1.9335733221069518, 0.0, 0.0, 0.0, 5.982776524769179)",2
2024/05/14/15:16:02.691864,43927,1715714162,691731682,gps,0,0,34.815144771380005,-82.32673912406669,281.9164874330163,"(0.9162977773991123, 0.0, 0.0, 0.0, 1.9335733221069518, 0.0, 0.0, 0.0, 5.982776524769179)",2
2024/05/14/15:16:02.711312,43928,1715714162,711171022,gps,0,0,34.815144771380005,-82.32673912406669,281.9164874330163,"(0.9162977773991123, 0.0, 0.0, 0.0, 1.9335733221069518, 0.0, 0.0, 0.0, 5.982776524769179)",2
2024/05/14/15:16:02.731765,43929,1715714162,731651381,gps,0,0,34.815144771380005,-82.32673912406669,281.9164874330163,"(0.9162977773991123, 0.0, 0.0, 0.0, 1.9335733221069518, 0.0, 0.0, 0.0, 5.982776524769179)",2
2024/05/14/15:16:02.754545,43930,1715714162,754430681,gps,0,0,34.815144771380005,-82.32673912406669,281.9164874330163,"(0.9162977773991123, 0.0, 0.0, 0.0, 1.9335733221069518, 0.0, 0.0, 0.0, 5.982776524769179)",2
2024/05/14/15:16:02.771621,43931,1715714162,771442941,gps,0,0,34.81514477760951,-82.32673914116451,281.9171516466886,"(0.9160689986493367, 0.0, 0.0, 0.0, 1.9334138603517346, 0.0, 0.0, 0.0, 5.9823834779832055)",2
2024/05/14/15:16:02.791786,43932,1715714162,791635039,gps,0,0,34.81514477760951,-82.32673914116451,281.9171516466886,"(0.9160689986493367, 0.0, 0.0, 0.0, 1.9334138603517346, 0.0, 0.0, 0.0, 5.9823834779832055)",2
2024/05/14/15:16:02.813189,43933,1715714162,813053008,gps,0,0,34.81514477760951,-82.32673914116451,281.9171516466886,"(0.9160689986493367, 0.0, 0.0, 0.0, 1.9334138603517346, 0.0, 0.0, 0.0, 5.9823834779832055)",2
2024/05/14/15:16:02.831692,43934,1715714162,831576511,gps,0,0,34.81514477760951,-82.32673914116451,281.9171516466886,"(0.9160689986493367, 0.0, 0.0, 0.0, 1.9334138603517346, 0.0, 0.0, 0.0, 5.9823834779832055)",2
2024/05/14/15:16:02.894256,43935,1715714162,894154364,gps,0,0,34.81514477760951,-82.32673914116451,281.9171516466886,"(0.9160689986493367, 0.0, 0.0, 0.0, 1.9334138603517346, 0.0, 0.0, 0.0, 5.9823834779832055)",2
2024/05/14/15:16:02.912145,43936,1715714162,911986691,gps,0,0,34.8151447896861,-82.32673916736071,281.92596017569304,"(0.91602404498623, 0.0, 0.0, 0.0, 1.9334476749770744, 0.0, 0.0, 0.0, 5.982431296041796)",2
2024/05/14/15:16:02.933312,43937,1715714162,933128960,gps,0,0,34.8151447896861,-82.32673916736071,281.92596017569304,"(0.91602404498623, 0.0, 0.0, 0.0, 1.9334476749770744, 0.0, 0.0, 0.0, 5.982431296041796)",2
2024/05/14/15:16:02.940837,43938,1715714162,940671110,gps,0,0,34.8151447896861,-82.32673916736071,281.92596017569304,"(0.91602404498623, 0.0, 0.0, 0.0, 1.9334476749770744, 0.0, 0.0, 0.0, 5.982431296041796)",2
2024/05/14/15:16:02.962509,43939,1715714162,962288432,gps,0,0,34.8151447896861,-82.32673916736071,281.92596017569304,"(0.91602404498623, 0.0, 0.0, 0.0, 1.9334476749770744, 0.0, 0.0, 0.0, 5.982431296041796)",2
2024/05/14/15:16:02.972245,43940,1715714162,972085793,gps,0,0,34.8151447896861,-82.32673916736071,281.92596017569304,"(0.91602404498623, 0.0, 0.0, 0.0, 1.9334476749770744, 0.0, 0.0, 0.0, 5.982431296041796)",2
2024/05/14/15:16:02.981948,43941,1715714162,981816689,gps,0,0,34.81514482299107,-82.32673914104093,281.9305368568748,"(0.9158550792804512, 0.0, 0.0, 0.0, 1.9334294415639306, 0.0, 0.0, 0.0, 5.982257519133839)",2
2024/05/14/15:16:02.992667,43942,1715714162,992527343,gps,0,0,34.81514482299107,-82.32673914104093,281.9305368568748,"(0.9158550792804512, 0.0, 0.0, 0.0, 1.9334294415639306, 0.0, 0.0, 0.0, 5.982257519133839)",2
2024/05/14/15:16:03.012866,43943,1715714163,12717171,gps,0,0,34.81514482299107,-82.32673914104093,281.9305368568748,"(0.9158550792804512, 0.0, 0.0, 0.0, 1.9334294415639306, 0.0, 0.0, 0.0, 5.982257519133839)",2
2024/05/14/15:16:03.064422,43944,1715714163,64277446,gps,0,0,34.81514482299107,-82.32673914104093,281.9305368568748,"(0.9158550792804512, 0.0, 0.0, 0.0, 1.9334294415639306, 0.0, 0.0, 0.0, 5.982257519133839)",2
2024/05/14/15:16:03.074446,43945,1715714163,74338661,gps,0,0,34.81514482299107,-82.32673914104093,281.9305368568748,"(0.9158550792804512, 0.0, 0.0, 0.0, 1.9334294415639306, 0.0, 0.0, 0.0, 5.982257519133839)",2
2024/05/14/15:16:03.086617,43946,1715714163,86322982,gps,0,0,34.81514476450966,-82.32673907410725,281.93461341038346,"(0.9157412273175716, 0.0, 0.0, 0.0, 1.9333631389681614, 0.0, 0.0, 0.0, 5.981802678773477)",2
2024/05/14/15:16:03.095692,43947,1715714163,95272212,gps,0,0,34.81514476450966,-82.32673907410725,281.93461341038346,"(0.9157412273175716, 0.0, 0.0, 0.0, 1.9333631389681614, 0.0, 0.0, 0.0, 5.981802678773477)",2
2024/05/14/15:16:03.111601,43948,1715714163,111485638,gps,0,0,34.81514476450966,-82.32673907410725,281.93461341038346,"(0.9157412273175716, 0.0, 0.0, 0.0, 1.9333631389681614, 0.0, 0.0, 0.0, 5.981802678773477)",2
2024/05/14/15:16:03.132214,43949,1715714163,132138220,gps,0,0,34.81514476450966,-82.32673907410725,281.93461341038346,"(0.9157412273175716, 0.0, 0.0, 0.0, 1.9333631389681614, 0.0, 0.0, 0.0, 5.981802678773477)",2
2024/05/14/15:16:03.156247,43950,1715714163,156110848,gps,0,0,34.81514476450966,-82.32673907410725,281.93461341038346,"(0.9157412273175716, 0.0, 0.0, 0.0, 1.9333631389681614, 0.0, 0.0, 0.0, 5.981802678773477)",2
2024/05/14/15:16:03.171875,43951,1715714163,171741776,gps,0,0,34.81514462837189,-82.3267389608453,281.9327055634931,"(0.9156374205740327, 0.0, 0.0, 0.0, 1.9333624759479449, 0.0, 0.0, 0.0, 5.981462142951898)",2
2024/05/14/15:16:03.192158,43952,1715714163,191032958,gps,0,0,34.81514462837189,-82.3267389608453,281.9327055634931,"(0.9156374205740327, 0.0, 0.0, 0.0, 1.9333624759479449, 0.0, 0.0, 0.0, 5.981462142951898)",2
2024/05/14/15:16:03.218230,43953,1715714163,218132232,gps,0,0,34.81514462837189,-82.3267389608453,281.9327055634931,"(0.9156374205740327, 0.0, 0.0, 0.0, 1.9333624759479449, 0.0, 0.0, 0.0, 5.981462142951898)",2
2024/05/14/15:16:03.232783,43954,1715714163,232626163,gps,0,0,34.81514462837189,-82.3267389608453,281.9327055634931,"(0.9156374205740327, 0.0, 0.0, 0.0, 1.9333624759479449, 0.0, 0.0, 0.0, 5.981462142951898)",2
2024/05/14/15:16:03.261160,43955,1715714163,261045710,gps,0,0,34.81514462837189,-82.3267389608453,281.9327055634931,"(0.9156374205740327, 0.0, 0.0, 0.0, 1.9333624759479449, 0.0, 0.0, 0.0, 5.981462142951898)",2
2024/05/14/15:16:03.271737,43956,1715714163,271603444,gps,0,0,34.81514444888542,-82.3267387984306,281.9274346586317,"(0.9155678391279345, 0.0, 0.0, 0.0, 1.9331466689085488, 0.0, 0.0, 0.0, 5.980672650272027)",2
2024/05/14/15:16:03.293290,43957,1715714163,293142534,gps,0,0,34.81514444888542,-82.3267387984306,281.9274346586317,"(0.9155678391279345, 0.0, 0.0, 0.0, 1.9331466689085488, 0.0, 0.0, 0.0, 5.980672650272027)",2
2024/05/14/15:16:03.312803,43958,1715714163,312677924,gps,0,0,34.81514444888542,-82.3267387984306,281.9274346586317,"(0.9155678391279345, 0.0, 0.0, 0.0, 1.9331466689085488, 0.0, 0.0, 0.0, 5.980672650272027)",2
2024/05/14/15:16:03.332121,43959,1715714163,331977008,gps,0,0,34.81514444888542,-82.3267387984306,281.9274346586317,"(0.9155678391279345, 0.0, 0.0, 0.0, 1.9331466689085488, 0.0, 0.0, 0.0, 5.980672650272027)",2
2024/05/14/15:16:03.361993,43960,1715714163,361887149,gps,0,0,34.81514444888542,-82.3267387984306,281.9274346586317,"(0.9155678391279345, 0.0, 0.0, 0.0, 1.9331466689085488, 0.0, 0.0, 0.0, 5.980672650272027)",2
2024/05/14/15:16:03.373524,43961,1715714163,373376140,gps,0,0,34.81514422815898,-82.32673859872627,281.91323071345687,"(0.9156635428158921, 0.0, 0.0, 0.0, 1.9331208126519783, 0.0, 0.0, 0.0, 5.980747282505035)",2
2024/05/14/15:16:03.392793,43962,1715714163,392657150,gps,0,0,34.81514422815898,-82.32673859872627,281.91323071345687,"(0.9156635428158921, 0.0, 0.0, 0.0, 1.9331208126519783, 0.0, 0.0, 0.0, 5.980747282505035)",2
2024/05/14/15:16:03.412505,43963,1715714163,412375437,gps,0,0,34.81514422815898,-82.32673859872627,281.91323071345687,"(0.9156635428158921, 0.0, 0.0, 0.0, 1.9331208126519783, 0.0, 0.0, 0.0, 5.980747282505035)",2
2024/05/14/15:16:03.433080,43964,1715714163,431096220,gps,0,0,34.81514422815898,-82.32673859872627,281.91323071345687,"(0.9156635428158921, 0.0, 0.0, 0.0, 1.9331208126519783, 0.0, 0.0, 0.0, 5.980747282505035)",2
2024/05/14/15:16:03.461336,43965,1715714163,461222693,gps,0,0,34.81514422815898,-82.32673859872627,281.91323071345687,"(0.9156635428158921, 0.0, 0.0, 0.0, 1.9331208126519783, 0.0, 0.0, 0.0, 5.980747282505035)",2
2024/05/14/15:16:03.471235,43966,1715714163,471094167,gps,0,0,34.81514415868433,-82.3267384718249,281.9521626532078,"(0.9145802959346874, 0.0, 0.0, 0.0, 1.9275309764580584, 0.0, 0.0, 0.0, 5.974271171772273)",2
2024/05/14/15:16:03.491592,43967,1715714163,491495840,gps,0,0,34.81514415868433,-82.3267384718249,281.9521626532078,"(0.9145802959346874, 0.0, 0.0, 0.0, 1.9275309764580584, 0.0, 0.0, 0.0, 5.974271171772273)",2
2024/05/14/15:16:03.512348,43968,1715714163,512188898,gps,0,0,34.81514415868433,-82.3267384718249,281.9521626532078,"(0.9145802959346874, 0.0, 0.0, 0.0, 1.9275309764580584, 0.0, 0.0, 0.0, 5.974271171772273)",2
2024/05/14/15:16:03.531693,43969,1715714163,531577400,gps,0,0,34.81514415868433,-82.3267384718249,281.9521626532078,"(0.9145802959346874, 0.0, 0.0, 0.0, 1.9275309764580584, 0.0, 0.0, 0.0, 5.974271171772273)",2
2024/05/14/15:16:03.554783,43970,1715714163,554659845,gps,0,0,34.81514415868433,-82.3267384718249,281.9521626532078,"(0.9145802959346874, 0.0, 0.0, 0.0, 1.9275309764580584, 0.0, 0.0, 0.0, 5.974271171772273)",2
2024/05/14/15:16:03.572437,43971,1715714163,572321414,gps,0,0,34.815143799901506,-82.32673814376393,281.9537957981229,"(0.9146021848805539, 0.0, 0.0, 0.0, 1.927251614356976, 0.0, 0.0, 0.0, 5.974529915739879)",2
2024/05/14/15:16:03.602475,43972,1715714163,591318259,gps,0,0,34.815143799901506,-82.32673814376393,281.9537957981229,"(0.9146021848805539, 0.0, 0.0, 0.0, 1.927251614356976, 0.0, 0.0, 0.0, 5.974529915739879)",2
2024/05/14/15:16:03.615664,43973,1715714163,615549485,gps,0,0,34.815143799901506,-82.32673814376393,281.9537957981229,"(0.9146021848805539, 0.0, 0.0, 0.0, 1.927251614356976, 0.0, 0.0, 0.0, 5.974529915739879)",2
2024/05/14/15:16:03.631957,43974,1715714163,631851044,gps,0,0,34.815143799901506,-82.32673814376393,281.9537957981229,"(0.9146021848805539, 0.0, 0.0, 0.0, 1.927251614356976, 0.0, 0.0, 0.0, 5.974529915739879)",2
2024/05/14/15:16:03.661817,43975,1715714163,661615855,gps,0,0,34.815143799901506,-82.32673814376393,281.9537957981229,"(0.9146021848805539, 0.0, 0.0, 0.0, 1.927251614356976, 0.0, 0.0, 0.0, 5.974529915739879)",2
2024/05/14/15:16:03.671280,43976,1715714163,671142743,gps,0,0,34.81514346346875,-82.3267378108395,281.9440922969952,"(0.9146875770744032, 0.0, 0.0, 0.0, 1.9271632421731653, 0.0, 0.0, 0.0, 5.978542329631239)",2
2024/05/14/15:16:03.694272,43977,1715714163,692105845,gps,0,0,34.81514346346875,-82.3267378108395,281.9440922969952,"(0.9146875770744032, 0.0, 0.0, 0.0, 1.9271632421731653, 0.0, 0.0, 0.0, 5.978542329631239)",2
2024/05/14/15:16:03.711267,43978,1715714163,711122328,gps,0,0,34.81514346346875,-82.3267378108395,281.9440922969952,"(0.9146875770744032, 0.0, 0.0, 0.0, 1.9271632421731653, 0.0, 0.0, 0.0, 5.978542329631239)",2
2024/05/14/15:16:03.731912,43979,1715714163,731799160,gps,0,0,34.81514346346875,-82.3267378108395,281.9440922969952,"(0.9146875770744032, 0.0, 0.0, 0.0, 1.9271632421731653, 0.0, 0.0, 0.0, 5.978542329631239)",2
2024/05/14/15:16:03.754363,43980,1715714163,754256731,gps,0,0,34.81514346346875,-82.3267378108395,281.9440922969952,"(0.9146875770744032, 0.0, 0.0, 0.0, 1.9271632421731653, 0.0, 0.0, 0.0, 5.978542329631239)",2
2024/05/14/15:16:03.771765,43981,1715714163,771619245,gps,0,0,34.81514299683947,-82.32673739952749,281.95133872237056,"(0.9150308961953932, 0.0, 0.0, 0.0, 1.9276259774251372, 0.0, 0.0, 0.0, 5.9808568994415054)",2
2024/05/14/15:16:03.791964,43982,1715714163,791332619,gps,0,0,34.81514299683947,-82.32673739952749,281.95133872237056,"(0.9150308961953932, 0.0, 0.0, 0.0, 1.9276259774251372, 0.0, 0.0, 0.0, 5.9808568994415054)",2
2024/05/14/15:16:03.815862,43983,1715714163,815725469,gps,0,0,34.81514299683947,-82.32673739952749,281.95133872237056,"(0.9150308961953932, 0.0, 0.0, 0.0, 1.9276259774251372, 0.0, 0.0, 0.0, 5.9808568994415054)",2
2024/05/14/15:16:03.831709,43984,1715714163,831595781,gps,0,0,34.81514299683947,-82.32673739952749,281.95133872237056,"(0.9150308961953932, 0.0, 0.0, 0.0, 1.9276259774251372, 0.0, 0.0, 0.0, 5.9808568994415054)",2
2024/05/14/15:16:03.911444,43985,1715714163,911284107,gps,0,0,34.81514299683947,-82.32673739952749,281.95133872237056,"(0.9150308961953932, 0.0, 0.0, 0.0, 1.9276259774251372, 0.0, 0.0, 0.0, 5.9808568994415054)",2
2024/05/14/15:16:03.934211,43986,1715714163,934127103,gps,0,0,34.8151423930061,-82.32673682405387,281.85174528323114,"(0.919060549982774, 0.0, 0.0, 0.0, 1.9305128715618736, 0.0, 0.0, 0.0, 6.031580427511983)",2
2024/05/14/15:16:03.940527,43987,1715714163,940420481,gps,0,0,34.8151423930061,-82.32673682405387,281.85174528323114,"(0.919060549982774, 0.0, 0.0, 0.0, 1.9305128715618736, 0.0, 0.0, 0.0, 6.031580427511983)",2
2024/05/14/15:16:03.947169,43988,1715714163,947067855,gps,0,0,34.8151423930061,-82.32673682405387,281.85174528323114,"(0.919060549982774, 0.0, 0.0, 0.0, 1.9305128715618736, 0.0, 0.0, 0.0, 6.031580427511983)",2
2024/05/14/15:16:03.959916,43989,1715714163,959796560,gps,0,0,34.8151423930061,-82.32673682405387,281.85174528323114,"(0.919060549982774, 0.0, 0.0, 0.0, 1.9305128715618736, 0.0, 0.0, 0.0, 6.031580427511983)",2
2024/05/14/15:16:03.965268,43990,1715714163,965086766,gps,0,0,34.8151423930061,-82.32673682405387,281.85174528323114,"(0.919060549982774, 0.0, 0.0, 0.0, 1.9305128715618736, 0.0, 0.0, 0.0, 6.031580427511983)",2
2024/05/14/15:16:03.975277,43991,1715714163,975148010,gps,0,0,34.81514214980456,-82.32673651304577,281.9189386293292,"(0.9216804125205869, 0.0, 0.0, 0.0, 1.932659738447967, 0.0, 0.0, 0.0, 6.0322491313220326)",2
2024/05/14/15:16:03.994426,43992,1715714163,994321491,gps,0,0,34.81514214980456,-82.32673651304577,281.9189386293292,"(0.9216804125205869, 0.0, 0.0, 0.0, 1.932659738447967, 0.0, 0.0, 0.0, 6.0322491313220326)",2
2024/05/14/15:16:04.012381,43993,1715714164,12241066,gps,0,0,34.81514214980456,-82.32673651304577,281.9189386293292,"(0.9216804125205869, 0.0, 0.0, 0.0, 1.932659738447967, 0.0, 0.0, 0.0, 6.0322491313220326)",2
2024/05/14/15:16:04.071659,43994,1715714164,71493678,gps,0,0,34.81514214980456,-82.32673651304577,281.9189386293292,"(0.9216804125205869, 0.0, 0.0, 0.0, 1.932659738447967, 0.0, 0.0, 0.0, 6.0322491313220326)",2
2024/05/14/15:16:04.091714,43995,1715714164,91573685,gps,0,0,34.81514214980456,-82.32673651304577,281.9189386293292,"(0.9216804125205869, 0.0, 0.0, 0.0, 1.932659738447967, 0.0, 0.0, 0.0, 6.0322491313220326)",2
2024/05/14/15:16:04.096649,43996,1715714164,96492919,gps,0,0,34.815141469239926,-82.32673593847394,281.9334840523079,"(0.9226723530809444, 0.0, 0.0, 0.0, 1.9380372699585138, 0.0, 0.0, 0.0, 6.039941303352862)",2
2024/05/14/15:16:04.102216,43997,1715714164,102109407,gps,0,0,34.815141469239926,-82.32673593847394,281.9334840523079,"(0.9226723530809444, 0.0, 0.0, 0.0, 1.9380372699585138, 0.0, 0.0, 0.0, 6.039941303352862)",2
2024/05/14/15:16:04.112534,43998,1715714164,112401230,gps,0,0,34.815141469239926,-82.32673593847394,281.9334840523079,"(0.9226723530809444, 0.0, 0.0, 0.0, 1.9380372699585138, 0.0, 0.0, 0.0, 6.039941303352862)",2
2024/05/14/15:16:04.131715,43999,1715714164,131626722,gps,0,0,34.815141469239926,-82.32673593847394,281.9334840523079,"(0.9226723530809444, 0.0, 0.0, 0.0, 1.9380372699585138, 0.0, 0.0, 0.0, 6.039941303352862)",2
2024/05/14/15:16:04.154662,44000,1715714164,154511913,gps,0,0,34.815141469239926,-82.32673593847394,281.9334840523079,"(0.9226723530809444, 0.0, 0.0, 0.0, 1.9380372699585138, 0.0, 0.0, 0.0, 6.039941303352862)",2
2024/05/14/15:16:04.171971,44001,1715714164,171829901,gps,0,0,34.815140949408665,-82.32673526949571,281.9028206830844,"(0.9225910545617388, 0.0, 0.0, 0.0, 1.9374886605219785, 0.0, 0.0, 0.0, 6.040372566175392)",2
