time,.header.seq,.header.stamp.secs,.header.stamp.nsecs,.header.frame_id,.orientation.x,.orientation.y,.orientation.z,.orientation.w,.orientation_covariance,.angular_velocity.x,.angular_velocity.y,.angular_velocity.z,.angular_velocity_covariance,.linear_acceleration.x,.linear_acceleration.y,.linear_acceleration.z,.linear_acceleration_covariance
2024/05/14/15:47:20.889965,275741,1715716040,888276951,gps,0.019396130457136125,-0.011674362485666091,-0.936562545921416,0.3497686334722408,"(0.002725031817626622, 0.0, 0.0, 0.0, 0.0027318494221906797, 0.0, 0.0, 0.0, 0.016400943190358896)",-0.0005575276792482931,-0.0002585711855513495,-9.744373392160297e-05,"(0.001, 0.0, 0.0, 0.0, 0.001, 0.0, 0.0, 0.0, 0.001)",-0.003897186713794245,-0.00986664401286373,-0.012121371842478681,"(0.001, 0.0, 0.0, 0.0, 0.001, 0.0, 0.0, 0.0, 0.001)"
2024/05/14/15:47:20.896372,275742,1715716040,896289794,gps,0.019396130457136125,-0.011674362485666091,-0.936562545921416,0.3497686334722408,"(0.002725031817626622, 0.0, 0.0, 0.0, 0.0027318494221906797, 0.0, 0.0, 0.0, 0.016400943190358896)",0.000331518278177739,0.0006131485634781902,-0.0007505111655352725,"(0.001, 0.0, 0.0, 0.0, 0.001, 0.0, 0.0, 0.0, 0.001)",0.004349736018993591,-0.021593970112372338,0.025309726818240477,"(0.001, 0.0, 0.0, 0.0, 0.001, 0.0, 0.0, 0.0, 0.001)"
2024/05/14/15:47:20.901689,275743,1715716040,901595681,gps,0.01939665489063957,-0.01168466930458955,-0.9365659116190532,0.34975924787697565,"(0.002725031817626622, 0.0, 0.0, 0.0, 0.0027318494221906797, 0.0, 0.0, 0.0, 0.016400943190358896)",-0.00031469527914218775,0.00037410108007170063,-0.0005781519103222396,"(0.001, 0.0, 0.0, 0.0, 0.001, 0.0, 0.0, 0.0, 0.001)",0.0062956033994889015,-0.00506053692695102,-0.010180782850440268,"(0.001, 0.0, 0.0, 0.0, 0.001, 0.0, 0.0, 0.0, 0.001)"
2024/05/14/15:47:20.903164,275744,1715716040,903094414,gps,0.01939665489063957,-0.01168466930458955,-0.9365659116190532,0.34975924787697565,"(0.002725031817626622, 0.0, 0.0, 0.0, 0.0027318494221906797, 0.0, 0.0, 0.0, 0.016400943190358896)",-0.00019067357491858502,-0.00033233033356835933,-0.00028265128520934277,"(0.001, 0.0, 0.0, 0.0, 0.001, 0.0, 0.0, 0.0, 0.001)",0.005958914293147448,-0.008559753232097159,-0.003562608315691342,"(0.001, 0.0, 0.0, 0.0, 0.001, 0.0, 0.0, 0.0, 0.001)"
2024/05/14/15:47:20.911440,275745,1715716040,911368851,gps,0.019385199310945418,-0.01168052243613955,-0.9365658926833891,0.3497600722001587,"(0.002725031817626622, 0.0, 0.0, 0.0, 0.0027318494221906797, 0.0, 0.0, 0.0, 0.016400943190358896)",0.0004947210710874874,-0.0002277411168474189,-0.0001954601058422752,"(0.001, 0.0, 0.0, 0.0, 0.001, 0.0, 0.0, 0.0, 0.001)",0.006049814021925185,-0.001105120369887059,0.02174363916774402,"(0.001, 0.0, 0.0, 0.0, 0.001, 0.0, 0.0, 0.0, 0.001)"
2024/05/14/15:47:20.913274,275746,1715716040,913118383,gps,0.019385199310945418,-0.01168052243613955,-0.9365658926833891,0.3497600722001587,"(0.002725031817626622, 0.0, 0.0, 0.0, 0.0027318494221906797, 0.0, 0.0, 0.0, 0.016400943190358896)",-3.504075121993969e-05,-0.0007848043515579843,0.0008940896521779916,"(0.001, 0.0, 0.0, 0.0, 0.001, 0.0, 0.0, 0.0, 0.001)",0.0012459744804878853,-0.007334407362204005,-0.026787049397124486,"(0.001, 0.0, 0.0, 0.0, 0.001, 0.0, 0.0, 0.0, 0.001)"
2024/05/14/15:47:20.917231,275747,1715716040,917166408,gps,0.019394343083273757,-0.011674541492370766,-0.9365610894503738,0.34977262652306024,"(0.002725031817626622, 0.0, 0.0, 0.0, 0.0027318494221906797, 0.0, 0.0, 0.0, 0.016400943190358896)",-0.0004213728014450756,-0.00016540927821380628,0.0006067605146025408,"(0.001, 0.0, 0.0, 0.0, 0.001, 0.0, 0.0, 0.0, 0.001)",-0.0009266170948669468,-0.014137391223679704,0.0179556343343314,"(0.001, 0.0, 0.0, 0.0, 0.001, 0.0, 0.0, 0.0, 0.001)"
2024/05/14/15:47:20.919641,275748,1715716040,919541633,gps,0.019394343083273757,-0.011674541492370766,-0.9365610894503738,0.34977262652306024,"(0.002725031817626622, 0.0, 0.0, 0.0, 0.0027318494221906797, 0.0, 0.0, 0.0, 0.016400943190358896)",0.00016955478249711703,-0.0005207029362435711,0.0009657311572461032,"(0.001, 0.0, 0.0, 0.0, 0.001, 0.0, 0.0, 0.0, 0.001)",-0.00826517865771914,-0.006654837640458095,-0.007686117109857226,"(0.001, 0.0, 0.0, 0.0, 0.001, 0.0, 0.0, 0.0, 0.001)"
2024/05/14/15:47:20.928210,275749,1715716040,928154114,gps,0.019393714534971747,-0.011668657371234965,-0.9365586410914943,0.34977941344301855,"(0.002725031817626622, 0.0, 0.0, 0.0, 0.0027318494221906797, 0.0, 0.0, 0.0, 0.016400943190358896)",-0.00040157063171750753,-0.00036175617007386664,0.0005890719813022191,"(0.001, 0.0, 0.0, 0.0, 0.001, 0.0, 0.0, 0.0, 0.001)",-0.0016123526428600697,-0.00811887031912954,-0.012665149194625294,"(0.001, 0.0, 0.0, 0.0, 0.001, 0.0, 0.0, 0.0, 0.001)"
2024/05/14/15:47:20.934632,275750,1715716040,934560380,gps,0.019393714534971747,-0.011668657371234965,-0.9365586410914943,0.34977941344301855,"(0.002725031817626622, 0.0, 0.0, 0.0, 0.0027318494221906797, 0.0, 0.0, 0.0, 0.016400943190358896)",0.0004943980298647735,-0.00113698301465483,0.0006641396294764855,"(0.001, 0.0, 0.0, 0.0, 0.001, 0.0, 0.0, 0.0, 0.001)",-0.01692883765367021,-0.007652894812813617,0.017238093204030545,"(0.001, 0.0, 0.0, 0.0, 0.001, 0.0, 0.0, 0.0, 0.001)"
2024/05/14/15:47:20.949670,275751,1715716040,949591851,gps,0.01937780414090467,-0.01166659922042419,-0.9365618537044051,0.34977176180342934,"(0.002725031817626622, 0.0, 0.0, 0.0, 0.0027318494221906797, 0.0, 0.0, 0.0, 0.016400943190358896)",0.0006343761845752968,-0.0005435588832613642,-0.00033384700214986673,"(0.001, 0.0, 0.0, 0.0, 0.001, 0.0, 0.0, 0.0, 0.001)",0.008826192279300033,0.002570972180253195,-0.004771630819802842,"(0.001, 0.0, 0.0, 0.0, 0.001, 0.0, 0.0, 0.0, 0.001)"
2024/05/14/15:47:20.963340,275752,1715716040,963264840,gps,0.01937780414090467,-0.01166659922042419,-0.9365618537044051,0.34977176180342934,"(0.002725031817626622, 0.0, 0.0, 0.0, 0.0027318494221906797, 0.0, 0.0, 0.0, 0.016400943190358896)",-0.00015873832254879197,0.0003716856313259121,0.0003164615354711584,"(0.001, 0.0, 0.0, 0.0, 0.001, 0.0, 0.0, 0.0, 0.001)",-0.01104266199557105,-0.008196607668906633,0.008616171170089709,"(0.001, 0.0, 0.0, 0.0, 0.001, 0.0, 0.0, 0.0, 0.001)"
2024/05/14/15:47:20.968809,275753,1715716040,968549402,gps,0.019396267267565187,-0.011681347067172821,-0.9365577432653556,0.3497812523227705,"(0.002725031817626622, 0.0, 0.0, 0.0, 0.0027318494221906797, 0.0, 0.0, 0.0, 0.016400943190358896)",-0.0004130348939717209,0.0009316365894864888,0.0004298755960855965,"(0.001, 0.0, 0.0, 0.0, 0.001, 0.0, 0.0, 0.0, 0.001)",-0.0011603714790653303,-0.014463050321984182,0.015297978394231103,"(0.001, 0.0, 0.0, 0.0, 0.001, 0.0, 0.0, 0.0, 0.001)"
2024/05/14/15:47:20.975482,275754,1715716040,975416903,gps,0.019396267267565187,-0.011681347067172821,-0.9365577432653556,0.3497812523227705,"(0.002725031817626622, 0.0, 0.0, 0.0, 0.0027318494221906797, 0.0, 0.0, 0.0, 0.016400943190358896)",0.0005881964140355117,-0.0001812232083196253,-0.0004294203734921962,"(0.001, 0.0, 0.0, 0.0, 0.001, 0.0, 0.0, 0.0, 0.001)",0.01833215777179171,0.010766601882031266,-0.006553934959575996,"(0.001, 0.0, 0.0, 0.0, 0.001, 0.0, 0.0, 0.0, 0.001)"
2024/05/14/15:47:20.985529,275755,1715716040,985407223,gps,0.019379666946526944,-0.011668378577073698,-0.936558138925536,0.3497815459151044,"(0.002725031817626622, 0.0, 0.0, 0.0, 0.0027318494221906797, 0.0, 0.0, 0.0, 0.016400943190358896)",0.0003352649531637585,-0.0005819972760338559,0.0005193582867785479,"(0.001, 0.0, 0.0, 0.0, 0.001, 0.0, 0.0, 0.0, 0.001)",0.0015140268249679183,0.0008422133305874682,-0.009749838958653369,"(0.001, 0.0, 0.0, 0.0, 0.001, 0.0, 0.0, 0.0, 0.001)"
2024/05/14/15:47:20.993743,275756,1715716040,993650283,gps,0.019379666946526944,-0.011668378577073698,-0.936558138925536,0.3497815459151044,"(0.002725031817626622, 0.0, 0.0, 0.0, 0.0027318494221906797, 0.0, 0.0, 0.0, 0.016400943190358896)",0.0005061857675085857,0.00039765700349518807,5.9459483891696224e-05,"(0.001, 0.0, 0.0, 0.0, 0.001, 0.0, 0.0, 0.0, 0.001)",0.006703150612739676,0.0045516842750072785,0.005127265881720351,"(0.001, 0.0, 0.0, 0.0, 0.001, 0.0, 0.0, 0.0, 0.001)"
2024/05/14/15:47:21.008671,275757,1715716041,8608442,gps,0.019375272723475917,-0.01167591459998682,-0.9365626838782976,0.34976936828691124,"(0.002725031817626622, 0.0, 0.0, 0.0, 0.0027318494221906797, 0.0, 0.0, 0.0, 0.016400943190358896)",0.0005374519139494413,-7.60679626022527e-05,-0.0005658776604169787,"(0.001, 0.0, 0.0, 0.0, 0.001, 0.0, 0.0, 0.0, 0.001)",-0.007565685773771621,0.003017323542849138,-0.010287899879662499,"(0.001, 0.0, 0.0, 0.0, 0.001, 0.0, 0.0, 0.0, 0.001)"
2024/05/14/15:47:21.015373,275758,1715716041,15286581,gps,0.019375272723475917,-0.01167591459998682,-0.9365626838782976,0.34976936828691124,"(0.002725031817626622, 0.0, 0.0, 0.0, 0.0027318494221906797, 0.0, 0.0, 0.0, 0.016400943190358896)",0.001155152967875191,-0.0003547160409483812,0.0010626464065363963,"(0.001, 0.0, 0.0, 0.0, 0.001, 0.0, 0.0, 0.0, 0.001)",-0.030177071765984838,0.010372032880008155,-0.014469808588878343,"(0.001, 0.0, 0.0, 0.0, 0.001, 0.0, 0.0, 0.0, 0.001)"
2024/05/14/15:47:21.030520,275759,1715716041,30396259,gps,0.01937417009243697,-0.011669146755926028,-0.9365584000628394,0.34978112558992164,"(0.002725031817626622, 0.0, 0.0, 0.0, 0.0027318494221906797, 0.0, 0.0, 0.0, 0.016400943190358896)",-2.6378246026023637e-05,-0.0005103163747149399,0.00017703451598220527,"(0.001, 0.0, 0.0, 0.0, 0.001, 0.0, 0.0, 0.0, 0.001)",-0.014648767514846636,0.017541806336960373,-0.0008715741130707618,"(0.001, 0.0, 0.0, 0.0, 0.001, 0.0, 0.0, 0.0, 0.001)"
2024/05/14/15:47:21.034601,275760,1715716041,34501164,gps,0.01937417009243697,-0.011669146755926028,-0.9365584000628394,0.34978112558992164,"(0.002725031817626622, 0.0, 0.0, 0.0, 0.0027318494221906797, 0.0, 0.0, 0.0, 0.016400943190358896)",-6.0770939927938266e-05,0.0005327092080653837,0.00022697808705634192,"(0.001, 0.0, 0.0, 0.0, 0.001, 0.0, 0.0, 0.0, 0.001)",0.006785909561251281,-0.001171072553668876,-0.012497344848455268,"(0.001, 0.0, 0.0, 0.0, 0.001, 0.0, 0.0, 0.0, 0.001)"
2024/05/14/15:47:21.057351,275761,1715716041,56880801,gps,0.01937800000067443,-0.011679093437857654,-0.9365559713768212,0.3497870843396914,"(0.002725031817626622, 0.0, 0.0, 0.0, 0.0027318494221906797, 0.0, 0.0, 0.0, 0.016400943190358896)",-1.1787289001638056e-05,0.00025948630327894733,0.0004985473003042562,"(0.001, 0.0, 0.0, 0.0, 0.001, 0.0, 0.0, 0.0, 0.001)",0.010612297510412816,0.007967294265643693,0.018450185620504808,"(0.001, 0.0, 0.0, 0.0, 0.001, 0.0, 0.0, 0.0, 0.001)"
2024/05/14/15:47:21.065435,275762,1715716041,65332690,gps,0.01937800000067443,-0.011679093437857654,-0.9365559713768212,0.3497870843396914,"(0.002725031817626622, 0.0, 0.0, 0.0, 0.0027318494221906797, 0.0, 0.0, 0.0, 0.016400943190358896)",-0.0005519695392777775,-0.0003526396930019156,0.00025938430766329315,"(0.001, 0.0, 0.0, 0.0, 0.001, 0.0, 0.0, 0.0, 0.001)",0.01903628085282272,0.016604671127937676,0.002822855750521387,"(0.001, 0.0, 0.0, 0.0, 0.001, 0.0, 0.0, 0.0, 0.001)"
2024/05/14/15:47:21.069659,275763,1715716041,69562279,gps,0.01938051598626761,-0.011683520163315753,-0.9365605289477363,0.34977459395135546,"(0.002725031817626622, 0.0, 0.0, 0.0, 0.0027318494221906797, 0.0, 0.0, 0.0, 0.016400943190358896)",0.00012265676538187684,0.0007217834496845437,-0.000682413573615814,"(0.001, 0.0, 0.0, 0.0, 0.001, 0.0, 0.0, 0.0, 0.001)",-0.017291095359779438,0.015969229752984686,-0.003103271184254414,"(0.001, 0.0, 0.0, 0.0, 0.001, 0.0, 0.0, 0.0, 0.001)"
2024/05/14/15:47:21.074468,275764,1715716041,74355697,gps,0.01938051598626761,-0.011683520163315753,-0.9365605289477363,0.34977459395135546,"(0.002725031817626622, 0.0, 0.0, 0.0, 0.0027318494221906797, 0.0, 0.0, 0.0, 0.016400943190358896)",0.00022687673900344924,1.8468540918304624e-05,0.00019264233845350283,"(0.001, 0.0, 0.0, 0.0, 0.001, 0.0, 0.0, 0.0, 0.001)",-3.996151623823584e-05,0.015452995783083193,-0.013359665711251386,"(0.001, 0.0, 0.0, 0.0, 0.001, 0.0, 0.0, 0.0, 0.001)"
2024/05/14/15:47:21.086488,275765,1715716041,86393696,gps,0.01936709194959537,-0.011678599471314475,-0.9365591626913506,0.3497791601034585,"(0.002725031817626622, 0.0, 0.0, 0.0, 0.0027318494221906797, 0.0, 0.0, 0.0, 0.016400943190358896)",0.0007438080253468869,-0.00022151059742910896,-0.00012158702414203077,"(0.001, 0.0, 0.0, 0.0, 0.001, 0.0, 0.0, 0.0, 0.001)",-0.014685617652048276,0.01448708307610321,0.00476491778383069,"(0.001, 0.0, 0.0, 0.0, 0.001, 0.0, 0.0, 0.0, 0.001)"
2024/05/14/15:47:21.095449,275766,1715716041,95356139,gps,0.01936709194959537,-0.011678599471314475,-0.9365591626913506,0.3497791601034585,"(0.002725031817626622, 0.0, 0.0, 0.0, 0.0027318494221906797, 0.0, 0.0, 0.0, 0.016400943190358896)",-0.00033727651639493323,-0.00039731117536959484,1.1746392204608243e-05,"(0.001, 0.0, 0.0, 0.0, 0.001, 0.0, 0.0, 0.0, 0.001)",-0.012812500585844575,0.0072190307425090096,-0.0027242378401799335,"(0.001, 0.0, 0.0, 0.0, 0.001, 0.0, 0.0, 0.0, 0.001)"
2024/05/14/15:47:21.106696,275767,1715716041,106598529,gps,0.019375411401764634,-0.011681837933599075,-0.9365595364538385,0.34977759043837625,"(0.002725031817626622, 0.0, 0.0, 0.0, 0.0027318494221906797, 0.0, 0.0, 0.0, 0.016400943190358896)",0.00021749678256752195,0.00038934496082166243,-0.00021835334792856995,"(0.001, 0.0, 0.0, 0.0, 0.001, 0.0, 0.0, 0.0, 0.001)",0.010200724371672219,0.0045087838080269,0.019254731520300217,"(0.001, 0.0, 0.0, 0.0, 0.001, 0.0, 0.0, 0.0, 0.001)"
2024/05/14/15:47:21.114189,275768,1715716041,114102619,gps,0.019375411401764634,-0.011681837933599075,-0.9365595364538385,0.34977759043837625,"(0.002725031817626622, 0.0, 0.0, 0.0, 0.0027318494221906797, 0.0, 0.0, 0.0, 0.016400943190358896)",0.0005103550280594659,-0.000205927632712043,-1.64974039031002e-05,"(0.001, 0.0, 0.0, 0.0, 0.001, 0.0, 0.0, 0.0, 0.001)",0.014919672148776552,0.020403214706497964,0.010487754248710467,"(0.001, 0.0, 0.0, 0.0, 0.001, 0.0, 0.0, 0.0, 0.001)"
2024/05/14/15:47:21.127450,275769,1715716041,127383504,gps,0.019364318492230182,-0.011666133629257433,-0.9365594159744983,0.34977905146675425,"(0.002725031817626622, 0.0, 0.0, 0.0, 0.0027318494221906797, 0.0, 0.0, 0.0, 0.016400943190358896)",0.0003238011545017097,-0.0009840415298047831,-3.210507491711854e-05,"(0.001, 0.0, 0.0, 0.0, 0.001, 0.0, 0.0, 0.0, 0.001)",0.012925994400611457,0.015574195169286056,-0.029555707852469113,"(0.001, 0.0, 0.0, 0.0, 0.001, 0.0, 0.0, 0.0, 0.001)"
2024/05/14/15:47:21.135013,275770,1715716041,134872105,gps,0.019364318492230182,-0.011666133629257433,-0.9365594159744983,0.34977905146675425,"(0.002725031817626622, 0.0, 0.0, 0.0, 0.0027318494221906797, 0.0, 0.0, 0.0, 0.016400943190358896)",-0.00036437456158959096,-0.0005645696726192653,0.00044042868974034555,"(0.001, 0.0, 0.0, 0.0, 0.001, 0.0, 0.0, 0.0, 0.001)",0.0018742071169331844,0.027689565110953943,0.040525561438360606,"(0.001, 0.0, 0.0, 0.0, 0.001, 0.0, 0.0, 0.0, 0.001)"
2024/05/14/15:47:21.150405,275771,1715716041,150304179,gps,0.01937721543554446,-0.011671847656058023,-0.9365605060691786,0.3497752277759283,"(0.002725031817626622, 0.0, 0.0, 0.0, 0.0027318494221906797, 0.0, 0.0, 0.0, 0.016400943190358896)",-0.0003932327891204171,0.00010884974941795638,-0.0004628702120178267,"(0.001, 0.0, 0.0, 0.0, 0.001, 0.0, 0.0, 0.0, 0.001)",-0.01070059328034417,-0.017231063478384843,-0.016735325209532574,"(0.001, 0.0, 0.0, 0.0, 0.001, 0.0, 0.0, 0.0, 0.001)"
2024/05/14/15:47:21.159643,275772,1715716041,154410043,gps,0.01937721543554446,-0.011671847656058023,-0.9365605060691786,0.3497752277759283,"(0.002725031817626622, 0.0, 0.0, 0.0, 0.0027318494221906797, 0.0, 0.0, 0.0, 0.016400943190358896)",-0.000700681932285876,-0.0003887687801086849,-0.0008894727018007449,"(0.001, 0.0, 0.0, 0.0, 0.001, 0.0, 0.0, 0.0, 0.001)",-0.013044190047777772,-0.015650580328819157,-0.001172026776375867,"(0.001, 0.0, 0.0, 0.0, 0.001, 0.0, 0.0, 0.0, 0.001)"
2024/05/14/15:47:21.168049,275773,1715716041,167963241,gps,0.019385887758708177,-0.011661080546722883,-0.936560129407293,0.34977611490907157,"(0.002725031817626622, 0.0, 0.0, 0.0, 0.0027318494221906797, 0.0, 0.0, 0.0, 0.016400943190358896)",-0.0008476325857505273,-0.0003181251021802296,1.9919466732124646e-05,"(0.001, 0.0, 0.0, 0.0, 0.001, 0.0, 0.0, 0.0, 0.001)",-0.0026405922513708883,-0.00328199894444971,0.02646640945823495,"(0.001, 0.0, 0.0, 0.0, 0.001, 0.0, 0.0, 0.0, 0.001)"
2024/05/14/15:47:21.174534,275774,1715716041,174463665,gps,0.019385887758708177,-0.011661080546722883,-0.936560129407293,0.34977611490907157,"(0.002725031817626622, 0.0, 0.0, 0.0, 0.0027318494221906797, 0.0, 0.0, 0.0, 0.016400943190358896)",-0.0015576949517022564,-0.00014278625571750143,0.0002999630685601288,"(0.001, 0.0, 0.0, 0.0, 0.001, 0.0, 0.0, 0.0, 0.001)",-0.0022267441981482267,-0.008522158243173301,-0.014443064744112348,"(0.001, 0.0, 0.0, 0.0, 0.001, 0.0, 0.0, 0.0, 0.001)"
2024/05/14/15:47:21.185549,275775,1715716041,185433600,gps,0.019382036054240215,-0.011664410728010423,-0.9365608238371612,0.3497743579140963,"(0.002725031817626622, 0.0, 0.0, 0.0, 0.0027318494221906797, 0.0, 0.0, 0.0, 0.016400943190358896)",0.00015496380708723714,-9.892285518018044e-05,-0.00020066458715233565,"(0.001, 0.0, 0.0, 0.0, 0.001, 0.0, 0.0, 0.0, 0.001)",-0.010043781160128256,-0.002820962163392173,0.016868764814806203,"(0.001, 0.0, 0.0, 0.0, 0.001, 0.0, 0.0, 0.0, 0.001)"
2024/05/14/15:47:21.194321,275776,1715716041,194228876,gps,0.019382036054240215,-0.011664410728010423,-0.9365608238371612,0.3497743579140963,"(0.002725031817626622, 0.0, 0.0, 0.0, 0.0027318494221906797, 0.0, 0.0, 0.0, 0.016400943190358896)",-0.0003630097073065367,-0.00013008894269835383,4.801346556562754e-05,"(0.001, 0.0, 0.0, 0.0, 0.001, 0.0, 0.0, 0.0, 0.001)",0.01525633253493907,0.0016888600027516701,0.007507657347962576,"(0.001, 0.0, 0.0, 0.0, 0.001, 0.0, 0.0, 0.0, 0.001)"
2024/05/14/15:47:21.205712,275777,1715716041,205602617,gps,0.019393609381881186,-0.011670162628169528,-0.9365607885510562,0.3497736190280778,"(0.002725031817626622, 0.0, 0.0, 0.0, 0.0027318494221906797, 0.0, 0.0, 0.0, 0.016400943190358896)",-0.0004046977307575813,0.0006075089623401011,-0.00017049024926209206,"(0.001, 0.0, 0.0, 0.0, 0.001, 0.0, 0.0, 0.0, 0.001)",0.0049314252642408945,-0.015677912513149272,-0.00847000371887585,"(0.001, 0.0, 0.0, 0.0, 0.001, 0.0, 0.0, 0.0, 0.001)"
2024/05/14/15:47:21.214691,275778,1715716041,214582878,gps,0.019393609381881186,-0.011670162628169528,-0.9365607885510562,0.3497736190280778,"(0.002725031817626622, 0.0, 0.0, 0.0, 0.0027318494221906797, 0.0, 0.0, 0.0, 0.016400943190358896)",-0.00030497043677167227,1.7201164909393074e-05,-0.0003617895344468181,"(0.001, 0.0, 0.0, 0.0, 0.001, 0.0, 0.0, 0.0, 0.001)",-0.011020166592879884,-0.0031214495618972545,0.025755088394967218,"(0.001, 0.0, 0.0, 0.0, 0.001, 0.0, 0.0, 0.0, 0.001)"
2024/05/14/15:47:21.234177,275779,1715716041,234102930,gps,0.01939534581050712,-0.011650501428793019,-0.9365608180124263,0.34977409930016773,"(0.002725031817626622, 0.0, 0.0, 0.0, 0.0027318494221906797, 0.0, 0.0, 0.0, 0.016400943190358896)",-0.0009080803424865893,-0.0009061244542890669,-1.1294151997083501e-05,"(0.001, 0.0, 0.0, 0.0, 0.001, 0.0, 0.0, 0.0, 0.001)",0.013429264197326794,0.014382889614235374,-0.008618871033642964,"(0.001, 0.0, 0.0, 0.0, 0.001, 0.0, 0.0, 0.0, 0.001)"
2024/05/14/15:47:21.235416,275780,1715716041,235320894,gps,0.01939534581050712,-0.011650501428793019,-0.9365608180124263,0.34977409930016773,"(0.002725031817626622, 0.0, 0.0, 0.0, 0.0027318494221906797, 0.0, 0.0, 0.0, 0.016400943190358896)",-6.0772013837878326e-05,0.000582576759371862,0.00029877319708614337,"(0.001, 0.0, 0.0, 0.0, 0.001, 0.0, 0.0, 0.0, 0.001)",0.016829559861790376,-0.01323469659109909,-0.004741318091640539,"(0.001, 0.0, 0.0, 0.0, 0.001, 0.0, 0.0, 0.0, 0.001)"
2024/05/14/15:47:21.256132,275781,1715716041,255846573,gps,0.01939298684417013,-0.011661627907520386,-0.9365628043457412,0.3497685406262967,"(0.002725031817626622, 0.0, 0.0, 0.0, 0.0027318494221906797, 0.0, 0.0, 0.0, 0.016400943190358896)",-9.933312231547828e-05,-4.905637106070469e-05,-0.0004618279383843096,"(0.001, 0.0, 0.0, 0.0, 0.001, 0.0, 0.0, 0.0, 0.001)",-0.008795529902079257,-0.01020866098474226,0.02259805607091171,"(0.001, 0.0, 0.0, 0.0, 0.001, 0.0, 0.0, 0.0, 0.001)"
2024/05/14/15:47:21.259625,275782,1715716041,259381213,gps,0.01939298684417013,-0.011661627907520386,-0.9365628043457412,0.3497685406262967,"(0.002725031817626622, 0.0, 0.0, 0.0, 0.0027318494221906797, 0.0, 0.0, 0.0, 0.016400943190358896)",0.0002546902753402958,-0.00010746223662473205,0.0003218157148140368,"(0.001, 0.0, 0.0, 0.0, 0.001, 0.0, 0.0, 0.0, 0.001)",-0.024073305388694465,-0.011874704903000155,-0.02668739241210854,"(0.001, 0.0, 0.0, 0.0, 0.001, 0.0, 0.0, 0.0, 0.001)"
2024/05/14/15:47:21.264793,275783,1715716041,264683156,gps,0.01937934722700645,-0.011657041604660743,-0.9365596385916352,0.3497779261805811,"(0.002725031817626622, 0.0, 0.0, 0.0, 0.0027318494221906797, 0.0, 0.0, 0.0, 0.016400943190358896)",0.0007031607912602884,-0.000746138245585129,0.00030709725519594526,"(0.001, 0.0, 0.0, 0.0, 0.001, 0.0, 0.0, 0.0, 0.001)",-0.009227394997203129,-0.005423053158364711,0.020506611870421857,"(0.001, 0.0, 0.0, 0.0, 0.001, 0.0, 0.0, 0.0, 0.001)"
2024/05/14/15:47:21.274525,275784,1715716041,274404448,gps,0.01937934722700645,-0.011657041604660743,-0.9365596385916352,0.3497779261805811,"(0.002725031817626622, 0.0, 0.0, 0.0, 0.0027318494221906797, 0.0, 0.0, 0.0, 0.016400943190358896)",8.722046183252221e-05,-0.0003950004532585715,0.0004590089223643834,"(0.001, 0.0, 0.0, 0.0, 0.001, 0.0, 0.0, 0.0, 0.001)",0.012050607949631876,-0.0005395489283321293,0.01326055771724467,"(0.001, 0.0, 0.0, 0.0, 0.001, 0.0, 0.0, 0.0, 0.001)"
2024/05/14/15:47:21.286245,275785,1715716041,286177458,gps,0.01938621589707727,-0.01165666709997576,-0.9365572268378749,0.34978401564831646,"(0.002725031817626622, 0.0, 0.0, 0.0, 0.0027318494221906797, 0.0, 0.0, 0.0, 0.016400943190358896)",-5.660309354588652e-05,-0.00021215948309092158,0.0005047905115653187,"(0.001, 0.0, 0.0, 0.0, 0.001, 0.0, 0.0, 0.0, 0.001)",0.004537895514288849,-0.01102275000076372,0.018954532333860095,"(0.001, 0.0, 0.0, 0.0, 0.001, 0.0, 0.0, 0.0, 0.001)"
2024/05/14/15:47:21.296168,275786,1715716041,296093339,gps,0.01938621589707727,-0.01165666709997576,-0.9365572268378749,0.34978401564831646,"(0.002725031817626622, 0.0, 0.0, 0.0, 0.0027318494221906797, 0.0, 0.0, 0.0, 0.016400943190358896)",0.0007851703323163692,-0.0004243193896444343,-0.0005251484941675675,"(0.001, 0.0, 0.0, 0.0, 0.001, 0.0, 0.0, 0.0, 0.001)",0.005564834304727906,0.004314305801211478,-0.0016590619753347159,"(0.001, 0.0, 0.0, 0.0, 0.001, 0.0, 0.0, 0.0, 0.001)"
2024/05/14/15:47:21.309916,275787,1715716041,309830656,gps,0.019389892930951447,-0.011654281091388215,-0.9365611941929282,0.3497732684415516,"(0.002725031817626622, 0.0, 0.0, 0.0, 0.0027318494221906797, 0.0, 0.0, 0.0, 0.016400943190358896)",-0.0006089693091086605,-0.00012385574048502185,-0.0002984715803016183,"(0.001, 0.0, 0.0, 0.0, 0.001, 0.0, 0.0, 0.0, 0.001)",-0.013235233019368535,-0.0011631749454833731,0.012542629897374594,"(0.001, 0.0, 0.0, 0.0, 0.001, 0.0, 0.0, 0.0, 0.001)"
2024/05/14/15:47:21.314279,275788,1715716041,314181292,gps,0.019389892930951447,-0.011654281091388215,-0.9365611941929282,0.3497732684415516,"(0.002725031817626622, 0.0, 0.0, 0.0, 0.0027318494221906797, 0.0, 0.0, 0.0, 0.016400943190358896)",0.0007448483656640895,2.781958840678987e-05,-0.0007562888953904228,"(0.001, 0.0, 0.0, 0.0, 0.001, 0.0, 0.0, 0.0, 0.001)",0.00023774243464661039,0.003525766377343342,-0.015454144641341051,"(0.001, 0.0, 0.0, 0.0, 0.001, 0.0, 0.0, 0.0, 0.001)"
2024/05/14/15:47:21.325849,275789,1715716041,325709878,gps,0.01937736239448188,-0.011665422307050083,-0.9365625312240741,0.3497700113734542,"(0.002725031817626622, 0.0, 0.0, 0.0, 0.0027318494221906797, 0.0, 0.0, 0.0, 0.016400943190358896)",0.0005030576896302597,0.000322858725544053,-0.00017673382654761748,"(0.001, 0.0, 0.0, 0.0, 0.001, 0.0, 0.0, 0.0, 0.001)",0.009338209475529878,0.00026485927487124376,0.0030600522702219405,"(0.001, 0.0, 0.0, 0.0, 0.001, 0.0, 0.0, 0.0, 0.001)"
2024/05/14/15:47:21.334767,275790,1715716041,334690831,gps,0.01937736239448188,-0.011665422307050083,-0.9365625312240741,0.3497700113734542,"(0.002725031817626622, 0.0, 0.0, 0.0, 0.0027318494221906797, 0.0, 0.0, 0.0, 0.016400943190358896)",7.543069180265886e-05,0.0004254768592133417,-3.7157596650117174e-05,"(0.001, 0.0, 0.0, 0.0, 0.001, 0.0, 0.0, 0.0, 0.001)",0.021674979678286223,0.003871410525926395,0.01089075560261797,"(0.001, 0.0, 0.0, 0.0, 0.001, 0.0, 0.0, 0.0, 0.001)"
2024/05/14/15:47:21.359413,275791,1715716041,359313378,gps,0.019380317949624623,-0.011650392904967145,-0.9365630491246685,0.3497689617956905,"(0.002725031817626622, 0.0, 0.0, 0.0, 0.0027318494221906797, 0.0, 0.0, 0.0, 0.016400943190358896)",-0.00022231336948085745,-0.0008988526832618047,-0.00023812296240761436,"(0.001, 0.0, 0.0, 0.0, 0.001, 0.0, 0.0, 0.0, 0.001)",0.005270089774820966,-0.0006016384828421125,-1.1785431798257638e-05,"(0.001, 0.0, 0.0, 0.0, 0.001, 0.0, 0.0, 0.0, 0.001)"
2024/05/14/15:47:21.363107,275792,1715716041,363043695,gps,0.019380317949624623,-0.011650392904967145,-0.9365630491246685,0.3497689617956905,"(0.002725031817626622, 0.0, 0.0, 0.0, 0.0027318494221906797, 0.0, 0.0, 0.0, 0.016400943190358896)",0.0004332300739217539,0.0004018128932034166,-0.00035153705325335644,"(0.001, 0.0, 0.0, 0.0, 0.001, 0.0, 0.0, 0.0, 0.001)",0.011755151259932577,0.013249398648532484,0.011496520523459312,"(0.001, 0.0, 0.0, 0.0, 0.001, 0.0, 0.0, 0.0, 0.001)"
2024/05/14/15:47:21.367640,275793,1715716041,367535269,gps,0.019379659054942065,-0.011678372153038841,-0.9365640520014796,0.3497653798438881,"(0.002725031817626622, 0.0, 0.0, 0.0, 0.0027318494221906797, 0.0, 0.0, 0.0, 0.016400943190358896)",0.00046241166923866126,0.001112400056321919,-0.0002506091341593435,"(0.001, 0.0, 0.0, 0.0, 0.001, 0.0, 0.0, 0.0, 0.001)",-0.0021944505184516147,0.0034013555942301672,0.0030314507181164576,"(0.001, 0.0, 0.0, 0.0, 0.001, 0.0, 0.0, 0.0, 0.001)"
2024/05/14/15:47:21.374490,275794,1715716041,374416116,gps,0.019379659054942065,-0.011678372153038841,-0.9365640520014796,0.3497653798438881,"(0.002725031817626622, 0.0, 0.0, 0.0, 0.0027318494221906797, 0.0, 0.0, 0.0, 0.016400943190358896)",0.0009060642629461822,4.213376105054974e-05,0.00039985016637428126,"(0.001, 0.0, 0.0, 0.0, 0.001, 0.0, 0.0, 0.0, 0.001)",0.011195272458349287,-0.020451706531457232,0.0074322251956317606,"(0.001, 0.0, 0.0, 0.0, 0.001, 0.0, 0.0, 0.0, 0.001)"
2024/05/14/15:47:21.385289,275795,1715716041,385186796,gps,0.019373056881187904,-0.011667260030032238,-0.9365610944199121,0.3497740358137614,"(0.002725031817626622, 0.0, 0.0, 0.0, 0.0027318494221906797, 0.0, 0.0, 0.0, 0.016400943190358896)",0.00027794268086368145,-9.892301514767347e-05,0.0003851327632991411,"(0.001, 0.0, 0.0, 0.0, 0.001, 0.0, 0.0, 0.0, 0.001)",-0.009187062840839335,-0.003957729208774498,-0.005021078767067952,"(0.001, 0.0, 0.0, 0.0, 0.001, 0.0, 0.0, 0.0, 0.001)"
2024/05/14/15:47:21.393559,275796,1715716041,393448369,gps,0.019373056881187904,-0.011667260030032238,-0.9365610944199121,0.3497740358137614,"(0.002725031817626622, 0.0, 0.0, 0.0, 0.0027318494221906797, 0.0, 0.0, 0.0, 0.016400943190358896)",-0.00038281201886885446,-0.0003015029065703519,-0.000401481077477168,"(0.001, 0.0, 0.0, 0.0, 0.001, 0.0, 0.0, 0.0, 0.001)",0.007755844998377018,-0.0032236478447702785,-0.008002453525394663,"(0.001, 0.0, 0.0, 0.0, 0.001, 0.0, 0.0, 0.0, 0.001)"
2024/05/14/15:47:21.408307,275797,1715716041,408245026,gps,0.01938023231425342,-0.011670517302578511,-0.9365589331616871,0.34977931662174966,"(0.002725031817626622, 0.0, 0.0, 0.0, 0.0027318494221906797, 0.0, 0.0, 0.0, 0.016400943190358896)",-0.00011392465685537677,0.0003851905134589297,0.0007316172802913517,"(0.001, 0.0, 0.0, 0.0, 0.001, 0.0, 0.0, 0.0, 0.001)",-0.009151611672208605,0.002348551295490847,0.007203929011468057,"(0.001, 0.0, 0.0, 0.0, 0.001, 0.0, 0.0, 0.0, 0.001)"
2024/05/14/15:47:21.414615,275798,1715716041,414531945,gps,0.01938023231425342,-0.011670517302578511,-0.9365589331616871,0.34977931662174966,"(0.002725031817626622, 0.0, 0.0, 0.0, 0.0027318494221906797, 0.0, 0.0, 0.0, 0.016400943190358896)",-0.0005478037115869429,0.00034652150940198254,0.0007869137156548549,"(0.001, 0.0, 0.0, 0.0, 0.001, 0.0, 0.0, 0.0, 0.001)",0.005426077567474469,-0.012514730009121474,-0.028640465774833365,"(0.001, 0.0, 0.0, 0.0, 0.001, 0.0, 0.0, 0.0, 0.001)"
2024/05/14/15:47:21.425837,275799,1715716041,425682980,gps,0.019378195784839028,-0.01167166432495417,-0.9365613287163926,0.349772976847834,"(0.002725031817626622, 0.0, 0.0, 0.0, 0.0027318494221906797, 0.0, 0.0, 0.0, 0.016400943190358896)",0.00027064794086590824,0.00023559292365018934,-0.0001413569703491886,"(0.001, 0.0, 0.0, 0.0, 0.001, 0.0, 0.0, 0.0, 0.001)",-0.010288407163711648,-0.0009414198249675656,0.0030023976583189223,"(0.001, 0.0, 0.0, 0.0, 0.001, 0.0, 0.0, 0.0, 0.001)"
2024/05/14/15:47:21.434036,275800,1715716041,433932936,gps,0.019378195784839028,-0.01167166432495417,-0.9365613287163926,0.349772976847834,"(0.002725031817626622, 0.0, 0.0, 0.0, 0.0027318494221906797, 0.0, 0.0, 0.0, 0.016400943190358896)",4.761715787203296e-05,-0.0004344783624030858,-0.00020794863049021815,"(0.001, 0.0, 0.0, 0.0, 0.001, 0.0, 0.0, 0.0, 0.001)",-0.021766014272143145,-0.01825560928891735,0.010573814689282719,"(0.001, 0.0, 0.0, 0.0, 0.001, 0.0, 0.0, 0.0, 0.001)"
2024/05/14/15:47:21.462773,275801,1715716041,462602979,gps,0.019386275380038374,-0.011666749768055758,-0.9365637929863239,0.3497660946172588,"(0.002725031817626622, 0.0, 0.0, 0.0, 0.0027318494221906797, 0.0, 0.0, 0.0, 0.016400943190358896)",-0.0004703564637259499,0.00013482253348140108,-0.000526340051274094,"(0.001, 0.0, 0.0, 0.0, 0.001, 0.0, 0.0, 0.0, 0.001)",0.005244662513063103,0.007119489943064323,0.0014223747321760113,"(0.001, 0.0, 0.0, 0.0, 0.001, 0.0, 0.0, 0.0, 0.001)"
2024/05/14/15:47:21.467426,275802,1715716041,467326981,gps,0.019386275380038374,-0.011666749768055758,-0.9365637929863239,0.3497660946172588,"(0.002725031817626622, 0.0, 0.0, 0.0, 0.0027318494221906797, 0.0, 0.0, 0.0, 0.016400943190358896)",-0.00017886518387495937,-0.0011785392689154747,0.0004976567228099407,"(0.001, 0.0, 0.0, 0.0, 0.001, 0.0, 0.0, 0.0, 0.001)",-0.007973780471406787,0.016667613640851658,-0.004970788020334458,"(0.001, 0.0, 0.0, 0.0, 0.001, 0.0, 0.0, 0.0, 0.001)"
2024/05/14/15:47:21.469837,275803,1715716041,469755006,gps,0.019382836289712012,-0.01166633868966761,-0.9365590118027806,0.3497791011623526,"(0.002725031817626622, 0.0, 0.0, 0.0, 0.0027318494221906797, 0.0, 0.0, 0.0, 0.016400943190358896)",-0.0001139243930890385,0.0003270137230436691,0.0005047897204726964,"(0.001, 0.0, 0.0, 0.0, 0.001, 0.0, 0.0, 0.0, 0.001)",0.013297514137834263,0.00385903138231045,0.010513902656745594,"(0.001, 0.0, 0.0, 0.0, 0.001, 0.0, 0.0, 0.0, 0.001)"
2024/05/14/15:47:21.473668,275804,1715716041,473503546,gps,0.019382836289712012,-0.01166633868966761,-0.9365590118027806,0.3497791011623526,"(0.002725031817626622, 0.0, 0.0, 0.0, 0.0027318494221906797, 0.0, 0.0, 0.0, 0.016400943190358896)",0.0008376045127889226,-0.0003607184460482327,0.0006057178181006114,"(0.001, 0.0, 0.0, 0.0, 0.001, 0.0, 0.0, 0.0, 0.001)",-0.0009628356905751116,-0.001656388904506823,-0.008271686755714032,"(0.001, 0.0, 0.0, 0.0, 0.001, 0.0, 0.0, 0.0, 0.001)"
2024/05/14/15:47:21.486681,275805,1715716041,486599648,gps,0.01936765092707484,-0.011656352186856206,-0.9365636129308481,0.3497679552005578,"(0.002725031817626622, 0.0, 0.0, 0.0, 0.0027318494221906797, 0.0, 0.0, 0.0, 0.016400943190358896)",0.0004499062181504214,-0.0007004294435474774,-0.0006730501284779128,"(0.001, 0.0, 0.0, 0.0, 0.001, 0.0, 0.0, 0.0, 0.001)",0.0011510836669176236,0.014889025731178273,-0.011017498301517051,"(0.001, 0.0, 0.0, 0.0, 0.001, 0.0, 0.0, 0.0, 0.001)"
2024/05/14/15:47:21.494803,275806,1715716041,494719259,gps,0.01936765092707484,-0.011656352186856206,-0.9365636129308481,0.3497679552005578,"(0.002725031817626622, 0.0, 0.0, 0.0, 0.0027318494221906797, 0.0, 0.0, 0.0, 0.016400943190358896)",0.0009487948013593135,2.9665544775423985e-05,-0.00021612423050608502,"(0.001, 0.0, 0.0, 0.0, 0.001, 0.0, 0.0, 0.0, 0.001)",0.006221295806543858,0.028032217527830493,-0.003999682439548175,"(0.001, 0.0, 0.0, 0.0, 0.001, 0.0, 0.0, 0.0, 0.001)"
2024/05/14/15:47:21.505801,275807,1715716041,505721705,gps,0.019356019767772206,-0.011673981497101572,-0.9365629899922525,0.34976967911974144,"(0.002725031817626622, 0.0, 0.0, 0.0, 0.0027318494221906797, 0.0, 0.0, 0.0, 0.016400943190358896)",0.0014212360968013367,0.0003571402244289695,-0.0003026348875633362,"(0.001, 0.0, 0.0, 0.0, 0.001, 0.0, 0.0, 0.0, 0.001)",0.004477891653670243,-0.0052423291109305915,-0.018087512298982127,"(0.001, 0.0, 0.0, 0.0, 0.001, 0.0, 0.0, 0.0, 0.001)"
2024/05/14/15:47:21.514560,275808,1715716041,514490344,gps,0.019356019767772206,-0.011673981497101572,-0.9365629899922525,0.34976967911974144,"(0.002725031817626622, 0.0, 0.0, 0.0, 0.0027318494221906797, 0.0, 0.0, 0.0, 0.016400943190358896)",0.0008240554852356751,3.820674372604173e-05,0.0007472234700700594,"(0.001, 0.0, 0.0, 0.0, 0.001, 0.0, 0.0, 0.0, 0.001)",0.005553544875978109,-0.01438915408217298,-0.00515001222896497,"(0.001, 0.0, 0.0, 0.0, 0.001, 0.0, 0.0, 0.0, 0.001)"
2024/05/14/15:47:21.528141,275809,1715716041,528085882,gps,0.019360494759097763,-0.011663945397043633,-0.936560323674329,0.3497769056691621,"(0.002725031817626622, 0.0, 0.0, 0.0, 0.0027318494221906797, 0.0, 0.0, 0.0, 0.016400943190358896)",9.138916117915518e-05,-0.00034617571211919147,0.00013229103415512928,"(0.001, 0.0, 0.0, 0.0, 0.001, 0.0, 0.0, 0.0, 0.001)",-0.0006458073216073544,-0.011145363763246792,-0.007267971907695539,"(0.001, 0.0, 0.0, 0.0, 0.001, 0.0, 0.0, 0.0, 0.001)"
2024/05/14/15:47:21.535183,275810,1715716041,535137335,gps,0.019360494759097763,-0.011663945397043633,-0.936560323674329,0.3497769056691621,"(0.002725031817626622, 0.0, 0.0, 0.0, 0.0027318494221906797, 0.0, 0.0, 0.0, 0.016400943190358896)",0.0003328545941431715,-0.0018008261245834986,-0.00015473799299652754,"(0.001, 0.0, 0.0, 0.0, 0.001, 0.0, 0.0, 0.0, 0.001)",0.023954415998748427,0.004301576484819393,-0.0354455132445096,"(0.001, 0.0, 0.0, 0.0, 0.001, 0.0, 0.0, 0.0, 0.001)"
2024/05/14/15:47:21.551758,275811,1715716041,551629014,gps,0.01935556983826463,-0.011668353382623415,-0.936563146389811,0.34976947303901706,"(0.002725031817626622, 0.0, 0.0, 0.0, 0.0027318494221906797, 0.0, 0.0, 0.0, 0.016400943190358896)",0.0004707492908925225,0.0004537541797540126,-0.0004358197201245894,"(0.001, 0.0, 0.0, 0.0, 0.001, 0.0, 0.0, 0.0, 0.001)",0.00956312069642213,-0.0075452408220475845,-0.008644938769148508,"(0.001, 0.0, 0.0, 0.0, 0.001, 0.0, 0.0, 0.0, 0.001)"
2024/05/14/15:47:21.555599,275812,1715716041,555534069,gps,0.01935556983826463,-0.011668353382623415,-0.936563146389811,0.34976947303901706,"(0.002725031817626622, 0.0, 0.0, 0.0, 0.0027318494221906797, 0.0, 0.0, 0.0, 0.016400943190358896)",0.0005635050722809906,0.00016390940264661953,-0.0002308423660842537,"(0.001, 0.0, 0.0, 0.0, 0.001, 0.0, 0.0, 0.0, 0.001)",-0.0015858487784116365,0.004127722654237967,-0.0006854357529516975,"(0.001, 0.0, 0.0, 0.0, 0.001, 0.0, 0.0, 0.0, 0.001)"
2024/05/14/15:47:21.566199,275813,1715716041,566122709,gps,0.01935361560043347,-0.011665803826470774,-0.9365658403128534,0.3497624527352124,"(0.002725031817626622, 0.0, 0.0, 0.0, 0.0027318494221906797, 0.0, 0.0, 0.0, 0.016400943190358896)",0.00020186163133276592,1.4312000419520168e-05,-0.000698024471130284,"(0.001, 0.0, 0.0, 0.0, 0.001, 0.0, 0.0, 0.0, 0.001)",0.010617866792682916,-0.0010706695327754305,0.00023839303671611834,"(0.001, 0.0, 0.0, 0.0, 0.001, 0.0, 0.0, 0.0, 0.001)"
2024/05/14/15:47:21.574882,275814,1715716041,574807471,gps,0.01935361560043347,-0.011665803826470774,-0.9365658403128534,0.3497624527352124,"(0.002725031817626622, 0.0, 0.0, 0.0, 0.0027318494221906797, 0.0, 0.0, 0.0, 0.016400943190358896)",0.000591318604094642,-0.0007474118244666653,-4.756878383843507e-05,"(0.001, 0.0, 0.0, 0.0, 0.001, 0.0, 0.0, 0.0, 0.001)",0.015512646834323865,0.0012213725780956589,0.0010971684145591055,"(0.001, 0.0, 0.0, 0.0, 0.001, 0.0, 0.0, 0.0, 0.001)"
2024/05/14/15:47:21.586162,275815,1715716041,586063582,gps,0.019350730180408116,-0.011648676377701315,-0.9365605736330608,0.3497772855636068,"(0.002725031817626622, 0.0, 0.0, 0.0, 0.0027318494221906797, 0.0, 0.0, 0.0, 0.016400943190358896)",-0.0002900572821546459,-0.0011242896901532077,0.0006525366229863358,"(0.001, 0.0, 0.0, 0.0, 0.001, 0.0, 0.0, 0.0, 0.001)",0.009739846907900866,-0.0008909132992966721,0.013290991180267555,"(0.001, 0.0, 0.0, 0.0, 0.001, 0.0, 0.0, 0.0, 0.001)"
2024/05/14/15:47:21.593602,275816,1715716041,593519872,gps,0.019350730180408116,-0.011648676377701315,-0.9365605736330608,0.3497772855636068,"(0.002725031817626622, 0.0, 0.0, 0.0, 0.0027318494221906797, 0.0, 0.0, 0.0, 0.016400943190358896)",-0.0006131393961308766,-0.0008749609757394483,-1.8582471337721243e-05,"(0.001, 0.0, 0.0, 0.0, 0.001, 0.0, 0.0, 0.0, 0.001)",0.0025404921392332687,0.011371518958612534,-0.002272928756058686,"(0.001, 0.0, 0.0, 0.0, 0.001, 0.0, 0.0, 0.0, 0.001)"
2024/05/14/15:47:21.610274,275817,1715716041,610173977,gps,0.019361348040386236,-0.011653212134133586,-0.9365641536501853,0.34976696091330306,"(0.002725031817626622, 0.0, 0.0, 0.0, 0.0027318494221906797, 0.0, 0.0, 0.0, 0.016400943190358896)",-0.0005568608745420746,0.0001109269951090215,-0.0003411357677265127,"(0.001, 0.0, 0.0, 0.0, 0.001, 0.0, 0.0, 0.0, 0.001)",0.014414340448144389,0.005118475433556856,-0.0007508822744353543,"(0.001, 0.0, 0.0, 0.0, 0.001, 0.0, 0.0, 0.0, 0.001)"
2024/05/14/15:47:21.614692,275818,1715716041,614623070,gps,0.019361348040386236,-0.011653212134133586,-0.9365641536501853,0.34976696091330306,"(0.002725031817626622, 0.0, 0.0, 0.0, 0.0027318494221906797, 0.0, 0.0, 0.0, 0.016400943190358896)",-0.001497251639287647,0.0004327453959805139,-0.0009621638928108801,"(0.001, 0.0, 0.0, 0.0, 0.001, 0.0, 0.0, 0.0, 0.001)",0.011807887556495872,0.016887551213840418,-0.00039339463130420177,"(0.001, 0.0, 0.0, 0.0, 0.001, 0.0, 0.0, 0.0, 0.001)"
2024/05/14/15:47:21.633340,275819,1715716041,633213900,gps,0.019365396376605636,-0.011655850254259498,-0.9365622916538183,0.3497716346849406,"(0.002725031817626622, 0.0, 0.0, 0.0, 0.0027318494221906797, 0.0, 0.0, 0.0, 0.016400943190358896)",-0.000227525982576282,0.00024078682785551647,0.0004246689898813566,"(0.001, 0.0, 0.0, 0.0, 0.001, 0.0, 0.0, 0.0, 0.001)",0.007673303416184641,0.005723645914057326,0.006261037708437908,"(0.001, 0.0, 0.0, 0.0, 0.001, 0.0, 0.0, 0.0, 0.001)"
2024/05/14/15:47:21.639732,275820,1715716041,639592565,gps,0.019365396376605636,-0.011655850254259498,-0.9365622916538183,0.3497716346849406,"(0.002725031817626622, 0.0, 0.0, 0.0, 0.0027318494221906797, 0.0, 0.0, 0.0, 0.016400943190358896)",4.969945478578581e-05,0.0007539886154266279,-0.00034633713816837176,"(0.001, 0.0, 0.0, 0.0, 0.001, 0.0, 0.0, 0.0, 0.001)",0.006688733395323144,0.01556251764701925,0.016817124486491572,"(0.001, 0.0, 0.0, 0.0, 0.001, 0.0, 0.0, 0.0, 0.001)"
2024/05/14/15:47:21.654959,275821,1715716041,654728932,gps,0.01936160719927921,-0.011645716796355489,-0.9365673936469596,0.3497585204170167,"(0.002725031817626622, 0.0, 0.0, 0.0, 0.0027318494221906797, 0.0, 0.0, 0.0, 0.016400943190358896)",-0.00012851664194925242,-0.0007908112027434083,-0.0006085414797995704,"(0.001, 0.0, 0.0, 0.0, 0.001, 0.0, 0.0, 0.0, 0.001)",0.004427064912911309,0.0055274029731295195,0.001341825150183173,"(0.001, 0.0, 0.0, 0.0, 0.001, 0.0, 0.0, 0.0, 0.001)"
2024/05/14/15:47:21.659107,275822,1715716041,659031949,gps,0.01936160719927921,-0.011645716796355489,-0.9365673936469596,0.3497585204170167,"(0.002725031817626622, 0.0, 0.0, 0.0, 0.0027318494221906797, 0.0, 0.0, 0.0, 0.016400943190358896)",-0.00011842191082664243,-0.000919861408482905,-0.001354428648239796,"(0.001, 0.0, 0.0, 0.0, 0.001, 0.0, 0.0, 0.0, 0.001)",0.02563668001457262,0.015421485697448048,0.0055133008322083695,"(0.001, 0.0, 0.0, 0.0, 0.001, 0.0, 0.0, 0.0, 0.001)"
2024/05/14/15:47:21.665854,275823,1715716041,665753385,gps,0.01936807396042437,-0.011644905302998443,-0.9365667022513069,0.34976004077890255,"(0.002725031817626622, 0.0, 0.0, 0.0, 0.0027318494221906797, 0.0, 0.0, 0.0, 0.016400943190358896)",-0.0005662419103121814,-0.00027864750247539585,5.113145376041024e-05,"(0.001, 0.0, 0.0, 0.0, 0.001, 0.0, 0.0, 0.0, 0.001)",0.014589736844082374,0.0032998914729931326,0.00706426439700537,"(0.001, 0.0, 0.0, 0.0, 0.001, 0.0, 0.0, 0.0, 0.001)"
2024/05/14/15:47:21.673923,275824,1715716041,673840935,gps,0.01936807396042437,-0.011644905302998443,-0.9365667022513069,0.34976004077890255,"(0.002725031817626622, 0.0, 0.0, 0.0, 0.0027318494221906797, 0.0, 0.0, 0.0, 0.016400943190358896)",0.000868867447310105,0.0008994314091200532,-0.0007136317517794177,"(0.001, 0.0, 0.0, 0.0, 0.001, 0.0, 0.0, 0.0, 0.001)",-0.007692160313178394,0.0032338298072004962,-0.010167578407860657,"(0.001, 0.0, 0.0, 0.0, 0.001, 0.0, 0.0, 0.0, 0.001)"
2024/05/14/15:47:21.685598,275825,1715716041,685476774,gps,0.019358493730589534,-0.011663742676993692,-0.9365702261620431,0.34975050721053585,"(0.002725031817626622, 0.0, 0.0, 0.0, 0.0027318494221906797, 0.0, 0.0, 0.0, 0.016400943190358896)",0.0004978442562726508,0.0005597208311155416,-0.00042333386616985304,"(0.001, 0.0, 0.0, 0.0, 0.001, 0.0, 0.0, 0.0, 0.001)",-0.019176965069233255,-0.00512263662752759,-0.012999432622229596,"(0.001, 0.0, 0.0, 0.0, 0.001, 0.0, 0.0, 0.0, 0.001)"
2024/05/14/15:47:21.702429,275826,1715716041,702294756,gps,0.019358493730589534,-0.011663742676993692,-0.9365702261620431,0.34975050721053585,"(0.002725031817626622, 0.0, 0.0, 0.0, 0.0027318494221906797, 0.0, 0.0, 0.0, 0.016400943190358896)",0.00030575215045452027,0.0005667626390071243,-0.0006489738813859479,"(0.001, 0.0, 0.0, 0.0, 0.001, 0.0, 0.0, 0.0, 0.001)",-0.004372773753767812,-0.0006717530962683801,0.001520219554744779,"(0.001, 0.0, 0.0, 0.0, 0.001, 0.0, 0.0, 0.0, 0.001)"
2024/05/14/15:47:21.707412,275827,1715716041,707027129,gps,0.019372665097898686,-0.0116623787296002,-0.9365697627724464,0.3497510089045288,"(0.002725031817626622, 0.0, 0.0, 0.0, 0.0027318494221906797, 0.0, 0.0, 0.0, 0.016400943190358896)",-0.00075071141259577,0.0005659541506005832,-0.00010286154722531927,"(0.001, 0.0, 0.0, 0.0, 0.001, 0.0, 0.0, 0.0, 0.001)",-0.01108539322947238,-0.013697277179247526,0.0011066599414080913,"(0.001, 0.0, 0.0, 0.0, 0.001, 0.0, 0.0, 0.0, 0.001)"
2024/05/14/15:47:21.713751,275828,1715716041,713649062,gps,0.019372665097898686,-0.0116623787296002,-0.9365697627724464,0.3497510089045288,"(0.002725031817626622, 0.0, 0.0, 0.0, 0.0027318494221906797, 0.0, 0.0, 0.0, 0.016400943190358896)",-0.0007830194750373253,-0.0005622585667166062,0.0007846805697725736,"(0.001, 0.0, 0.0, 0.0, 0.001, 0.0, 0.0, 0.0, 0.001)",-0.0016575130731085693,-0.012232169174784775,0.006532948591868377,"(0.001, 0.0, 0.0, 0.0, 0.001, 0.0, 0.0, 0.0, 0.001)"
2024/05/14/15:47:21.726814,275829,1715716041,726739006,gps,0.01936601231452013,-0.01166130517799166,-0.9365677750042548,0.34975673596395396,"(0.002725031817626622, 0.0, 0.0, 0.0, 0.0027318494221906797, 0.0, 0.0, 0.0, 0.016400943190358896)",0.00015912945749132297,0.0002470212699359626,0.00014997914227648414,"(0.001, 0.0, 0.0, 0.0, 0.001, 0.0, 0.0, 0.0, 0.001)",-0.008204963723389738,0.001521772306746024,-0.00044316768751459924,"(0.001, 0.0, 0.0, 0.0, 0.001, 0.0, 0.0, 0.0, 0.001)"
2024/05/14/15:47:21.736167,275830,1715716041,736043323,gps,0.01936601231452013,-0.01166130517799166,-0.9365677750042548,0.34975673596395396,"(0.002725031817626622, 0.0, 0.0, 0.0, 0.0027318494221906797, 0.0, 0.0, 0.0, 0.016400943190358896)",-0.0004060698451256315,0.0003465228911228664,-0.0004897767437780733,"(0.001, 0.0, 0.0, 0.0, 0.001, 0.0, 0.0, 0.0, 0.001)",0.0012223068692287509,-0.04155917473426542,-0.012988301529937431,"(0.001, 0.0, 0.0, 0.0, 0.001, 0.0, 0.0, 0.0, 0.001)"
2024/05/14/15:47:21.750324,275831,1715716041,750274004,gps,0.019365154028707227,-0.011664313500897697,-0.9365692883511154,0.3497526307513389,"(0.002725031817626622, 0.0, 0.0, 0.0, 0.0027318494221906797, 0.0, 0.0, 0.0, 0.016400943190358896)",0.00041759512094760083,0.0002854596530034636,-4.147152784895632e-05,"(0.001, 0.0, 0.0, 0.0, 0.001, 0.0, 0.0, 0.0, 0.001)",0.0022435965954515774,-0.0072649750463449035,0.004984661922397026,"(0.001, 0.0, 0.0, 0.0, 0.001, 0.0, 0.0, 0.0, 0.001)"
2024/05/14/15:47:21.754833,275832,1715716041,754701906,gps,0.019365154028707227,-0.011664313500897697,-0.9365692883511154,0.3497526307513389,"(0.002725031817626622, 0.0, 0.0, 0.0, 0.0027318494221906797, 0.0, 0.0, 0.0, 0.016400943190358896)",0.0007771542008543817,0.0006823079343317881,0.00016766776840855692,"(0.001, 0.0, 0.0, 0.0, 0.001, 0.0, 0.0, 0.0, 0.001)",1.4395574093196132e-05,-0.0038113579957318963,-0.028138365954998846,"(0.001, 0.0, 0.0, 0.0, 0.001, 0.0, 0.0, 0.0, 0.001)"
2024/05/14/15:47:21.767519,275833,1715716041,767440488,gps,0.01936710584956575,-0.011661991321135178,-0.9365724049908992,0.3497442542473007,"(0.002725031817626622, 0.0, 0.0, 0.0, 0.0027318494221906797, 0.0, 0.0, 0.0, 0.016400943190358896)",-0.0001285173405357025,-0.00011762237896478095,-0.0006709707192681761,"(0.001, 0.0, 0.0, 0.0, 0.001, 0.0, 0.0, 0.0, 0.001)",-0.012792331552928677,-0.0030085564416517845,-0.00205128163630765,"(0.001, 0.0, 0.0, 0.0, 0.001, 0.0, 0.0, 0.0, 0.001)"
2024/05/14/15:47:21.775590,275834,1715716041,775497260,gps,0.01936710584956575,-0.011661991321135178,-0.9365724049908992,0.3497442542473007,"(0.002725031817626622, 0.0, 0.0, 0.0, 0.0027318494221906797, 0.0, 0.0, 0.0, 0.016400943190358896)",-0.0020652519497134504,0.0001792651037107012,0.000868069047952031,"(0.001, 0.0, 0.0, 0.0, 0.001, 0.0, 0.0, 0.0, 0.001)",-0.019421764030489938,-0.011015853815582649,0.0020476496894776173,"(0.001, 0.0, 0.0, 0.0, 0.001, 0.0, 0.0, 0.0, 0.001)"
2024/05/14/15:47:21.785667,275835,1715716041,785559984,gps,0.01938663466826894,-0.011652806755491706,-0.9365660453155602,0.34976050842387924,"(0.002725031817626622, 0.0, 0.0, 0.0, 0.0027318494221906797, 0.0, 0.0, 0.0, 0.016400943190358896)",-0.0011665484666659245,-0.0003295512707633581,0.0005141531440820948,"(0.001, 0.0, 0.0, 0.0, 0.001, 0.0, 0.0, 0.0, 0.001)",-0.00564205467037084,-0.004926885233466733,-0.006307941187660799,"(0.001, 0.0, 0.0, 0.0, 0.001, 0.0, 0.0, 0.0, 0.001)"
2024/05/14/15:47:21.793803,275836,1715716041,793716455,gps,0.01938663466826894,-0.011652806755491706,-0.9365660453155602,0.34976050842387924,"(0.002725031817626622, 0.0, 0.0, 0.0, 0.0027318494221906797, 0.0, 0.0, 0.0, 0.016400943190358896)",0.00029982704733855464,-0.00024851920290427975,-0.000557555679689195,"(0.001, 0.0, 0.0, 0.0, 0.001, 0.0, 0.0, 0.0, 0.001)",-0.011694351865448266,0.016052917001116374,-0.0012111203529314354,"(0.001, 0.0, 0.0, 0.0, 0.001, 0.0, 0.0, 0.0, 0.001)"
2024/05/14/15:47:21.808424,275837,1715716041,808366097,gps,0.01937447108102221,-0.011649862953416676,-0.9365666622735257,0.34975962843262043,"(0.002725031817626622, 0.0, 0.0, 0.0, 0.0027318494221906797, 0.0, 0.0, 0.0, 0.016400943190358896)",-6.702764329545341e-05,-0.0006121236679327852,0.00040073939654405324,"(0.001, 0.0, 0.0, 0.0, 0.001, 0.0, 0.0, 0.0, 0.001)",-0.005512486160522639,0.00018128238723527813,-0.007443748583221189,"(0.001, 0.0, 0.0, 0.0, 0.001, 0.0, 0.0, 0.0, 0.001)"
2024/05/14/15:47:21.814595,275838,1715716041,814528434,gps,0.01937447108102221,-0.011649862953416676,-0.9365666622735257,0.34975962843262043,"(0.002725031817626622, 0.0, 0.0, 0.0, 0.0027318494221906797, 0.0, 0.0, 0.0, 0.016400943190358896)",3.2696555806903296e-05,0.00040573975027581203,5.232249906290458e-05,"(0.001, 0.0, 0.0, 0.0, 0.001, 0.0, 0.0, 0.0, 0.001)",0.0016540562302927886,-0.012260174949668377,-0.010086382280473507,"(0.001, 0.0, 0.0, 0.0, 0.001, 0.0, 0.0, 0.0, 0.001)"
2024/05/14/15:47:21.826528,275839,1715716041,826465504,gps,0.019376868030345225,-0.011657479129480102,-0.9365639222357074,0.3497665789239276,"(0.002725031817626622, 0.0, 0.0, 0.0, 0.0027318494221906797, 0.0, 0.0, 0.0, 0.016400943190358896)",-3.993033910723057e-05,-4.282296158554816e-05,0.0009324319393903273,"(0.001, 0.0, 0.0, 0.0, 0.001, 0.0, 0.0, 0.0, 0.001)",0.006383988432658322,-0.0058548366395239915,-0.0001383346516690184,"(0.001, 0.0, 0.0, 0.0, 0.001, 0.0, 0.0, 0.0, 0.001)"
2024/05/14/15:47:21.833760,275840,1715716041,833689586,gps,0.019376868030345225,-0.011657479129480102,-0.9365639222357074,0.3497665789239276,"(0.002725031817626622, 0.0, 0.0, 0.0, 0.0027318494221906797, 0.0, 0.0, 0.0, 0.016400943190358896)",-0.0012155316275713952,-0.0007035446689031339,-0.0004524659989860653,"(0.001, 0.0, 0.0, 0.0, 0.001, 0.0, 0.0, 0.0, 0.001)",-0.00759551468820948,-0.0016576632028863305,-0.004102856955312454,"(0.001, 0.0, 0.0, 0.0, 0.001, 0.0, 0.0, 0.0, 0.001)"
2024/05/14/15:47:21.911243,275841,1715716041,911150350,gps,0.019383395032717524,-0.011650070125397418,-0.9365659586205256,0.3497610112866996,"(0.0025803310994419043, 0.0, 0.0, 0.0, 0.0025871631576666193, 0.0, 0.0, 0.0, 0.0163679684926612)",-0.00027442539775844246,-0.0001539818329515604,0.0002685967862200407,"(0.001, 0.0, 0.0, 0.0, 0.001, 0.0, 0.0, 0.0, 0.001)",-0.016541645228615447,0.013418712907751044,-0.013464226867554049,"(0.001, 0.0, 0.0, 0.0, 0.001, 0.0, 0.0, 0.0, 0.001)"
2024/05/14/15:47:21.922408,275842,1715716041,922293066,gps,0.019383395032717524,-0.011650070125397418,-0.9365659586205256,0.3497610112866996,"(0.0025803310994419043, 0.0, 0.0, 0.0, 0.0025871631576666193, 0.0, 0.0, 0.0, 0.0163679684926612)",-0.00021013596365282897,-0.0009832291085218052,-0.0006083906696425135,"(0.001, 0.0, 0.0, 0.0, 0.001, 0.0, 0.0, 0.0, 0.001)",-0.00753012249410251,0.0068147782249327864,0.01811731756431666,"(0.001, 0.0, 0.0, 0.0, 0.001, 0.0, 0.0, 0.0, 0.001)"
2024/05/14/15:47:21.930295,275843,1715716041,930233829,gps,0.019381415957921196,-0.01164738485791356,-0.936565309301648,0.3497629490871584,"(0.0025803310994419043, 0.0, 0.0, 0.0, 0.0025871631576666193, 0.0, 0.0, 0.0, 0.0163679684926612)",-9.204087468843604e-05,-9.164936239608034e-05,0.0005911498349484098,"(0.001, 0.0, 0.0, 0.0, 0.001, 0.0, 0.0, 0.0, 0.001)",0.001638094056763809,0.0025168505260746614,-0.004641605146153301,"(0.001, 0.0, 0.0, 0.0, 0.001, 0.0, 0.0, 0.0, 0.001)"
2024/05/14/15:47:21.935414,275844,1715716041,935351409,gps,0.019381415957921196,-0.01164738485791356,-0.936565309301648,0.3497629490871584,"(0.0025803310994419043, 0.0, 0.0, 0.0, 0.0025871631576666193, 0.0, 0.0, 0.0, 0.0163679684926612)",3.614991822720937e-05,-0.0002017697621200707,-1.545834900814135e-05,"(0.001, 0.0, 0.0, 0.0, 0.001, 0.0, 0.0, 0.0, 0.001)",-0.0072842174172698315,-0.0007372475661415001,-0.0024658319165864954,"(0.001, 0.0, 0.0, 0.0, 0.001, 0.0, 0.0, 0.0, 0.001)"
2024/05/14/15:47:21.964375,275845,1715716041,959012627,gps,0.019376189337761644,-0.011642047448280879,-0.9365656827951936,0.3497624162604271,"(0.0025803310994419043, 0.0, 0.0, 0.0, 0.0025871631576666193, 0.0, 0.0, 0.0, 0.0163679684926612)",0.00014553807459595082,-0.0004750160428535462,0.0003176403206631336,"(0.001, 0.0, 0.0, 0.0, 0.001, 0.0, 0.0, 0.0, 0.001)",-0.0027386165947889934,0.00318280479318488,0.02289935339450473,"(0.001, 0.0, 0.0, 0.0, 0.001, 0.0, 0.0, 0.0, 0.001)"
2024/05/14/15:47:21.964380,275846,1715716041,962541187,gps,0.019376189337761644,-0.011642047448280879,-0.9365656827951936,0.3497624162604271,"(0.0025803310994419043, 0.0, 0.0, 0.0, 0.0025871631576666193, 0.0, 0.0, 0.0, 0.0163679684926612)",0.0002212487257764357,-0.0005438343937067609,0.00015457159985094696,"(0.001, 0.0, 0.0, 0.0, 0.001, 0.0, 0.0, 0.0, 0.001)",-0.015386696092244627,0.015050584085115025,-0.009003033028315045,"(0.001, 0.0, 0.0, 0.0, 0.001, 0.0, 0.0, 0.0, 0.001)"
2024/05/14/15:47:21.969494,275847,1715716041,969424714,gps,0.019362494395166224,-0.01165340861210783,-0.9365703132788427,0.3497503969451455,"(0.0025803310994419043, 0.0, 0.0, 0.0, 0.0025871631576666193, 0.0, 0.0, 0.0, 0.0163679684926612)",0.001397220161411482,0.00021375460474537923,-0.0007478263298800414,"(0.001, 0.0, 0.0, 0.0, 0.001, 0.0, 0.0, 0.0, 0.001)",-0.007359911356879468,0.00835942806356696,0.019436479195059128,"(0.001, 0.0, 0.0, 0.0, 0.001, 0.0, 0.0, 0.0, 0.001)"
2024/05/14/15:47:21.972174,275848,1715716041,972082645,gps,0.019362494395166224,-0.01165340861210783,-0.9365703132788427,0.3497503969451455,"(0.0025803310994419043, 0.0, 0.0, 0.0, 0.0025871631576666193, 0.0, 0.0, 0.0, 0.0163679684926612)",0.0005436581309049904,-0.00028178665297434567,-0.0008029729773297458,"(0.001, 0.0, 0.0, 0.0, 0.001, 0.0, 0.0, 0.0, 0.001)",-0.002620450281820034,-0.0046861677178487975,0.009029458601943843,"(0.001, 0.0, 0.0, 0.0, 0.001, 0.0, 0.0, 0.0, 0.001)"
2024/05/14/15:47:21.979086,275849,1715716041,979027426,gps,0.01936243879438758,-0.011658248906949407,-0.9365712800665743,0.34974764981457085,"(0.0025803310994419043, 0.0, 0.0, 0.0, 0.0025871631576666193, 0.0, 0.0, 0.0, 0.0163679684926612)",0.0008083765515571589,0.0004952883179279823,-0.00040966641785067793,"(0.001, 0.0, 0.0, 0.0, 0.001, 0.0, 0.0, 0.0, 0.001)",-0.014251186515738696,-0.012510468557052202,0.010370673948825414,"(0.001, 0.0, 0.0, 0.0, 0.001, 0.0, 0.0, 0.0, 0.001)"
2024/05/14/15:47:21.986512,275850,1715716041,986434361,gps,0.01936243879438758,-0.011658248906949407,-0.9365712800665743,0.34974764981457085,"(0.0025803310994419043, 0.0, 0.0, 0.0, 0.0025871631576666193, 0.0, 0.0, 0.0, 0.0163679684926612)",0.0013718361209066725,-0.0003287890326240407,0.00015873117466015224,"(0.001, 0.0, 0.0, 0.0, 0.001, 0.0, 0.0, 0.0, 0.001)",0.005905333354359509,-0.009411766747070645,0.005738701021548562,"(0.001, 0.0, 0.0, 0.0, 0.001, 0.0, 0.0, 0.0, 0.001)"
2024/05/14/15:47:21.992620,275851,1715716041,992519442,gps,0.019361595940090043,-0.01165599633902862,-0.9365699800419215,0.34975125280157576,"(0.0025803310994419043, 0.0, 0.0, 0.0, 0.0025871631576666193, 0.0, 0.0, 0.0, 0.0163679684926612)",0.0002549682975329917,0.00029894126049168166,-8.50329444087341e-05,"(0.001, 0.0, 0.0, 0.0, 0.001, 0.0, 0.0, 0.0, 0.001)",0.0071954666625777845,-0.010939161686393622,0.008786859496889454,"(0.001, 0.0, 0.0, 0.0, 0.001, 0.0, 0.0, 0.0, 0.001)"
2024/05/14/15:47:22.010998,275852,1715716042,10939460,gps,0.019361595940090043,-0.01165599633902862,-0.9365699800419215,0.34975125280157576,"(0.0025803310994419043, 0.0, 0.0, 0.0, 0.0025871631576666193, 0.0, 0.0, 0.0, 0.0163679684926612)",-9.104204891605332e-05,-0.0003887908365534445,-0.00026087648166729904,"(0.001, 0.0, 0.0, 0.0, 0.001, 0.0, 0.0, 0.0, 0.001)",-0.007519963600533064,-0.012337293229204188,-0.012441526235671536,"(0.001, 0.0, 0.0, 0.0, 0.001, 0.0, 0.0, 0.0, 0.001)"
2024/05/14/15:47:22.067540,275853,1715716042,67439279,gps,0.019362297881024008,-0.011648626450179077,-0.9365719621870467,0.34974615161241696,"(0.0025803310994419043, 0.0, 0.0, 0.0, 0.0025871631576666193, 0.0, 0.0, 0.0, 0.0163679684926612)",-3.1636865353173226e-05,-0.00017997782135391872,-0.000353480568825884,"(0.001, 0.0, 0.0, 0.0, 0.001, 0.0, 0.0, 0.0, 0.001)",0.009601664533771922,-0.006768512927482925,-0.00773136233908335,"(0.001, 0.0, 0.0, 0.0, 0.001, 0.0, 0.0, 0.0, 0.001)"
2024/05/14/15:47:22.069838,275854,1715716042,69610433,gps,0.019362297881024008,-0.011648626450179077,-0.9365719621870467,0.34974615161241696,"(0.0025803310994419043, 0.0, 0.0, 0.0, 0.0025871631576666193, 0.0, 0.0, 0.0, 0.0163679684926612)",0.0005151469198083835,-0.0005916238536537115,0.00018474191800015185,"(0.001, 0.0, 0.0, 0.0, 0.001, 0.0, 0.0, 0.0, 0.001)",0.02182812379453793,-0.0025480281070057635,0.010588558147146182,"(0.001, 0.0, 0.0, 0.0, 0.001, 0.0, 0.0, 0.0, 0.001)"
2024/05/14/15:47:22.073315,275855,1715716042,73181422,gps,0.01936977150842665,-0.011656878600697588,-0.9365721552780812,0.3497449457687268,"(0.0025803310994419043, 0.0, 0.0, 0.0, 0.0025871631576666193, 0.0, 0.0, 0.0, 0.0163679684926612)",-0.00050062717911001,0.0008173374356559854,-0.0004315180730850251,"(0.001, 0.0, 0.0, 0.0, 0.001, 0.0, 0.0, 0.0, 0.001)",0.008124980616822633,0.0009052829016732084,-0.009519631442427033,"(0.001, 0.0, 0.0, 0.0, 0.001, 0.0, 0.0, 0.0, 0.001)"
2024/05/14/15:47:22.075172,275856,1715716042,75074198,gps,0.01936977150842665,-0.011656878600697588,-0.9365721552780812,0.3497449457687268,"(0.0025803310994419043, 0.0, 0.0, 0.0, 0.0025871631576666193, 0.0, 0.0, 0.0, 0.0163679684926612)",0.00020390013179130318,0.001059394479025429,-0.0006978841673222704,"(0.001, 0.0, 0.0, 0.0, 0.001, 0.0, 0.0, 0.0, 0.001)",0.015872714700371333,-1.6767910051069256e-05,0.018955125495667056,"(0.001, 0.0, 0.0, 0.0, 0.001, 0.0, 0.0, 0.0, 0.001)"
2024/05/14/15:47:22.079441,275857,1715716042,79353433,gps,0.01937000478766802,-0.011655920765461998,-0.9365724251535951,0.3497442420791925,"(0.0025803310994419043, 0.0, 0.0, 0.0, 0.0025871631576666193, 0.0, 0.0, 0.0, 0.0163679684926612)",-0.00038390061065899663,0.00012648923972794916,-0.00011208559644285181,"(0.001, 0.0, 0.0, 0.0, 0.001, 0.0, 0.0, 0.0, 0.001)",0.014275836570159095,0.0035578013652791244,-0.005669968713951464,"(0.001, 0.0, 0.0, 0.0, 0.001, 0.0, 0.0, 0.0, 0.001)"
2024/05/14/15:47:22.081239,275858,1715716042,81142112,gps,0.01937000478766802,-0.011655920765461998,-0.9365724251535951,0.3497442420791925,"(0.0025803310994419043, 0.0, 0.0, 0.0, 0.0025871631576666193, 0.0, 0.0, 0.0, 0.0163679684926612)",0.0005432864988031629,-4.4138436980884335e-05,0.00047504102281844456,"(0.001, 0.0, 0.0, 0.0, 0.001, 0.0, 0.0, 0.0, 0.001)",-0.0018838876171275833,-0.009324793637031838,0.014862905733356635,"(0.001, 0.0, 0.0, 0.0, 0.001, 0.0, 0.0, 0.0, 0.001)"
2024/05/14/15:47:22.086202,275859,1715716042,86020626,gps,0.01936352003077447,-0.01164553375432227,-0.9365741020746612,0.3497404565654892,"(0.0025803310994419043, 0.0, 0.0, 0.0, 0.0025871631576666193, 0.0, 0.0, 0.0, 0.0163679684926612)",-0.00028801804821048245,-0.0008448545267195712,-0.0005647006576881393,"(0.001, 0.0, 0.0, 0.0, 0.001, 0.0, 0.0, 0.0, 0.001)",0.014318780438024373,0.0026593174425447773,-0.011307837748657774,"(0.001, 0.0, 0.0, 0.0, 0.001, 0.0, 0.0, 0.0, 0.001)"
2024/05/14/15:47:22.087621,275860,1715716042,87558913,gps,0.01936352003077447,-0.01164553375432227,-0.9365741020746612,0.3497404565654892,"(0.0025803310994419043, 0.0, 0.0, 0.0, 0.0025871631576666193, 0.0, 0.0, 0.0, 0.0163679684926612)",-0.00039953392330353116,-0.0003461965769499624,0.00033012428892893,"(0.001, 0.0, 0.0, 0.0, 0.001, 0.0, 0.0, 0.0, 0.001)",0.015588909380045604,-0.0002394297480158011,-0.03590439209194442,"(0.001, 0.0, 0.0, 0.0, 0.001, 0.0, 0.0, 0.0, 0.001)"
2024/05/14/15:47:22.089265,275861,1715716042,89211823,gps,0.019354696558133964,-0.011662215192787756,-0.9365740929248423,0.3497404136212293,"(0.0025803310994419043, 0.0, 0.0, 0.0, 0.0025871631576666193, 0.0, 0.0, 0.0, 0.0163679684926612)",0.0008980051213726113,0.00042568396826795843,-0.0003909382389060088,"(0.001, 0.0, 0.0, 0.0, 0.001, 0.0, 0.0, 0.0, 0.001)",0.01669238111548562,0.0042021910959457115,0.005357232358677238,"(0.001, 0.0, 0.0, 0.0, 0.001, 0.0, 0.0, 0.0, 0.001)"
2024/05/14/15:47:22.092181,275862,1715716042,92121418,gps,0.019354696558133964,-0.011662215192787756,-0.9365740929248423,0.3497404136212293,"(0.0025803310994419043, 0.0, 0.0, 0.0, 0.0025871631576666193, 0.0, 0.0, 0.0, 0.0163679684926612)",0.0006443793601194702,8.260368243412522e-05,0.0006737748250587306,"(0.001, 0.0, 0.0, 0.0, 0.001, 0.0, 0.0, 0.0, 0.001)",0.019410450887567862,0.00880285786122696,0.009343213180887988,"(0.001, 0.0, 0.0, 0.0, 0.001, 0.0, 0.0, 0.0, 0.001)"
2024/05/14/15:47:22.094775,275863,1715716042,94683031,gps,0.019351571286572226,-0.011653719931589767,-0.9365697254963812,0.3497525650858472,"(0.0025803310994419043, 0.0, 0.0, 0.0, 0.0025871631576666193, 0.0, 0.0, 0.0, 0.0163679684926612)",0.0005426151763030112,-0.0004199569135993933,0.0004737121339930216,"(0.001, 0.0, 0.0, 0.0, 0.001, 0.0, 0.0, 0.0, 0.001)",-0.005907715076672723,0.00398887744923373,-0.009732170125331011,"(0.001, 0.0, 0.0, 0.0, 0.001, 0.0, 0.0, 0.0, 0.001)"
