time,.header.seq,.header.stamp.secs,.header.stamp.nsecs,.header.frame_id,.status.status,.status.service,.latitude,.longitude,.altitude,.position_covariance,.position_covariance_type
2024/05/14/15:47:20.633008,137824,1715716040,632090102,gps,0,0,34.81514466587515,-82.32673364581653,281.8527926625684,"(0.9708421744426552, 0.0, 0.0, 0.0, 2.444763144627359, 0.0, 0.0, 0.0, 5.525834863425416)",2
2024/05/14/15:47:20.654387,137825,1715716040,654299983,gps,0,0,34.81514466587515,-82.32673364581653,281.8527926625684,"(0.9708421744426552, 0.0, 0.0, 0.0, 2.444763144627359, 0.0, 0.0, 0.0, 5.525834863425416)",2
2024/05/14/15:47:20.665260,137826,1715716040,665105524,gps,0,0,34.81514507659221,-82.32673373509908,281.85571363568306,"(0.9709733800097098, 0.0, 0.0, 0.0, 2.4464126238317476, 0.0, 0.0, 0.0, 5.525375301681379)",2
2024/05/14/15:47:20.686071,137827,1715716040,685893296,gps,0,0,34.81514507659221,-82.32673373509908,281.85571363568306,"(0.9709733800097098, 0.0, 0.0, 0.0, 2.4464126238317476, 0.0, 0.0, 0.0, 5.525375301681379)",2
2024/05/14/15:47:20.705224,137828,1715716040,705135132,gps,0,0,34.81514507659221,-82.32673373509908,281.85571363568306,"(0.9709733800097098, 0.0, 0.0, 0.0, 2.4464126238317476, 0.0, 0.0, 0.0, 5.525375301681379)",2
2024/05/14/15:47:20.726441,137829,1715716040,726334794,gps,0,0,34.81514507659221,-82.32673373509908,281.85571363568306,"(0.9709733800097098, 0.0, 0.0, 0.0, 2.4464126238317476, 0.0, 0.0, 0.0, 5.525375301681379)",2
2024/05/14/15:47:20.749654,137830,1715716040,749541549,gps,0,0,34.81514507659221,-82.32673373509908,281.85571363568306,"(0.9709733800097098, 0.0, 0.0, 0.0, 2.4464126238317476, 0.0, 0.0, 0.0, 5.525375301681379)",2
2024/05/14/15:47:20.766455,137831,1715716040,766367951,gps,0,0,34.81514517484429,-82.32673379579835,281.8554996168241,"(0.9711478254893713, 0.0, 0.0, 0.0, 2.452242824376313, 0.0, 0.0, 0.0, 5.524006817590873)",2
2024/05/14/15:47:20.785183,137832,1715716040,785054665,gps,0,0,34.81514517484429,-82.32673379579835,281.8554996168241,"(0.9711478254893713, 0.0, 0.0, 0.0, 2.452242824376313, 0.0, 0.0, 0.0, 5.524006817590873)",2
2024/05/14/15:47:20.806369,137833,1715716040,805885576,gps,0,0,34.81514517484429,-82.32673379579835,281.8554996168241,"(0.9711478254893713, 0.0, 0.0, 0.0, 2.452242824376313, 0.0, 0.0, 0.0, 5.524006817590873)",2
2024/05/14/15:47:20.825437,137834,1715716040,825301028,gps,0,0,34.81514517484429,-82.32673379579835,281.8554996168241,"(0.9711478254893713, 0.0, 0.0, 0.0, 2.452242824376313, 0.0, 0.0, 0.0, 5.524006817590873)",2
2024/05/14/15:47:20.887653,137835,1715716040,885974806,gps,0,0,34.81514517484429,-82.32673379579835,281.8554996168241,"(0.9711478254893713, 0.0, 0.0, 0.0, 2.452242824376313, 0.0, 0.0, 0.0, 5.524006817590873)",2
2024/05/14/15:47:20.900628,137836,1715716040,900513529,gps,0,0,34.81514517186935,-82.32673380046386,281.849717579782,"(0.971712031866506, 0.0, 0.0, 0.0, 2.4559819042881372, 0.0, 0.0, 0.0, 5.544574331363265)",2
2024/05/14/15:47:20.905746,137837,1715716040,905563005,gps,0,0,34.81514517186935,-82.32673380046386,281.849717579782,"(0.971712031866506, 0.0, 0.0, 0.0, 2.4559819042881372, 0.0, 0.0, 0.0, 5.544574331363265)",2
2024/05/14/15:47:20.915501,137838,1715716040,915382535,gps,0,0,34.81514517186935,-82.32673380046386,281.849717579782,"(0.971712031866506, 0.0, 0.0, 0.0, 2.4559819042881372, 0.0, 0.0, 0.0, 5.544574331363265)",2
2024/05/14/15:47:20.927508,137839,1715716040,927410313,gps,0,0,34.81514517186935,-82.32673380046386,281.849717579782,"(0.971712031866506, 0.0, 0.0, 0.0, 2.4559819042881372, 0.0, 0.0, 0.0, 5.544574331363265)",2
2024/05/14/15:47:20.947171,137840,1715716040,947079842,gps,0,0,34.81514517186935,-82.32673380046386,281.849717579782,"(0.971712031866506, 0.0, 0.0, 0.0, 2.4559819042881372, 0.0, 0.0, 0.0, 5.544574331363265)",2
2024/05/14/15:47:20.968162,137841,1715716040,967354412,gps,0,0,34.815144933824904,-82.32673370069071,281.84056766796857,"(0.9712707102967535, 0.0, 0.0, 0.0, 2.4462112561488993, 0.0, 0.0, 0.0, 5.543021601279236)",2
2024/05/14/15:47:20.984796,137842,1715716040,984613056,gps,0,0,34.815144933824904,-82.32673370069071,281.84056766796857,"(0.9712707102967535, 0.0, 0.0, 0.0, 2.4462112561488993, 0.0, 0.0, 0.0, 5.543021601279236)",2
2024/05/14/15:47:21.008304,137843,1715716041,8204618,gps,0,0,34.815144933824904,-82.32673370069071,281.84056766796857,"(0.9712707102967535, 0.0, 0.0, 0.0, 2.4462112561488993, 0.0, 0.0, 0.0, 5.543021601279236)",2
2024/05/14/15:47:21.028377,137844,1715716041,28225903,gps,0,0,34.815144933824904,-82.32673370069071,281.84056766796857,"(0.9712707102967535, 0.0, 0.0, 0.0, 2.4462112561488993, 0.0, 0.0, 0.0, 5.543021601279236)",2
2024/05/14/15:47:21.055817,137845,1715716041,55633135,gps,0,0,34.815144933824904,-82.32673370069071,281.84056766796857,"(0.9712707102967535, 0.0, 0.0, 0.0, 2.4462112561488993, 0.0, 0.0, 0.0, 5.543021601279236)",2
2024/05/14/15:47:21.067982,137846,1715716041,67819696,gps,0,0,34.81514480797038,-82.32673366609932,281.8435698132962,"(0.9710358731547473, 0.0, 0.0, 0.0, 2.439575985502472, 0.0, 0.0, 0.0, 5.54245018847746)",2
2024/05/14/15:47:21.085761,137847,1715716041,85584006,gps,0,0,34.81514480797038,-82.32673366609932,281.8435698132962,"(0.9710358731547473, 0.0, 0.0, 0.0, 2.439575985502472, 0.0, 0.0, 0.0, 5.54245018847746)",2
2024/05/14/15:47:21.105691,137848,1715716041,105510881,gps,0,0,34.81514480797038,-82.32673366609932,281.8435698132962,"(0.9710358731547473, 0.0, 0.0, 0.0, 2.439575985502472, 0.0, 0.0, 0.0, 5.54245018847746)",2
2024/05/14/15:47:21.126620,137849,1715716041,126498269,gps,0,0,34.81514480797038,-82.32673366609932,281.8435698132962,"(0.9710358731547473, 0.0, 0.0, 0.0, 2.439575985502472, 0.0, 0.0, 0.0, 5.54245018847746)",2
2024/05/14/15:47:21.149499,137850,1715716041,149321108,gps,0,0,34.81514480797038,-82.32673366609932,281.8435698132962,"(0.9710358731547473, 0.0, 0.0, 0.0, 2.439575985502472, 0.0, 0.0, 0.0, 5.54245018847746)",2
2024/05/14/15:47:21.166766,137851,1715716041,166599420,gps,0,0,34.815144759831,-82.32673365475924,281.84689158480614,"(0.9718734988243263, 0.0, 0.0, 0.0, 2.444179398085055, 0.0, 0.0, 0.0, 5.571633171967733)",2
2024/05/14/15:47:21.185179,137852,1715716041,184927526,gps,0,0,34.815144759831,-82.32673365475924,281.84689158480614,"(0.9718734988243263, 0.0, 0.0, 0.0, 2.444179398085055, 0.0, 0.0, 0.0, 5.571633171967733)",2
2024/05/14/15:47:21.205391,137853,1715716041,205224907,gps,0,0,34.815144759831,-82.32673365475924,281.84689158480614,"(0.9718734988243263, 0.0, 0.0, 0.0, 2.444179398085055, 0.0, 0.0, 0.0, 5.571633171967733)",2
2024/05/14/15:47:21.233973,137854,1715716041,233702178,gps,0,0,34.815144759831,-82.32673365475924,281.84689158480614,"(0.9718734988243263, 0.0, 0.0, 0.0, 2.444179398085055, 0.0, 0.0, 0.0, 5.571633171967733)",2
2024/05/14/15:47:21.255273,137855,1715716041,255015414,gps,0,0,34.815144759831,-82.32673365475924,281.84689158480614,"(0.9718734988243263, 0.0, 0.0, 0.0, 2.444179398085055, 0.0, 0.0, 0.0, 5.571633171967733)",2
2024/05/14/15:47:21.264213,137856,1715716041,264080627,gps,0,0,34.81514473783615,-82.326733650969,281.84323781821877,"(0.9741699186861297, 0.0, 0.0, 0.0, 2.452994071921367, 0.0, 0.0, 0.0, 5.662342073088666)",2
2024/05/14/15:47:21.285879,137857,1715716041,285625908,gps,0,0,34.81514473783615,-82.326733650969,281.84323781821877,"(0.9741699186861297, 0.0, 0.0, 0.0, 2.452994071921367, 0.0, 0.0, 0.0, 5.662342073088666)",2
2024/05/14/15:47:21.305040,137858,1715716041,304891954,gps,0,0,34.81514473783615,-82.326733650969,281.84323781821877,"(0.9741699186861297, 0.0, 0.0, 0.0, 2.452994071921367, 0.0, 0.0, 0.0, 5.662342073088666)",2
2024/05/14/15:47:21.324643,137859,1715716041,324521824,gps,0,0,34.81514473783615,-82.326733650969,281.84323781821877,"(0.9741699186861297, 0.0, 0.0, 0.0, 2.452994071921367, 0.0, 0.0, 0.0, 5.662342073088666)",2
2024/05/14/15:47:21.358526,137860,1715716041,358385586,gps,0,0,34.81514473783615,-82.326733650969,281.84323781821877,"(0.9741699186861297, 0.0, 0.0, 0.0, 2.452994071921367, 0.0, 0.0, 0.0, 5.662342073088666)",2
2024/05/14/15:47:21.366835,137861,1715716041,366730400,gps,0,0,34.81514467865228,-82.326733663372,281.85593059286475,"(0.9705301123131562, 0.0, 0.0, 0.0, 2.4336961530646164, 0.0, 0.0, 0.0, 5.519653677622273)",2
2024/05/14/15:47:21.384447,137862,1715716041,384312501,gps,0,0,34.81514467865228,-82.326733663372,281.85593059286475,"(0.9705301123131562, 0.0, 0.0, 0.0, 2.4336961530646164, 0.0, 0.0, 0.0, 5.519653677622273)",2
2024/05/14/15:47:21.406844,137863,1715716041,406272377,gps,0,0,34.81514467865228,-82.326733663372,281.85593059286475,"(0.9705301123131562, 0.0, 0.0, 0.0, 2.4336961530646164, 0.0, 0.0, 0.0, 5.519653677622273)",2
2024/05/14/15:47:21.425353,137864,1715716041,425192510,gps,0,0,34.81514467865228,-82.326733663372,281.85593059286475,"(0.9705301123131562, 0.0, 0.0, 0.0, 2.4336961530646164, 0.0, 0.0, 0.0, 5.519653677622273)",2
2024/05/14/15:47:21.457669,137865,1715716041,457546059,gps,0,0,34.81514467865228,-82.326733663372,281.85593059286475,"(0.9705301123131562, 0.0, 0.0, 0.0, 2.4336961530646164, 0.0, 0.0, 0.0, 5.519653677622273)",2
2024/05/14/15:47:21.468618,137866,1715716041,468479700,gps,0,0,34.81514412744191,-82.32673350779031,281.8652888927609,"(0.970603161126192, 0.0, 0.0, 0.0, 2.431069475689597, 0.0, 0.0, 0.0, 5.526389725629599)",2
2024/05/14/15:47:21.486144,137867,1715716041,485933126,gps,0,0,34.81514412744191,-82.32673350779031,281.8652888927609,"(0.970603161126192, 0.0, 0.0, 0.0, 2.431069475689597, 0.0, 0.0, 0.0, 5.526389725629599)",2
2024/05/14/15:47:21.504776,137868,1715716041,504639381,gps,0,0,34.81514412744191,-82.32673350779031,281.8652888927609,"(0.970603161126192, 0.0, 0.0, 0.0, 2.431069475689597, 0.0, 0.0, 0.0, 5.526389725629599)",2
2024/05/14/15:47:21.527470,137869,1715716041,527324404,gps,0,0,34.81514412744191,-82.32673350779031,281.8652888927609,"(0.970603161126192, 0.0, 0.0, 0.0, 2.431069475689597, 0.0, 0.0, 0.0, 5.526389725629599)",2
2024/05/14/15:47:21.550662,137870,1715716041,550499568,gps,0,0,34.81514412744191,-82.32673350779031,281.8652888927609,"(0.970603161126192, 0.0, 0.0, 0.0, 2.431069475689597, 0.0, 0.0, 0.0, 5.526389725629599)",2
2024/05/14/15:47:21.564676,137871,1715716041,564516740,gps,0,0,34.815144100625005,-82.32673348696578,281.8583827530965,"(0.9704487283683569, 0.0, 0.0, 0.0, 2.430229045191993, 0.0, 0.0, 0.0, 5.526060167749222)",2
2024/05/14/15:47:21.585462,137872,1715716041,585301591,gps,0,0,34.815144100625005,-82.32673348696578,281.8583827530965,"(0.9704487283683569, 0.0, 0.0, 0.0, 2.430229045191993, 0.0, 0.0, 0.0, 5.526060167749222)",2
2024/05/14/15:47:21.608607,137873,1715716041,608508825,gps,0,0,34.815144100625005,-82.32673348696578,281.8583827530965,"(0.9704487283683569, 0.0, 0.0, 0.0, 2.430229045191993, 0.0, 0.0, 0.0, 5.526060167749222)",2
2024/05/14/15:47:21.631558,137874,1715716041,631448622,gps,0,0,34.815144100625005,-82.32673348696578,281.8583827530965,"(0.9704487283683569, 0.0, 0.0, 0.0, 2.430229045191993, 0.0, 0.0, 0.0, 5.526060167749222)",2
2024/05/14/15:47:21.652343,137875,1715716041,652200936,gps,0,0,34.815144100625005,-82.32673348696578,281.8583827530965,"(0.9704487283683569, 0.0, 0.0, 0.0, 2.430229045191993, 0.0, 0.0, 0.0, 5.526060167749222)",2
2024/05/14/15:47:21.665445,137876,1715716041,665257482,gps,0,0,34.81514402060962,-82.32673345607486,281.85164483077824,"(0.9703888376016643, 0.0, 0.0, 0.0, 2.428983720843135, 0.0, 0.0, 0.0, 5.526284355714836)",2
2024/05/14/15:47:21.684480,137877,1715716041,684308094,gps,0,0,34.81514402060962,-82.32673345607486,281.85164483077824,"(0.9703888376016643, 0.0, 0.0, 0.0, 2.428983720843135, 0.0, 0.0, 0.0, 5.526284355714836)",2
2024/05/14/15:47:21.705803,137878,1715716041,705615987,gps,0,0,34.81514402060962,-82.32673345607486,281.85164483077824,"(0.9703888376016643, 0.0, 0.0, 0.0, 2.428983720843135, 0.0, 0.0, 0.0, 5.526284355714836)",2
2024/05/14/15:47:21.725860,137879,1715716041,725563225,gps,0,0,34.81514402060962,-82.32673345607486,281.85164483077824,"(0.9703888376016643, 0.0, 0.0, 0.0, 2.428983720843135, 0.0, 0.0, 0.0, 5.526284355714836)",2
2024/05/14/15:47:21.749602,137880,1715716041,749513440,gps,0,0,34.81514402060962,-82.32673345607486,281.85164483077824,"(0.9703888376016643, 0.0, 0.0, 0.0, 2.428983720843135, 0.0, 0.0, 0.0, 5.526284355714836)",2
2024/05/14/15:47:21.766581,137881,1715716041,766445988,gps,0,0,34.81514416490393,-82.32673348671491,281.83382911235094,"(0.9727902601216698, 0.0, 0.0, 0.0, 2.438559468446556, 0.0, 0.0, 0.0, 5.617524422451027)",2
2024/05/14/15:47:21.785167,137882,1715716041,784998328,gps,0,0,34.81514416490393,-82.32673348671491,281.83382911235094,"(0.9727902601216698, 0.0, 0.0, 0.0, 2.438559468446556, 0.0, 0.0, 0.0, 5.617524422451027)",2
2024/05/14/15:47:21.807629,137883,1715716041,807535664,gps,0,0,34.81514416490393,-82.32673348671491,281.83382911235094,"(0.9727902601216698, 0.0, 0.0, 0.0, 2.438559468446556, 0.0, 0.0, 0.0, 5.617524422451027)",2
2024/05/14/15:47:21.825776,137884,1715716041,825672695,gps,0,0,34.81514416490393,-82.32673348671491,281.83382911235094,"(0.9727902601216698, 0.0, 0.0, 0.0, 2.438559468446556, 0.0, 0.0, 0.0, 5.617524422451027)",2
2024/05/14/15:47:21.905372,137885,1715716041,905223852,gps,0,0,34.81514416490393,-82.32673348671491,281.83382911235094,"(0.9727902601216698, 0.0, 0.0, 0.0, 2.438559468446556, 0.0, 0.0, 0.0, 5.617524422451027)",2
2024/05/14/15:47:21.929090,137886,1715716041,928984874,gps,0,0,34.815144063245015,-82.32673349229918,281.84120727237314,"(0.9702432285449767, 0.0, 0.0, 0.0, 2.4239161568225995, 0.0, 0.0, 0.0, 5.522927616767447)",2
2024/05/14/15:47:21.938599,137887,1715716041,938475414,gps,0,0,34.815144063245015,-82.32673349229918,281.84120727237314,"(0.9702432285449767, 0.0, 0.0, 0.0, 2.4239161568225995, 0.0, 0.0, 0.0, 5.522927616767447)",2
2024/05/14/15:47:21.968234,137888,1715716041,968135290,gps,0,0,34.815144063245015,-82.32673349229918,281.84120727237314,"(0.9702432285449767, 0.0, 0.0, 0.0, 2.4239161568225995, 0.0, 0.0, 0.0, 5.522927616767447)",2
2024/05/14/15:47:21.977465,137889,1715716041,977321392,gps,0,0,34.815144063245015,-82.32673349229918,281.84120727237314,"(0.9702432285449767, 0.0, 0.0, 0.0, 2.4239161568225995, 0.0, 0.0, 0.0, 5.522927616767447)",2
2024/05/14/15:47:21.990515,137890,1715716041,990427122,gps,0,0,34.815144063245015,-82.32673349229918,281.84120727237314,"(0.9702432285449767, 0.0, 0.0, 0.0, 2.4239161568225995, 0.0, 0.0, 0.0, 5.522927616767447)",2
2024/05/14/15:47:22.066574,137891,1715716042,66230130,gps,0,0,34.81514338157514,-82.32673379432104,282.0089168129489,"(0.9696027958716655, 0.0, 0.0, 0.0, 2.418486802070575, 0.0, 0.0, 0.0, 5.503932816336658)",2
2024/05/14/15:47:22.072483,137892,1715716042,72321137,gps,0,0,34.81514338157514,-82.32673379432104,282.0089168129489,"(0.9696027958716655, 0.0, 0.0, 0.0, 2.418486802070575, 0.0, 0.0, 0.0, 5.503932816336658)",2
2024/05/14/15:47:22.078692,137893,1715716042,78584567,gps,0,0,34.81514338157514,-82.32673379432104,282.0089168129489,"(0.9696027958716655, 0.0, 0.0, 0.0, 2.418486802070575, 0.0, 0.0, 0.0, 5.503932816336658)",2
2024/05/14/15:47:22.083360,137894,1715716042,83232767,gps,0,0,34.81514338157514,-82.32673379432104,282.0089168129489,"(0.9696027958716655, 0.0, 0.0, 0.0, 2.418486802070575, 0.0, 0.0, 0.0, 5.503932816336658)",2
2024/05/14/15:47:22.088741,137895,1715716042,88652749,gps,0,0,34.81514338157514,-82.32673379432104,282.0089168129489,"(0.9696027958716655, 0.0, 0.0, 0.0, 2.418486802070575, 0.0, 0.0, 0.0, 5.503932816336658)",2
2024/05/14/15:47:22.094323,137896,1715716042,94243545,gps,0,0,34.81514336223436,-82.3267337910295,282.0051940372214,"(0.9703426877422316, 0.0, 0.0, 0.0, 2.420957173468196, 0.0, 0.0, 0.0, 5.531274835639351)",2
2024/05/14/15:47:22.098651,137897,1715716042,98581496,gps,0,0,34.81514336223436,-82.3267337910295,282.0051940372214,"(0.9703426877422316, 0.0, 0.0, 0.0, 2.420957173468196, 0.0, 0.0, 0.0, 5.531274835639351)",2
2024/05/14/15:47:22.106827,137898,1715716042,106378265,gps,0,0,34.81514336223436,-82.3267337910295,282.0051940372214,"(0.9703426877422316, 0.0, 0.0, 0.0, 2.420957173468196, 0.0, 0.0, 0.0, 5.531274835639351)",2
2024/05/14/15:47:22.126865,137899,1715716042,126748554,gps,0,0,34.81514336223436,-82.3267337910295,282.0051940372214,"(0.9703426877422316, 0.0, 0.0, 0.0, 2.420957173468196, 0.0, 0.0, 0.0, 5.531274835639351)",2
2024/05/14/15:47:22.153635,137900,1715716042,153473733,gps,0,0,34.81514336223436,-82.3267337910295,282.0051940372214,"(0.9703426877422316, 0.0, 0.0, 0.0, 2.420957173468196, 0.0, 0.0, 0.0, 5.531274835639351)",2
2024/05/14/15:47:22.165785,137901,1715716042,165603873,gps,0,0,34.81514309228966,-82.32673371736686,282.0087620448321,"(0.970112659392445, 0.0, 0.0, 0.0, 2.417713424563672, 0.0, 0.0, 0.0, 5.527618368134938)",2
2024/05/14/15:47:22.185544,137902,1715716042,185419896,gps,0,0,34.81514309228966,-82.32673371736686,282.0087620448321,"(0.970112659392445, 0.0, 0.0, 0.0, 2.417713424563672, 0.0, 0.0, 0.0, 5.527618368134938)",2
2024/05/14/15:47:22.207272,137903,1715716042,207182714,gps,0,0,34.81514309228966,-82.32673371736686,282.0087620448321,"(0.970112659392445, 0.0, 0.0, 0.0, 2.417713424563672, 0.0, 0.0, 0.0, 5.527618368134938)",2
2024/05/14/15:47:22.225936,137904,1715716042,225804267,gps,0,0,34.81514309228966,-82.32673371736686,282.0087620448321,"(0.970112659392445, 0.0, 0.0, 0.0, 2.417713424563672, 0.0, 0.0, 0.0, 5.527618368134938)",2
2024/05/14/15:47:22.255376,137905,1715716042,255153413,gps,0,0,34.81514309228966,-82.32673371736686,282.0087620448321,"(0.970112659392445, 0.0, 0.0, 0.0, 2.417713424563672, 0.0, 0.0, 0.0, 5.527618368134938)",2
2024/05/14/15:47:22.264325,137906,1715716042,264143414,gps,0,0,34.81514307656977,-82.32673373820707,282.0087669286877,"(0.9718537554197191, 0.0, 0.0, 0.0, 2.424501191094407, 0.0, 0.0, 0.0, 5.598740954585594)",2
2024/05/14/15:47:22.286385,137907,1715716042,286283122,gps,0,0,34.81514307656977,-82.32673373820707,282.0087669286877,"(0.9718537554197191, 0.0, 0.0, 0.0, 2.424501191094407, 0.0, 0.0, 0.0, 5.598740954585594)",2
2024/05/14/15:47:22.305269,137908,1715716042,305129814,gps,0,0,34.81514307656977,-82.32673373820707,282.0087669286877,"(0.9718537554197191, 0.0, 0.0, 0.0, 2.424501191094407, 0.0, 0.0, 0.0, 5.598740954585594)",2
2024/05/14/15:47:22.325924,137909,1715716042,325615326,gps,0,0,34.81514307656977,-82.32673373820707,282.0087669286877,"(0.9718537554197191, 0.0, 0.0, 0.0, 2.424501191094407, 0.0, 0.0, 0.0, 5.598740954585594)",2
2024/05/14/15:47:22.356020,137910,1715716042,355838473,gps,0,0,34.81514307656977,-82.32673373820707,282.0087669286877,"(0.9718537554197191, 0.0, 0.0, 0.0, 2.424501191094407, 0.0, 0.0, 0.0, 5.598740954585594)",2
2024/05/14/15:47:22.367294,137911,1715716042,366269510,gps,0,0,34.81514308564329,-82.32673373500342,282.004271754995,"(0.9695040788666951, 0.0, 0.0, 0.0, 2.4145866967737675, 0.0, 0.0, 0.0, 5.502950657353779)",2
2024/05/14/15:47:22.384488,137912,1715716042,384350337,gps,0,0,34.81514308564329,-82.32673373500342,282.004271754995,"(0.9695040788666951, 0.0, 0.0, 0.0, 2.4145866967737675, 0.0, 0.0, 0.0, 5.502950657353779)",2
2024/05/14/15:47:22.407730,137913,1715716042,407559013,gps,0,0,34.81514308564329,-82.32673373500342,282.004271754995,"(0.9695040788666951, 0.0, 0.0, 0.0, 2.4145866967737675, 0.0, 0.0, 0.0, 5.502950657353779)",2
2024/05/14/15:47:22.425398,137914,1715716042,425235945,gps,0,0,34.81514308564329,-82.32673373500342,282.004271754995,"(0.9695040788666951, 0.0, 0.0, 0.0, 2.4145866967737675, 0.0, 0.0, 0.0, 5.502950657353779)",2
2024/05/14/15:47:22.459751,137915,1715716042,457529788,gps,0,0,34.81514308564329,-82.32673373500342,282.004271754995,"(0.9695040788666951, 0.0, 0.0, 0.0, 2.4145866967737675, 0.0, 0.0, 0.0, 5.502950657353779)",2
2024/05/14/15:47:22.466544,137916,1715716042,466433513,gps,0,0,34.815143263820225,-82.32673381665484,281.999835700728,"(0.9701856924938888, 0.0, 0.0, 0.0, 2.41886945833825, 0.0, 0.0, 0.0, 5.530247628523512)",2
2024/05/14/15:47:22.486908,137917,1715716042,486806064,gps,0,0,34.815143263820225,-82.32673381665484,281.999835700728,"(0.9701856924938888, 0.0, 0.0, 0.0, 2.41886945833825, 0.0, 0.0, 0.0, 5.530247628523512)",2
2024/05/14/15:47:22.504245,137918,1715716042,504085319,gps,0,0,34.815143263820225,-82.32673381665484,281.999835700728,"(0.9701856924938888, 0.0, 0.0, 0.0, 2.41886945833825, 0.0, 0.0, 0.0, 5.530247628523512)",2
2024/05/14/15:47:22.527323,137919,1715716042,527114183,gps,0,0,34.815143263820225,-82.32673381665484,281.999835700728,"(0.9701856924938888, 0.0, 0.0, 0.0, 2.41886945833825, 0.0, 0.0, 0.0, 5.530247628523512)",2
2024/05/14/15:47:22.549824,137920,1715716042,549721870,gps,0,0,34.815143263820225,-82.32673381665484,281.999835700728,"(0.9701856924938888, 0.0, 0.0, 0.0, 2.41886945833825, 0.0, 0.0, 0.0, 5.530247628523512)",2
2024/05/14/15:47:22.566127,137921,1715716042,565945905,gps,0,0,34.81514322518896,-82.32673379016903,282.0023619364947,"(0.971863039495716, 0.0, 0.0, 0.0, 2.4244833717494316, 0.0, 0.0, 0.0, 5.601082371642633)",2
2024/05/14/15:47:22.584671,137922,1715716042,584496168,gps,0,0,34.81514322518896,-82.32673379016903,282.0023619364947,"(0.971863039495716, 0.0, 0.0, 0.0, 2.4244833717494316, 0.0, 0.0, 0.0, 5.601082371642633)",2
2024/05/14/15:47:22.608390,137923,1715716042,608303776,gps,0,0,34.81514322518896,-82.32673379016903,282.0023619364947,"(0.971863039495716, 0.0, 0.0, 0.0, 2.4244833717494316, 0.0, 0.0, 0.0, 5.601082371642633)",2
2024/05/14/15:47:22.635668,137924,1715716042,635559509,gps,0,0,34.81514322518896,-82.32673379016903,282.0023619364947,"(0.971863039495716, 0.0, 0.0, 0.0, 2.4244833717494316, 0.0, 0.0, 0.0, 5.601082371642633)",2
2024/05/14/15:47:22.663906,137925,1715716042,657660228,gps,0,0,34.81514322518896,-82.32673379016903,282.0023619364947,"(0.971863039495716, 0.0, 0.0, 0.0, 2.4244833717494316, 0.0, 0.0, 0.0, 5.601082371642633)",2
2024/05/14/15:47:22.665203,137926,1715716042,665107822,gps,0,0,34.8151432822037,-82.3267337801267,281.98012062720954,"(0.9759266621995835, 0.0, 0.0, 0.0, 2.4395778474496552, 0.0, 0.0, 0.0, 5.767290360791094)",2
2024/05/14/15:47:22.684359,137927,1715716042,684238462,gps,0,0,34.8151432822037,-82.3267337801267,281.98012062720954,"(0.9759266621995835, 0.0, 0.0, 0.0, 2.4395778474496552, 0.0, 0.0, 0.0, 5.767290360791094)",2
2024/05/14/15:47:22.706159,137928,1715716042,705995691,gps,0,0,34.8151432822037,-82.3267337801267,281.98012062720954,"(0.9759266621995835, 0.0, 0.0, 0.0, 2.4395778474496552, 0.0, 0.0, 0.0, 5.767290360791094)",2
2024/05/14/15:47:22.726221,137929,1715716042,726108712,gps,0,0,34.8151432822037,-82.3267337801267,281.98012062720954,"(0.9759266621995835, 0.0, 0.0, 0.0, 2.4395778474496552, 0.0, 0.0, 0.0, 5.767290360791094)",2
2024/05/14/15:47:22.752056,137930,1715716042,751904519,gps,0,0,34.8151432822037,-82.3267337801267,281.98012062720954,"(0.9759266621995835, 0.0, 0.0, 0.0, 2.4395778474496552, 0.0, 0.0, 0.0, 5.767290360791094)",2
2024/05/14/15:47:22.767716,137931,1715716042,767571363,gps,0,0,34.81514334037579,-82.32673380951391,281.99476365651935,"(0.9706991152712341, 0.0, 0.0, 0.0, 2.4163130585590267, 0.0, 0.0, 0.0, 5.562101667900606)",2
2024/05/14/15:47:22.785106,137932,1715716042,784934728,gps,0,0,34.81514334037579,-82.32673380951391,281.99476365651935,"(0.9706991152712341, 0.0, 0.0, 0.0, 2.4163130585590267, 0.0, 0.0, 0.0, 5.562101667900606)",2
2024/05/14/15:47:22.805707,137933,1715716042,805499312,gps,0,0,34.81514334037579,-82.32673380951391,281.99476365651935,"(0.9706991152712341, 0.0, 0.0, 0.0, 2.4163130585590267, 0.0, 0.0, 0.0, 5.562101667900606)",2
2024/05/14/15:47:22.825527,137934,1715716042,825332877,gps,0,0,34.81514334037579,-82.32673380951391,281.99476365651935,"(0.9706991152712341, 0.0, 0.0, 0.0, 2.4163130585590267, 0.0, 0.0, 0.0, 5.562101667900606)",2
2024/05/14/15:47:22.888370,137935,1715716042,888270095,gps,0,0,34.81514334037579,-82.32673380951391,281.99476365651935,"(0.9706991152712341, 0.0, 0.0, 0.0, 2.4163130585590267, 0.0, 0.0, 0.0, 5.562101667900606)",2
2024/05/14/15:47:22.928246,137936,1715716042,928161717,gps,0,0,34.81514325922068,-82.32673379996857,281.9947983119637,"(0.9715801888853015, 0.0, 0.0, 0.0, 2.4199894209273367, 0.0, 0.0, 0.0, 5.599025283700087)",2
2024/05/14/15:47:22.959678,137937,1715716042,959315661,gps,0,0,34.81514325922068,-82.32673379996857,281.9947983119637,"(0.9715801888853015, 0.0, 0.0, 0.0, 2.4199894209273367, 0.0, 0.0, 0.0, 5.599025283700087)",2
2024/05/14/15:47:22.971561,137938,1715716042,969321664,gps,0,0,34.81514325922068,-82.32673379996857,281.9947983119637,"(0.9715801888853015, 0.0, 0.0, 0.0, 2.4199894209273367, 0.0, 0.0, 0.0, 5.599025283700087)",2
2024/05/14/15:47:22.981657,137939,1715716042,981531941,gps,0,0,34.81514325922068,-82.32673379996857,281.9947983119637,"(0.9715801888853015, 0.0, 0.0, 0.0, 2.4199894209273367, 0.0, 0.0, 0.0, 5.599025283700087)",2
2024/05/14/15:47:22.990404,137940,1715716042,990309144,gps,0,0,34.81514325922068,-82.32673379996857,281.9947983119637,"(0.9715801888853015, 0.0, 0.0, 0.0, 2.4199894209273367, 0.0, 0.0, 0.0, 5.599025283700087)",2
2024/05/14/15:47:23.059055,137941,1715716043,56972422,gps,0,0,34.81514326398418,-82.32673381763693,281.9995293049142,"(0.969235655066214, 0.0, 0.0, 0.0, 2.4104613442179925, 0.0, 0.0, 0.0, 5.506099916659878)",2
2024/05/14/15:47:23.062086,137942,1715716043,61981722,gps,0,0,34.81514326398418,-82.32673381763693,281.9995293049142,"(0.969235655066214, 0.0, 0.0, 0.0, 2.4104613442179925, 0.0, 0.0, 0.0, 5.506099916659878)",2
2024/05/14/15:47:23.066380,137943,1715716043,66195409,gps,0,0,34.81514326398418,-82.32673381763693,281.9995293049142,"(0.969235655066214, 0.0, 0.0, 0.0, 2.4104613442179925, 0.0, 0.0, 0.0, 5.506099916659878)",2
2024/05/14/15:47:23.069804,137944,1715716043,69702826,gps,0,0,34.81514326398418,-82.32673381763693,281.9995293049142,"(0.969235655066214, 0.0, 0.0, 0.0, 2.4104613442179925, 0.0, 0.0, 0.0, 5.506099916659878)",2
2024/05/14/15:47:23.073199,137945,1715716043,73041754,gps,0,0,34.81514326398418,-82.32673381763693,281.9995293049142,"(0.969235655066214, 0.0, 0.0, 0.0, 2.4104613442179925, 0.0, 0.0, 0.0, 5.506099916659878)",2
2024/05/14/15:47:23.082348,137946,1715716043,82220998,gps,0,0,34.815143422291364,-82.32673383903607,281.98474957607687,"(0.9691830779314756, 0.0, 0.0, 0.0, 2.4055484875435837, 0.0, 0.0, 0.0, 5.509528766709991)",2
2024/05/14/15:47:23.087595,137947,1715716043,87472745,gps,0,0,34.815143422291364,-82.32673383903607,281.98474957607687,"(0.9691830779314756, 0.0, 0.0, 0.0, 2.4055484875435837, 0.0, 0.0, 0.0, 5.509528766709991)",2
2024/05/14/15:47:23.104767,137948,1715716043,104590417,gps,0,0,34.815143422291364,-82.32673383903607,281.98474957607687,"(0.9691830779314756, 0.0, 0.0, 0.0, 2.4055484875435837, 0.0, 0.0, 0.0, 5.509528766709991)",2
2024/05/14/15:47:23.126353,137949,1715716043,126246068,gps,0,0,34.815143422291364,-82.32673383903607,281.98474957607687,"(0.9691830779314756, 0.0, 0.0, 0.0, 2.4055484875435837, 0.0, 0.0, 0.0, 5.509528766709991)",2
2024/05/14/15:47:23.149642,137950,1715716043,149531002,gps,0,0,34.815143422291364,-82.32673383903607,281.98474957607687,"(0.9691830779314756, 0.0, 0.0, 0.0, 2.4055484875435837, 0.0, 0.0, 0.0, 5.509528766709991)",2
2024/05/14/15:47:23.165094,137951,1715716043,164902502,gps,0,0,34.815143427565545,-82.32673388230602,281.99661521147937,"(0.9697076221641545, 0.0, 0.0, 0.0, 2.408370020519456, 0.0, 0.0, 0.0, 5.530539184166855)",2
2024/05/14/15:47:23.185481,137952,1715716043,185316755,gps,0,0,34.815143427565545,-82.32673388230602,281.99661521147937,"(0.9697076221641545, 0.0, 0.0, 0.0, 2.408370020519456, 0.0, 0.0, 0.0, 5.530539184166855)",2
2024/05/14/15:47:23.206969,137953,1715716043,206416562,gps,0,0,34.815143427565545,-82.32673388230602,281.99661521147937,"(0.9697076221641545, 0.0, 0.0, 0.0, 2.408370020519456, 0.0, 0.0, 0.0, 5.530539184166855)",2
2024/05/14/15:47:23.224846,137954,1715716043,224704032,gps,0,0,34.815143427565545,-82.32673388230602,281.99661521147937,"(0.9697076221641545, 0.0, 0.0, 0.0, 2.408370020519456, 0.0, 0.0, 0.0, 5.530539184166855)",2
2024/05/14/15:47:23.257073,137955,1715716043,256438518,gps,0,0,34.815143427565545,-82.32673388230602,281.99661521147937,"(0.9697076221641545, 0.0, 0.0, 0.0, 2.408370020519456, 0.0, 0.0, 0.0, 5.530539184166855)",2
2024/05/14/15:47:23.265277,137956,1715716043,265095546,gps,0,0,34.815143389591796,-82.32673388045153,281.9898016406223,"(0.9704699841632305, 0.0, 0.0, 0.0, 2.4104891063423253, 0.0, 0.0, 0.0, 5.560461029716009)",2
2024/05/14/15:47:23.287456,137957,1715716043,287355796,gps,0,0,34.815143389591796,-82.32673388045153,281.9898016406223,"(0.9704699841632305, 0.0, 0.0, 0.0, 2.4104891063423253, 0.0, 0.0, 0.0, 5.560461029716009)",2
2024/05/14/15:47:23.305399,137958,1715716043,305233416,gps,0,0,34.815143389591796,-82.32673388045153,281.9898016406223,"(0.9704699841632305, 0.0, 0.0, 0.0, 2.4104891063423253, 0.0, 0.0, 0.0, 5.560461029716009)",2
2024/05/14/15:47:23.326283,137959,1715716043,326183947,gps,0,0,34.815143389591796,-82.32673388045153,281.9898016406223,"(0.9704699841632305, 0.0, 0.0, 0.0, 2.4104891063423253, 0.0, 0.0, 0.0, 5.560461029716009)",2
2024/05/14/15:47:23.355003,137960,1715716043,354857084,gps,0,0,34.815143389591796,-82.32673388045153,281.9898016406223,"(0.9704699841632305, 0.0, 0.0, 0.0, 2.4104891063423253, 0.0, 0.0, 0.0, 5.560461029716009)",2
2024/05/14/15:47:23.367365,137961,1715716043,365852775,gps,0,0,34.81514330421501,-82.32673386417174,281.99795694928616,"(0.9693423393937941, 0.0, 0.0, 0.0, 2.4076563434355194, 0.0, 0.0, 0.0, 5.513305765182167)",2
2024/05/14/15:47:23.384566,137962,1715716043,384368280,gps,0,0,34.81514330421501,-82.32673386417174,281.99795694928616,"(0.9693423393937941, 0.0, 0.0, 0.0, 2.4076563434355194, 0.0, 0.0, 0.0, 5.513305765182167)",2
2024/05/14/15:47:23.405708,137963,1715716043,405536204,gps,0,0,34.81514330421501,-82.32673386417174,281.99795694928616,"(0.9693423393937941, 0.0, 0.0, 0.0, 2.4076563434355194, 0.0, 0.0, 0.0, 5.513305765182167)",2
2024/05/14/15:47:23.425256,137964,1715716043,425089440,gps,0,0,34.81514330421501,-82.32673386417174,281.99795694928616,"(0.9693423393937941, 0.0, 0.0, 0.0, 2.4076563434355194, 0.0, 0.0, 0.0, 5.513305765182167)",2
2024/05/14/15:47:23.452204,137965,1715716043,452037915,gps,0,0,34.81514330421501,-82.32673386417174,281.99795694928616,"(0.9693423393937941, 0.0, 0.0, 0.0, 2.4076563434355194, 0.0, 0.0, 0.0, 5.513305765182167)",2
2024/05/14/15:47:23.467638,137966,1715716043,465417235,gps,0,0,34.81514332894439,-82.3267338916127,281.99881881661713,"(0.9698480254926132, 0.0, 0.0, 0.0, 2.410207420739482, 0.0, 0.0, 0.0, 5.531032603532594)",2
2024/05/14/15:47:23.486396,137967,1715716043,486236242,gps,0,0,34.81514332894439,-82.3267338916127,281.99881881661713,"(0.9698480254926132, 0.0, 0.0, 0.0, 2.410207420739482, 0.0, 0.0, 0.0, 5.531032603532594)",2
2024/05/14/15:47:23.506742,137968,1715716043,506177502,gps,0,0,34.81514332894439,-82.3267338916127,281.99881881661713,"(0.9698480254926132, 0.0, 0.0, 0.0, 2.410207420739482, 0.0, 0.0, 0.0, 5.531032603532594)",2
2024/05/14/15:47:23.524734,137969,1715716043,524557356,gps,0,0,34.81514332894439,-82.3267338916127,281.99881881661713,"(0.9698480254926132, 0.0, 0.0, 0.0, 2.410207420739482, 0.0, 0.0, 0.0, 5.531032603532594)",2
2024/05/14/15:47:23.551658,137970,1715716043,551481683,gps,0,0,34.81514332894439,-82.3267338916127,281.99881881661713,"(0.9698480254926132, 0.0, 0.0, 0.0, 2.410207420739482, 0.0, 0.0, 0.0, 5.531032603532594)",2
2024/05/14/15:47:23.565996,137971,1715716043,565845214,gps,0,0,34.81514341121478,-82.32673388710728,281.9796440163627,"(0.97162272548292, 0.0, 0.0, 0.0, 2.4186558790144232, 0.0, 0.0, 0.0, 5.599811739524739)",2
2024/05/14/15:47:23.585341,137972,1715716043,585178655,gps,0,0,34.81514341121478,-82.32673388710728,281.9796440163627,"(0.97162272548292, 0.0, 0.0, 0.0, 2.4186558790144232, 0.0, 0.0, 0.0, 5.599811739524739)",2
2024/05/14/15:47:23.613712,137973,1715716043,613526310,gps,0,0,34.81514341121478,-82.32673388710728,281.9796440163627,"(0.97162272548292, 0.0, 0.0, 0.0, 2.4186558790144232, 0.0, 0.0, 0.0, 5.599811739524739)",2
2024/05/14/15:47:23.633034,137974,1715716043,632895161,gps,0,0,34.81514341121478,-82.32673388710728,281.9796440163627,"(0.97162272548292, 0.0, 0.0, 0.0, 2.4186558790144232, 0.0, 0.0, 0.0, 5.599811739524739)",2
2024/05/14/15:47:23.655698,137975,1715716043,655516852,gps,0,0,34.81514341121478,-82.32673388710728,281.9796440163627,"(0.97162272548292, 0.0, 0.0, 0.0, 2.4186558790144232, 0.0, 0.0, 0.0, 5.599811739524739)",2
2024/05/14/15:47:23.665212,137976,1715716043,665017053,gps,0,0,34.815143393923925,-82.32673391106785,281.9893436739221,"(0.96932790321722, 0.0, 0.0, 0.0, 2.405655725860939, 0.0, 0.0, 0.0, 5.511607411012903)",2
2024/05/14/15:47:23.685879,137977,1715716043,685649161,gps,0,0,34.815143393923925,-82.32673391106785,281.9893436739221,"(0.96932790321722, 0.0, 0.0, 0.0, 2.405655725860939, 0.0, 0.0, 0.0, 5.511607411012903)",2
2024/05/14/15:47:23.710593,137978,1715716043,710469257,gps,0,0,34.815143393923925,-82.32673391106785,281.9893436739221,"(0.96932790321722, 0.0, 0.0, 0.0, 2.405655725860939, 0.0, 0.0, 0.0, 5.511607411012903)",2
2024/05/14/15:47:23.726980,137979,1715716043,726852949,gps,0,0,34.815143393923925,-82.32673391106785,281.9893436739221,"(0.96932790321722, 0.0, 0.0, 0.0, 2.405655725860939, 0.0, 0.0, 0.0, 5.511607411012903)",2
2024/05/14/15:47:23.755265,137980,1715716043,755046990,gps,0,0,34.815143393923925,-82.32673391106785,281.9893436739221,"(0.96932790321722, 0.0, 0.0, 0.0, 2.405655725860939, 0.0, 0.0, 0.0, 5.511607411012903)",2
2024/05/14/15:47:23.765810,137981,1715716043,765631488,gps,0,0,34.815143341673675,-82.32673389078538,281.9841140117496,"(0.9696221642447576, 0.0, 0.0, 0.0, 2.4062407714569787, 0.0, 0.0, 0.0, 5.52755558747009)",2
2024/05/14/15:47:23.785578,137982,1715716043,785390691,gps,0,0,34.815143341673675,-82.32673389078538,281.9841140117496,"(0.9696221642447576, 0.0, 0.0, 0.0, 2.4062407714569787, 0.0, 0.0, 0.0, 5.52755558747009)",2
2024/05/14/15:47:23.806010,137983,1715716043,805817206,gps,0,0,34.815143341673675,-82.32673389078538,281.9841140117496,"(0.9696221642447576, 0.0, 0.0, 0.0, 2.4062407714569787, 0.0, 0.0, 0.0, 5.52755558747009)",2
2024/05/14/15:47:23.825608,137984,1715716043,825472942,gps,0,0,34.815143341673675,-82.32673389078538,281.9841140117496,"(0.9696221642447576, 0.0, 0.0, 0.0, 2.4062407714569787, 0.0, 0.0, 0.0, 5.52755558747009)",2
2024/05/14/15:47:23.928497,137985,1715716043,928363618,gps,0,0,34.815143341673675,-82.32673389078538,281.9841140117496,"(0.9696221642447576, 0.0, 0.0, 0.0, 2.4062407714569787, 0.0, 0.0, 0.0, 5.52755558747009)",2
2024/05/14/15:47:23.974559,137986,1715716043,974439776,gps,0,0,34.815143733752386,-82.32673399084823,281.96664804778993,"(0.9697572787014366, 0.0, 0.0, 0.0, 2.410192985258405, 0.0, 0.0, 0.0, 5.5244797716318885)",2
2024/05/14/15:47:23.986910,137987,1715716043,986824513,gps,0,0,34.815143733752386,-82.32673399084823,281.96664804778993,"(0.9697572787014366, 0.0, 0.0, 0.0, 2.410192985258405, 0.0, 0.0, 0.0, 5.5244797716318885)",2
2024/05/14/15:47:24.011696,137988,1715716044,9969759,gps,0,0,34.815143733752386,-82.32673399084823,281.96664804778993,"(0.9697572787014366, 0.0, 0.0, 0.0, 2.410192985258405, 0.0, 0.0, 0.0, 5.5244797716318885)",2
2024/05/14/15:47:24.056614,137989,1715716044,56202031,gps,0,0,34.815143733752386,-82.32673399084823,281.96664804778993,"(0.9697572787014366, 0.0, 0.0, 0.0, 2.410192985258405, 0.0, 0.0, 0.0, 5.5244797716318885)",2
2024/05/14/15:47:24.067159,137990,1715716044,67036986,gps,0,0,34.815143733752386,-82.32673399084823,281.96664804778993,"(0.9697572787014366, 0.0, 0.0, 0.0, 2.410192985258405, 0.0, 0.0, 0.0, 5.5244797716318885)",2
2024/05/14/15:47:24.078176,137991,1715716044,75557047,gps,0,0,34.81514371318505,-82.32673396653608,281.9674551282078,"(0.9696429414418617, 0.0, 0.0, 0.0, 2.4083567005385618, 0.0, 0.0, 0.0, 5.522448005798651)",2
2024/05/14/15:47:24.081420,137992,1715716044,81314382,gps,0,0,34.81514371318505,-82.32673396653608,281.9674551282078,"(0.9696429414418617, 0.0, 0.0, 0.0, 2.4083567005385618, 0.0, 0.0, 0.0, 5.522448005798651)",2
2024/05/14/15:47:24.088341,137993,1715716044,88249800,gps,0,0,34.81514371318505,-82.32673396653608,281.9674551282078,"(0.9696429414418617, 0.0, 0.0, 0.0, 2.4083567005385618, 0.0, 0.0, 0.0, 5.522448005798651)",2
2024/05/14/15:47:24.091980,137994,1715716044,91889966,gps,0,0,34.81514371318505,-82.32673396653608,281.9674551282078,"(0.9696429414418617, 0.0, 0.0, 0.0, 2.4083567005385618, 0.0, 0.0, 0.0, 5.522448005798651)",2
2024/05/14/15:47:24.096525,137995,1715716044,96435639,gps,0,0,34.81514371318505,-82.32673396653608,281.9674551282078,"(0.9696429414418617, 0.0, 0.0, 0.0, 2.4083567005385618, 0.0, 0.0, 0.0, 5.522448005798651)",2
2024/05/14/15:47:24.104416,137996,1715716044,103647513,gps,0,0,34.81514373165332,-82.32673396264197,281.9582099923864,"(0.9697504699284423, 0.0, 0.0, 0.0, 2.4109832989052506, 0.0, 0.0, 0.0, 5.522480502145811)",2
2024/05/14/15:47:24.113711,137997,1715716044,113169409,gps,0,0,34.81514373165332,-82.32673396264197,281.9582099923864,"(0.9697504699284423, 0.0, 0.0, 0.0, 2.4109832989052506, 0.0, 0.0, 0.0, 5.522480502145811)",2
2024/05/14/15:47:24.119177,137998,1715716044,119072932,gps,0,0,34.81514373165332,-82.32673396264197,281.9582099923864,"(0.9697504699284423, 0.0, 0.0, 0.0, 2.4109832989052506, 0.0, 0.0, 0.0, 5.522480502145811)",2
2024/05/14/15:47:24.127339,137999,1715716044,127159080,gps,0,0,34.81514373165332,-82.32673396264197,281.9582099923864,"(0.9697504699284423, 0.0, 0.0, 0.0, 2.4109832989052506, 0.0, 0.0, 0.0, 5.522480502145811)",2
2024/05/14/15:47:24.150153,138000,1715716044,149956186,gps,0,0,34.81514373165332,-82.32673396264197,281.9582099923864,"(0.9697504699284423, 0.0, 0.0, 0.0, 2.4109832989052506, 0.0, 0.0, 0.0, 5.522480502145811)",2
2024/05/14/15:47:24.167604,138001,1715716044,167408163,gps,0,0,34.81514369716287,-82.32673395917422,281.95322622265667,"(0.9704870124541323, 0.0, 0.0, 0.0, 2.412769477621225, 0.0, 0.0, 0.0, 5.553010923792101)",2
2024/05/14/15:47:24.185416,138002,1715716044,185298773,gps,0,0,34.81514369716287,-82.32673395917422,281.95322622265667,"(0.9704870124541323, 0.0, 0.0, 0.0, 2.412769477621225, 0.0, 0.0, 0.0, 5.553010923792101)",2
2024/05/14/15:47:24.207880,138003,1715716044,207797924,gps,0,0,34.81514369716287,-82.32673395917422,281.95322622265667,"(0.9704870124541323, 0.0, 0.0, 0.0, 2.412769477621225, 0.0, 0.0, 0.0, 5.553010923792101)",2
2024/05/14/15:47:24.224856,138004,1715716044,224693883,gps,0,0,34.81514369716287,-82.32673395917422,281.95322622265667,"(0.9704870124541323, 0.0, 0.0, 0.0, 2.412769477621225, 0.0, 0.0, 0.0, 5.553010923792101)",2
2024/05/14/15:47:24.255437,138005,1715716044,255311055,gps,0,0,34.81514369716287,-82.32673395917422,281.95322622265667,"(0.9704870124541323, 0.0, 0.0, 0.0, 2.412769477621225, 0.0, 0.0, 0.0, 5.553010923792101)",2
2024/05/14/15:47:24.265483,138006,1715716044,265400538,gps,0,0,34.81514369962512,-82.32673396835081,281.9617613218725,"(0.9692405842457106, 0.0, 0.0, 0.0, 2.4070589190746574, 0.0, 0.0, 0.0, 5.502748195839558)",2
2024/05/14/15:47:24.286805,138007,1715716044,286730870,gps,0,0,34.81514369962512,-82.32673396835081,281.9617613218725,"(0.9692405842457106, 0.0, 0.0, 0.0, 2.4070589190746574, 0.0, 0.0, 0.0, 5.502748195839558)",2
2024/05/14/15:47:24.309489,138008,1715716044,309402021,gps,0,0,34.81514369962512,-82.32673396835081,281.9617613218725,"(0.9692405842457106, 0.0, 0.0, 0.0, 2.4070589190746574, 0.0, 0.0, 0.0, 5.502748195839558)",2
2024/05/14/15:47:24.325711,138009,1715716044,325561475,gps,0,0,34.81514369962512,-82.32673396835081,281.9617613218725,"(0.9692405842457106, 0.0, 0.0, 0.0, 2.4070589190746574, 0.0, 0.0, 0.0, 5.502748195839558)",2
2024/05/14/15:47:24.355632,138010,1715716044,355516529,gps,0,0,34.81514369962512,-82.32673396835081,281.9617613218725,"(0.9692405842457106, 0.0, 0.0, 0.0, 2.4070589190746574, 0.0, 0.0, 0.0, 5.502748195839558)",2
2024/05/14/15:47:24.367014,138011,1715716044,366458297,gps,0,0,34.81514366456308,-82.32673395959587,281.9543228717521,"(0.9697624439934458, 0.0, 0.0, 0.0, 2.4081343362979624, 0.0, 0.0, 0.0, 5.5270881069454845)",2
2024/05/14/15:47:24.385193,138012,1715716044,385068460,gps,0,0,34.81514366456308,-82.32673395959587,281.9543228717521,"(0.9697624439934458, 0.0, 0.0, 0.0, 2.4081343362979624, 0.0, 0.0, 0.0, 5.5270881069454845)",2
2024/05/14/15:47:24.407541,138013,1715716044,407443501,gps,0,0,34.81514366456308,-82.32673395959587,281.9543228717521,"(0.9697624439934458, 0.0, 0.0, 0.0, 2.4081343362979624, 0.0, 0.0, 0.0, 5.5270881069454845)",2
2024/05/14/15:47:24.425399,138014,1715716044,425231140,gps,0,0,34.81514366456308,-82.32673395959587,281.9543228717521,"(0.9697624439934458, 0.0, 0.0, 0.0, 2.4081343362979624, 0.0, 0.0, 0.0, 5.5270881069454845)",2
2024/05/14/15:47:24.463729,138015,1715716044,461339738,gps,0,0,34.81514366456308,-82.32673395959587,281.9543228717521,"(0.9697624439934458, 0.0, 0.0, 0.0, 2.4081343362979624, 0.0, 0.0, 0.0, 5.5270881069454845)",2
2024/05/14/15:47:24.467383,138016,1715716044,467267625,gps,0,0,34.81514374650341,-82.3267339890905,281.9476226521656,"(0.9704480237603583, 0.0, 0.0, 0.0, 2.410356589908602, 0.0, 0.0, 0.0, 5.5570512108715775)",2
2024/05/14/15:47:24.486607,138017,1715716044,486424364,gps,0,0,34.81514374650341,-82.3267339890905,281.9476226521656,"(0.9704480237603583, 0.0, 0.0, 0.0, 2.410356589908602, 0.0, 0.0, 0.0, 5.5570512108715775)",2
2024/05/14/15:47:24.505245,138018,1715716044,505110637,gps,0,0,34.81514374650341,-82.3267339890905,281.9476226521656,"(0.9704480237603583, 0.0, 0.0, 0.0, 2.410356589908602, 0.0, 0.0, 0.0, 5.5570512108715775)",2
2024/05/14/15:47:24.527364,138019,1715716044,527198041,gps,0,0,34.81514374650341,-82.3267339890905,281.9476226521656,"(0.9704480237603583, 0.0, 0.0, 0.0, 2.410356589908602, 0.0, 0.0, 0.0, 5.5570512108715775)",2
2024/05/14/15:47:24.549809,138020,1715716044,549649180,gps,0,0,34.81514374650341,-82.3267339890905,281.9476226521656,"(0.9704480237603583, 0.0, 0.0, 0.0, 2.410356589908602, 0.0, 0.0, 0.0, 5.5570512108715775)",2
2024/05/14/15:47:24.564559,138021,1715716044,564389627,gps,0,0,34.815143735949576,-82.32673397594112,281.93569467030466,"(0.9713924279602146, 0.0, 0.0, 0.0, 2.416445368006862, 0.0, 0.0, 0.0, 5.5956589293355705)",2
2024/05/14/15:47:24.585531,138022,1715716044,585404401,gps,0,0,34.815143735949576,-82.32673397594112,281.93569467030466,"(0.9713924279602146, 0.0, 0.0, 0.0, 2.416445368006862, 0.0, 0.0, 0.0, 5.5956589293355705)",2
2024/05/14/15:47:24.606749,138023,1715716044,606573736,gps,0,0,34.815143735949576,-82.32673397594112,281.93569467030466,"(0.9713924279602146, 0.0, 0.0, 0.0, 2.416445368006862, 0.0, 0.0, 0.0, 5.5956589293355705)",2
2024/05/14/15:47:24.638304,138024,1715716044,638222392,gps,0,0,34.815143735949576,-82.32673397594112,281.93569467030466,"(0.9713924279602146, 0.0, 0.0, 0.0, 2.416445368006862, 0.0, 0.0, 0.0, 5.5956589293355705)",2
2024/05/14/15:47:24.655318,138025,1715716044,655156286,gps,0,0,34.815143735949576,-82.32673397594112,281.93569467030466,"(0.9713924279602146, 0.0, 0.0, 0.0, 2.416445368006862, 0.0, 0.0, 0.0, 5.5956589293355705)",2
2024/05/14/15:47:24.665140,138026,1715716044,664998117,gps,0,0,34.815143700164775,-82.32673396205519,281.9347598180175,"(0.9691116081758686, 0.0, 0.0, 0.0, 2.404828203834782, 0.0, 0.0, 0.0, 5.505689287201733)",2
2024/05/14/15:47:24.686018,138027,1715716044,685924932,gps,0,0,34.815143700164775,-82.32673396205519,281.9347598180175,"(0.9691116081758686, 0.0, 0.0, 0.0, 2.404828203834782, 0.0, 0.0, 0.0, 5.505689287201733)",2
2024/05/14/15:47:24.705541,138028,1715716044,705399464,gps,0,0,34.815143700164775,-82.32673396205519,281.9347598180175,"(0.9691116081758686, 0.0, 0.0, 0.0, 2.404828203834782, 0.0, 0.0, 0.0, 5.505689287201733)",2
2024/05/14/15:47:24.727157,138029,1715716044,726934138,gps,0,0,34.815143700164775,-82.32673396205519,281.9347598180175,"(0.9691116081758686, 0.0, 0.0, 0.0, 2.404828203834782, 0.0, 0.0, 0.0, 5.505689287201733)",2
2024/05/14/15:47:24.751634,138030,1715716044,751474465,gps,0,0,34.815143700164775,-82.32673396205519,281.9347598180175,"(0.9691116081758686, 0.0, 0.0, 0.0, 2.404828203834782, 0.0, 0.0, 0.0, 5.505689287201733)",2
2024/05/14/15:47:24.766738,138031,1715716044,766648352,gps,0,0,34.815143704083894,-82.32673397355538,281.934798697941,"(0.9691259253870932, 0.0, 0.0, 0.0, 2.403648547080195, 0.0, 0.0, 0.0, 5.505079525115434)",2
2024/05/14/15:47:24.785372,138032,1715716044,785193757,gps,0,0,34.815143704083894,-82.32673397355538,281.934798697941,"(0.9691259253870932, 0.0, 0.0, 0.0, 2.403648547080195, 0.0, 0.0, 0.0, 5.505079525115434)",2
2024/05/14/15:47:24.808207,138033,1715716044,808097261,gps,0,0,34.815143704083894,-82.32673397355538,281.934798697941,"(0.9691259253870932, 0.0, 0.0, 0.0, 2.403648547080195, 0.0, 0.0, 0.0, 5.505079525115434)",2
2024/05/14/15:47:24.824764,138034,1715716044,824612632,gps,0,0,34.815143704083894,-82.32673397355538,281.934798697941,"(0.9691259253870932, 0.0, 0.0, 0.0, 2.403648547080195, 0.0, 0.0, 0.0, 5.505079525115434)",2
2024/05/14/15:47:24.905698,138035,1715716044,905419699,gps,0,0,34.815143704083894,-82.32673397355538,281.934798697941,"(0.9691259253870932, 0.0, 0.0, 0.0, 2.403648547080195, 0.0, 0.0, 0.0, 5.505079525115434)",2
2024/05/14/15:47:24.932285,138036,1715716044,932130928,gps,0,0,34.815143433482135,-82.32673390896791,281.9365474395454,"(0.9702398233026202, 0.0, 0.0, 0.0, 2.405562539324947, 0.0, 0.0, 0.0, 5.555215760653539)",2
2024/05/14/15:47:24.955510,138037,1715716044,955268150,gps,0,0,34.815143433482135,-82.32673390896791,281.9365474395454,"(0.9702398233026202, 0.0, 0.0, 0.0, 2.405562539324947, 0.0, 0.0, 0.0, 5.555215760653539)",2
2024/05/14/15:47:24.978377,138038,1715716044,978264973,gps,0,0,34.815143433482135,-82.32673390896791,281.9365474395454,"(0.9702398233026202, 0.0, 0.0, 0.0, 2.405562539324947, 0.0, 0.0, 0.0, 5.555215760653539)",2
2024/05/14/15:47:24.998355,138039,1715716044,998239309,gps,0,0,34.815143433482135,-82.32673390896791,281.9365474395454,"(0.9702398233026202, 0.0, 0.0, 0.0, 2.405562539324947, 0.0, 0.0, 0.0, 5.555215760653539)",2
2024/05/14/15:47:25.070431,138040,1715716045,70314139,gps,0,0,34.815143433482135,-82.32673390896791,281.9365474395454,"(0.9702398233026202, 0.0, 0.0, 0.0, 2.405562539324947, 0.0, 0.0, 0.0, 5.555215760653539)",2
2024/05/14/15:47:25.075691,138041,1715716045,75549363,gps,0,0,34.81514334898174,-82.32673386951564,281.92437111306936,"(0.9711708511137864, 0.0, 0.0, 0.0, 2.410187433161809, 0.0, 0.0, 0.0, 5.594745314802424)",2
2024/05/14/15:47:25.080566,138042,1715716045,80458542,gps,0,0,34.81514334898174,-82.32673386951564,281.92437111306936,"(0.9711708511137864, 0.0, 0.0, 0.0, 2.410187433161809, 0.0, 0.0, 0.0, 5.594745314802424)",2
2024/05/14/15:47:25.087615,138043,1715716045,87463995,gps,0,0,34.81514334898174,-82.32673386951564,281.92437111306936,"(0.9711708511137864, 0.0, 0.0, 0.0, 2.410187433161809, 0.0, 0.0, 0.0, 5.594745314802424)",2
2024/05/14/15:47:25.091638,138044,1715716045,91505006,gps,0,0,34.81514334898174,-82.32673386951564,281.92437111306936,"(0.9711708511137864, 0.0, 0.0, 0.0, 2.410187433161809, 0.0, 0.0, 0.0, 5.594745314802424)",2
2024/05/14/15:47:25.095247,138045,1715716045,95117668,gps,0,0,34.81514334898174,-82.32673386951564,281.92437111306936,"(0.9711708511137864, 0.0, 0.0, 0.0, 2.410187433161809, 0.0, 0.0, 0.0, 5.594745314802424)",2
2024/05/14/15:47:25.106819,138046,1715716045,106620026,gps,0,0,34.81514325039983,-82.32673381288146,281.91922960057855,"(0.9690561006436837, 0.0, 0.0, 0.0, 2.401944082951161, 0.0, 0.0, 0.0, 5.50148988596726)",2
2024/05/14/15:47:25.112688,138047,1715716045,112538668,gps,0,0,34.81514325039983,-82.32673381288146,281.91922960057855,"(0.9690561006436837, 0.0, 0.0, 0.0, 2.401944082951161, 0.0, 0.0, 0.0, 5.50148988596726)",2
2024/05/14/15:47:25.116137,138048,1715716045,116047648,gps,0,0,34.81514325039983,-82.32673381288146,281.91922960057855,"(0.9690561006436837, 0.0, 0.0, 0.0, 2.401944082951161, 0.0, 0.0, 0.0, 5.50148988596726)",2
2024/05/14/15:47:25.126850,138049,1715716045,126729899,gps,0,0,34.81514325039983,-82.32673381288146,281.91922960057855,"(0.9690561006436837, 0.0, 0.0, 0.0, 2.401944082951161, 0.0, 0.0, 0.0, 5.50148988596726)",2
2024/05/14/15:47:25.151142,138050,1715716045,150996781,gps,0,0,34.81514325039983,-82.32673381288146,281.91922960057855,"(0.9690561006436837, 0.0, 0.0, 0.0, 2.401944082951161, 0.0, 0.0, 0.0, 5.50148988596726)",2
2024/05/14/15:47:25.164666,138051,1715716045,164518628,gps,0,0,34.81514362318861,-82.32673386550059,281.9285841388628,"(0.9686576196714327, 0.0, 0.0, 0.0, 2.4106127422773085, 0.0, 0.0, 0.0, 5.49624009267427)",2
2024/05/14/15:47:25.185623,138052,1715716045,185375361,gps,0,0,34.81514362318861,-82.32673386550059,281.9285841388628,"(0.9686576196714327, 0.0, 0.0, 0.0, 2.4106127422773085, 0.0, 0.0, 0.0, 5.49624009267427)",2
2024/05/14/15:47:25.205718,138053,1715716045,205593099,gps,0,0,34.81514362318861,-82.32673386550059,281.9285841388628,"(0.9686576196714327, 0.0, 0.0, 0.0, 2.4106127422773085, 0.0, 0.0, 0.0, 5.49624009267427)",2
2024/05/14/15:47:25.227292,138054,1715716045,226983681,gps,0,0,34.81514362318861,-82.32673386550059,281.9285841388628,"(0.9686576196714327, 0.0, 0.0, 0.0, 2.4106127422773085, 0.0, 0.0, 0.0, 5.49624009267427)",2
2024/05/14/15:47:25.255097,138055,1715716045,254958285,gps,0,0,34.81514362318861,-82.32673386550059,281.9285841388628,"(0.9686576196714327, 0.0, 0.0, 0.0, 2.4106127422773085, 0.0, 0.0, 0.0, 5.49624009267427)",2
2024/05/14/15:47:25.265402,138056,1715716045,265218252,gps,0,0,34.81514334823592,-82.32673371020914,281.9316355967894,"(0.9688085071250185, 0.0, 0.0, 0.0, 2.4061538606911768, 0.0, 0.0, 0.0, 5.493967637003209)",2
2024/05/14/15:47:25.284656,138057,1715716045,284471327,gps,0,0,34.81514334823592,-82.32673371020914,281.9316355967894,"(0.9688085071250185, 0.0, 0.0, 0.0, 2.4061538606911768, 0.0, 0.0, 0.0, 5.493967637003209)",2
2024/05/14/15:47:25.307665,138058,1715716045,307522800,gps,0,0,34.81514334823592,-82.32673371020914,281.9316355967894,"(0.9688085071250185, 0.0, 0.0, 0.0, 2.4061538606911768, 0.0, 0.0, 0.0, 5.493967637003209)",2
2024/05/14/15:47:25.326109,138059,1715716045,325834036,gps,0,0,34.81514334823592,-82.32673371020914,281.9316355967894,"(0.9688085071250185, 0.0, 0.0, 0.0, 2.4061538606911768, 0.0, 0.0, 0.0, 5.493967637003209)",2
2024/05/14/15:47:25.359629,138060,1715716045,359484472,gps,0,0,34.81514334823592,-82.32673371020914,281.9316355967894,"(0.9688085071250185, 0.0, 0.0, 0.0, 2.4061538606911768, 0.0, 0.0, 0.0, 5.493967637003209)",2
2024/05/14/15:47:25.368479,138061,1715716045,368377333,gps,0,0,34.815143643712354,-82.3267340801918,281.9966872148216,"(0.9813870646259062, 0.0, 0.0, 0.0, 2.435417053146253, 0.0, 0.0, 0.0, 5.531493521958112)",2
2024/05/14/15:47:25.385493,138062,1715716045,385299220,gps,0,0,34.815143643712354,-82.3267340801918,281.9966872148216,"(0.9813870646259062, 0.0, 0.0, 0.0, 2.435417053146253, 0.0, 0.0, 0.0, 5.531493521958112)",2
2024/05/14/15:47:25.405482,138063,1715716045,405356716,gps,0,0,34.815143643712354,-82.3267340801918,281.9966872148216,"(0.9813870646259062, 0.0, 0.0, 0.0, 2.435417053146253, 0.0, 0.0, 0.0, 5.531493521958112)",2
2024/05/14/15:47:25.425603,138064,1715716045,425431774,gps,0,0,34.815143643712354,-82.3267340801918,281.9966872148216,"(0.9813870646259062, 0.0, 0.0, 0.0, 2.435417053146253, 0.0, 0.0, 0.0, 5.531493521958112)",2
2024/05/14/15:47:25.458231,138065,1715716045,458073629,gps,0,0,34.815143643712354,-82.3267340801918,281.9966872148216,"(0.9813870646259062, 0.0, 0.0, 0.0, 2.435417053146253, 0.0, 0.0, 0.0, 5.531493521958112)",2
2024/05/14/15:47:25.465155,138066,1715716045,465064459,gps,0,0,34.81514410480308,-82.32673458846371,282.0908425115049,"(0.9959373098531934, 0.0, 0.0, 0.0, 2.4545888005394687, 0.0, 0.0, 0.0, 5.551587339678235)",2
2024/05/14/15:47:25.486135,138067,1715716045,485866094,gps,0,0,34.81514410480308,-82.32673458846371,282.0908425115049,"(0.9959373098531934, 0.0, 0.0, 0.0, 2.4545888005394687, 0.0, 0.0, 0.0, 5.551587339678235)",2
2024/05/14/15:47:25.505200,138068,1715716045,504948948,gps,0,0,34.81514410480308,-82.32673458846371,282.0908425115049,"(0.9959373098531934, 0.0, 0.0, 0.0, 2.4545888005394687, 0.0, 0.0, 0.0, 5.551587339678235)",2
2024/05/14/15:47:25.526851,138069,1715716045,526732481,gps,0,0,34.81514410480308,-82.32673458846371,282.0908425115049,"(0.9959373098531934, 0.0, 0.0, 0.0, 2.4545888005394687, 0.0, 0.0, 0.0, 5.551587339678235)",2
2024/05/14/15:47:25.547448,138070,1715716045,547347691,gps,0,0,34.81514410480308,-82.32673458846371,282.0908425115049,"(0.9959373098531934, 0.0, 0.0, 0.0, 2.4545888005394687, 0.0, 0.0, 0.0, 5.551587339678235)",2
2024/05/14/15:47:25.565665,138071,1715716045,565530437,gps,0,0,34.815142994840194,-82.32673354364309,281.9815509431064,"(0.9783991854585707, 0.0, 0.0, 0.0, 2.4261969270395554, 0.0, 0.0, 0.0, 5.551490717852175)",2
2024/05/14/15:47:25.585261,138072,1715716045,585117493,gps,0,0,34.815142994840194,-82.32673354364309,281.9815509431064,"(0.9783991854585707, 0.0, 0.0, 0.0, 2.4261969270395554, 0.0, 0.0, 0.0, 5.551490717852175)",2
2024/05/14/15:47:25.608499,138073,1715716045,608396481,gps,0,0,34.815142994840194,-82.32673354364309,281.9815509431064,"(0.9783991854585707, 0.0, 0.0, 0.0, 2.4261969270395554, 0.0, 0.0, 0.0, 5.551490717852175)",2
2024/05/14/15:47:25.626072,138074,1715716045,625962360,gps,0,0,34.815142994840194,-82.32673354364309,281.9815509431064,"(0.9783991854585707, 0.0, 0.0, 0.0, 2.4261969270395554, 0.0, 0.0, 0.0, 5.551490717852175)",2
2024/05/14/15:47:25.655019,138075,1715716045,654882115,gps,0,0,34.815142994840194,-82.32673354364309,281.9815509431064,"(0.9783991854585707, 0.0, 0.0, 0.0, 2.4261969270395554, 0.0, 0.0, 0.0, 5.551490717852175)",2
2024/05/14/15:47:25.665462,138076,1715716045,665279213,gps,0,0,34.81514233118348,-82.32673308919316,281.94630582630634,"(0.97590899742967, 0.0, 0.0, 0.0, 2.4279259476045354, 0.0, 0.0, 0.0, 5.548127454276482)",2
2024/05/14/15:47:25.685571,138077,1715716045,685335360,gps,0,0,34.81514233118348,-82.32673308919316,281.94630582630634,"(0.97590899742967, 0.0, 0.0, 0.0, 2.4279259476045354, 0.0, 0.0, 0.0, 5.548127454276482)",2
2024/05/14/15:47:25.705545,138078,1715716045,705318177,gps,0,0,34.81514233118348,-82.32673308919316,281.94630582630634,"(0.97590899742967, 0.0, 0.0, 0.0, 2.4279259476045354, 0.0, 0.0, 0.0, 5.548127454276482)",2
2024/05/14/15:47:25.726767,138079,1715716045,726677037,gps,0,0,34.81514233118348,-82.32673308919316,281.94630582630634,"(0.97590899742967, 0.0, 0.0, 0.0, 2.4279259476045354, 0.0, 0.0, 0.0, 5.548127454276482)",2
2024/05/14/15:47:25.749794,138080,1715716045,749620701,gps,0,0,34.81514233118348,-82.32673308919316,281.94630582630634,"(0.97590899742967, 0.0, 0.0, 0.0, 2.4279259476045354, 0.0, 0.0, 0.0, 5.548127454276482)",2
2024/05/14/15:47:25.765707,138081,1715716045,765441659,gps,0,0,34.81514346874294,-82.32673381342707,282.07018583174795,"(0.999843245927682, 0.0, 0.0, 0.0, 2.4893337053191686, 0.0, 0.0, 0.0, 5.5816347121728995)",2
2024/05/14/15:47:25.785278,138082,1715716045,785106862,gps,0,0,34.81514346874294,-82.32673381342707,282.07018583174795,"(0.999843245927682, 0.0, 0.0, 0.0, 2.4893337053191686, 0.0, 0.0, 0.0, 5.5816347121728995)",2
2024/05/14/15:47:25.807346,138083,1715716045,806994103,gps,0,0,34.81514346874294,-82.32673381342707,282.07018583174795,"(0.999843245927682, 0.0, 0.0, 0.0, 2.4893337053191686, 0.0, 0.0, 0.0, 5.5816347121728995)",2
2024/05/14/15:47:25.824834,138084,1715716045,824690507,gps,0,0,34.81514346874294,-82.32673381342707,282.07018583174795,"(0.999843245927682, 0.0, 0.0, 0.0, 2.4893337053191686, 0.0, 0.0, 0.0, 5.5816347121728995)",2
2024/05/14/15:47:25.902917,138085,1715716045,902777854,gps,0,0,34.81514346874294,-82.32673381342707,282.07018583174795,"(0.999843245927682, 0.0, 0.0, 0.0, 2.4893337053191686, 0.0, 0.0, 0.0, 5.5816347121728995)",2
2024/05/14/15:47:25.929671,138086,1715716045,929553496,gps,0,0,34.81514286714014,-82.32673345975998,282.0682765012607,"(0.9987745465398099, 0.0, 0.0, 0.0, 2.475786446546465, 0.0, 0.0, 0.0, 5.57860582797781)",2
2024/05/14/15:47:25.939419,138087,1715716045,939304725,gps,0,0,34.81514286714014,-82.32673345975998,282.0682765012607,"(0.9987745465398099, 0.0, 0.0, 0.0, 2.475786446546465, 0.0, 0.0, 0.0, 5.57860582797781)",2
2024/05/14/15:47:25.967310,138088,1715716045,962847502,gps,0,0,34.81514286714014,-82.32673345975998,282.0682765012607,"(0.9987745465398099, 0.0, 0.0, 0.0, 2.475786446546465, 0.0, 0.0, 0.0, 5.57860582797781)",2
2024/05/14/15:47:25.971681,138089,1715716045,969950257,gps,0,0,34.81514286714014,-82.32673345975998,282.0682765012607,"(0.9987745465398099, 0.0, 0.0, 0.0, 2.475786446546465, 0.0, 0.0, 0.0, 5.57860582797781)",2
2024/05/14/15:47:25.976480,138090,1715716045,976294156,gps,0,0,34.81514286714014,-82.32673345975998,282.0682765012607,"(0.9987745465398099, 0.0, 0.0, 0.0, 2.475786446546465, 0.0, 0.0, 0.0, 5.57860582797781)",2
2024/05/14/15:47:25.990557,138091,1715716045,990457561,gps,0,0,34.815142650902196,-82.3267332254445,282.0751478690654,"(0.9990019905393552, 0.0, 0.0, 0.0, 2.473974838052527, 0.0, 0.0, 0.0, 5.5779819056174915)",2
2024/05/14/15:47:26.007254,138092,1715716046,7135725,gps,0,0,34.815142650902196,-82.3267332254445,282.0751478690654,"(0.9990019905393552, 0.0, 0.0, 0.0, 2.473974838052527, 0.0, 0.0, 0.0, 5.5779819056174915)",2
2024/05/14/15:47:26.015082,138093,1715716046,14962975,gps,0,0,34.815142650902196,-82.3267332254445,282.0751478690654,"(0.9990019905393552, 0.0, 0.0, 0.0, 2.473974838052527, 0.0, 0.0, 0.0, 5.5779819056174915)",2
2024/05/14/15:47:26.031534,138094,1715716046,31423699,gps,0,0,34.815142650902196,-82.3267332254445,282.0751478690654,"(0.9990019905393552, 0.0, 0.0, 0.0, 2.473974838052527, 0.0, 0.0, 0.0, 5.5779819056174915)",2
2024/05/14/15:47:26.062613,138095,1715716046,62406130,gps,0,0,34.815142650902196,-82.3267332254445,282.0751478690654,"(0.9990019905393552, 0.0, 0.0, 0.0, 2.473974838052527, 0.0, 0.0, 0.0, 5.5779819056174915)",2
2024/05/14/15:47:26.068218,138096,1715716046,68070104,gps,0,0,34.8151429640716,-82.32673323905168,282.1777251781896,"(0.9731254989662865, 0.0, 0.0, 0.0, 2.295129599751945, 0.0, 0.0, 0.0, 5.385047301142777)",2
2024/05/14/15:47:26.086067,138097,1715716046,85905673,gps,0,0,34.8151429640716,-82.32673323905168,282.1777251781896,"(0.9731254989662865, 0.0, 0.0, 0.0, 2.295129599751945, 0.0, 0.0, 0.0, 5.385047301142777)",2
2024/05/14/15:47:26.104575,138098,1715716046,104448799,gps,0,0,34.8151429640716,-82.32673323905168,282.1777251781896,"(0.9731254989662865, 0.0, 0.0, 0.0, 2.295129599751945, 0.0, 0.0, 0.0, 5.385047301142777)",2
2024/05/14/15:47:26.126559,138099,1715716046,126454466,gps,0,0,34.8151429640716,-82.32673323905168,282.1777251781896,"(0.9731254989662865, 0.0, 0.0, 0.0, 2.295129599751945, 0.0, 0.0, 0.0, 5.385047301142777)",2
2024/05/14/15:47:26.146590,138100,1715716046,146496875,gps,0,0,34.8151429640716,-82.32673323905168,282.1777251781896,"(0.9731254989662865, 0.0, 0.0, 0.0, 2.295129599751945, 0.0, 0.0, 0.0, 5.385047301142777)",2
2024/05/14/15:47:26.171634,138101,1715716046,166092725,gps,0,0,34.81514105135973,-82.32673236694596,282.0293288389221,"(0.9275629039603359, 0.0, 0.0, 0.0, 1.9859426149697015, 0.0, 0.0, 0.0, 5.0470794030843535)",2
2024/05/14/15:47:26.185661,138102,1715716046,185547127,gps,0,0,34.81514105135973,-82.32673236694596,282.0293288389221,"(0.9275629039603359, 0.0, 0.0, 0.0, 1.9859426149697015, 0.0, 0.0, 0.0, 5.0470794030843535)",2
2024/05/14/15:47:26.206831,138103,1715716046,206569521,gps,0,0,34.81514105135973,-82.32673236694596,282.0293288389221,"(0.9275629039603359, 0.0, 0.0, 0.0, 1.9859426149697015, 0.0, 0.0, 0.0, 5.0470794030843535)",2
2024/05/14/15:47:26.224385,138104,1715716046,224263325,gps,0,0,34.81514105135973,-82.32673236694596,282.0293288389221,"(0.9275629039603359, 0.0, 0.0, 0.0, 1.9859426149697015, 0.0, 0.0, 0.0, 5.0470794030843535)",2
2024/05/14/15:47:26.251014,138105,1715716046,250918170,gps,0,0,34.81514105135973,-82.32673236694596,282.0293288389221,"(0.9275629039603359, 0.0, 0.0, 0.0, 1.9859426149697015, 0.0, 0.0, 0.0, 5.0470794030843535)",2
