time,.header.seq,.header.stamp.secs,.header.stamp.nsecs,.header.frame_id,.pose.position.x,.pose.position.y,.pose.position.z,.pose.orientation.x,.pose.orientation.y,.pose.orientation.z,.pose.orientation.w
2024/05/14/15:47:20.633389,136818,1715716040,633190234,map,34.200015837675714,-3.8593106927329517,-1.1068565845489502,0.0024163013754556046,0.016230418001980895,-0.13995325785672832,0.9900221313861788
2024/05/14/15:47:20.653856,136819,1715716040,653465923,map,34.20023689494417,-3.85938164422986,-1.1078311204910278,0.0024333069278429254,0.01624234492533837,-0.13995322730195864,0.9900218984530026
2024/05/14/15:47:20.673231,136820,1715716040,673003023,map,34.2004367410107,-3.8594455428153,-1.1078311204910278,0.0024333029994144436,0.01624234551386573,-0.13995298785191385,0.990021932302534
2024/05/14/15:47:20.693448,136821,1715716040,693281943,map,34.20061836002504,-3.859503377903116,-1.1078311204910278,0.002433299175675383,0.01624234608670838,-0.13995275478301833,0.9900219652499462
2024/05/14/15:47:20.713667,136822,1715716040,713451295,map,34.20078405508954,-3.8595559194376228,-1.1078311204910278,0.00243329545433864,0.016242346644209035,-0.13995252795586588,0.9900219973149504
2024/05/14/15:47:20.733678,136823,1715716040,733237316,map,34.20093594039673,-3.859603864965785,-1.1078311204910278,0.002433291827854791,0.01624234718749875,-0.13995230691029537,0.9900220285626011
2024/05/14/15:47:20.753908,136824,1715716040,753645008,map,34.20064711885327,-3.8595098072461256,-1.107480525970459,0.0024080483088225737,0.01624595702667485,-0.13995236183186716,0.9900220232910537
2024/05/14/15:47:20.773984,136825,1715716040,773705464,map,34.20038622266989,-3.85942503873984,-1.107480525970459,0.0024080558021181233,0.016245955915983355,-0.1399528184702555,0.9900219587392299
2024/05/14/15:47:20.793838,136826,1715716040,793618062,map,34.20014931135006,-3.8593482519847107,-1.107480525970459,0.0024080630949351095,0.01624595483500434,-0.1399532628915629,0.9900218959142443
2024/05/14/15:47:20.814065,136827,1715716040,813723096,map,34.19993342295526,-3.8592784526862465,-1.107480525970459,0.00240807019085419,0.016245953783207336,-0.13995369531399318,0.9900218347852676
2024/05/14/15:47:20.833908,136828,1715716040,833628442,map,34.19973563631116,-3.859214682025084,-1.107480525970459,0.0024080771057850684,0.016245952758234372,-0.13995411670707708,0.9900217752152584
2024/05/14/15:47:20.856723,136829,1715716040,853384090,map,34.19955284227361,-3.8591567210147413,-1.107682228088379,0.002268227261187522,0.016235668113945525,-0.13995268102005443,0.9900224771697278
2024/05/14/15:47:20.877741,136830,1715716040,873290910,map,34.199387695103894,-3.859104631679844,-1.107682228088379,0.0022682387984711834,0.016235666502108614,-0.1399533845433134,0.9900223777172196
2024/05/14/15:47:20.893215,136831,1715716040,892917642,map,34.19923771641604,-3.8590575904829185,-1.107682228088379,0.0022682500268866477,0.01623566493341466,-0.13995406923233242,0.9900222809266956
2024/05/14/15:47:20.913257,136832,1715716040,912995205,map,34.1991011834967,-3.859015011818654,-1.107682228088379,0.0022682609512807827,0.01623566340718717,-0.13995473538266484,0.990022186756415
2024/05/14/15:47:20.934175,136833,1715716040,933798726,map,34.19897602808424,-3.8589762252404785,-1.107682228088379,0.0022682715973859754,0.01623566191983172,-0.13995538456342657,0.9900220949845963
2024/05/14/15:47:20.961386,136834,1715716040,954546645,map,34.19919333583234,-3.85904609482345,-1.1068118810653687,0.002400819413800535,0.016253151164949256,-0.1399567761075303,0.9900212987430818
2024/05/14/15:47:20.973945,136835,1715716040,973593875,map,34.19938946289536,-3.859108921331743,-1.1068118810653687,0.0024008095127591713,0.016253152627469476,-0.1399561730096011,0.9900213840013042
2024/05/14/15:47:20.994055,136836,1715716040,993782535,map,34.19956743253553,-3.859165707260884,-1.1068118810653687,0.002400799877232234,0.016253154050763642,-0.13995558608484163,0.9900214669728127
2024/05/14/15:47:21.013851,136837,1715716041,13600804,map,34.19972958276373,-3.859217233783837,-1.1068118810653687,0.0024007905020153536,0.016253155435600984,-0.13995501501624028,0.9900215477024505
2024/05/14/15:47:21.033325,136838,1715716041,33092639,map,34.19987802965709,-3.859264199694659,-1.1068118810653687,0.0024007813668155795,0.016253156784979465,-0.13995445856770083,0.9900216263649867
2024/05/14/15:47:21.054704,136839,1715716041,54365334,map,34.199676278230484,-3.859201717162883,-1.1082661151885986,0.002292909829757897,0.0162371942289907,-0.1399530598654374,0.9900223417289046
2024/05/14/15:47:21.073857,136840,1715716041,73554467,map,34.1994941311179,-3.8591457521526853,-1.1082661151885986,0.0022929135144899564,0.016237193708656637,-0.13995328453276665,0.9900223099691103
2024/05/14/15:47:21.094086,136841,1715716041,93704995,map,34.199328792553594,-3.859095377222316,-1.1082661151885986,0.00229291710090134,0.01623719320220596,-0.13995350320523836,0.990022279056721
2024/05/14/15:47:21.113930,136842,1715716041,113631957,map,34.1991781642619,-3.85904988822024,-1.1082661151885986,0.0022929205911864617,0.016237192709328864,-0.13995371601665152,0.9900222489728264
2024/05/14/15:47:21.133192,136843,1715716041,132930631,map,34.19904019115095,-3.8590086103915366,-1.1082661151885986,0.0022929239923900123,0.016237192229030594,-0.13995392339653845,0.9900222196567098
2024/05/14/15:47:21.159702,136844,1715716041,154322437,map,34.1992851070218,-3.859089631085619,-1.108096718788147,0.0024081920660187313,0.016218597624612904,-0.13995561544024576,0.9900220115779276
2024/05/14/15:47:21.173772,136845,1715716041,173479563,map,34.1995060412801,-3.859162673221743,-1.108096718788147,0.002408188755799147,0.016218598116125124,-0.13995541337652082,0.9900220401428806
2024/05/14/15:47:21.193851,136846,1715716041,193557660,map,34.19970641364194,-3.8592288714567347,-1.108096718788147,0.00240818553452408,0.016218598594429912,-0.13995521674218236,0.9900220679402622
2024/05/14/15:47:21.213852,136847,1715716041,213555579,map,34.19988882655005,-3.859289097700577,-1.108096718788147,0.002408182400492914,0.016218599059779824,-0.13995502543342064,0.9900220949847507
2024/05/14/15:47:21.233657,136848,1715716041,233403735,map,34.200055752730066,-3.8593441656633156,-1.108096718788147,0.0024081793468187494,0.01621859951319751,-0.13995483902984282,0.9900221213357786
2024/05/14/15:47:21.254839,136849,1715716041,254377561,map,34.20017894834396,-3.8593849644208036,-1.109039306640625,0.002306272802529929,0.01622499413657608,-0.1399531153897351,0.990022502857251
2024/05/14/15:47:21.273267,136850,1715716041,273015818,map,34.20029012362664,-3.859421761390452,-1.109039306640625,0.0023062713711127754,0.016224994340042247,-0.13995302804701057,0.9900225152043265
2024/05/14/15:47:21.293309,136851,1715716041,293035722,map,34.2003909743021,-3.8594551202260825,-1.109039306640625,0.0023062699781311396,0.01622499453804495,-0.13995294304955824,0.9900225272198584
2024/05/14/15:47:21.313116,136852,1715716041,312912633,map,34.200482685165426,-3.8594854434628405,-1.109039306640625,0.0023062686230963993,0.016224994730653645,-0.1399528603675632,0.9900225389080622
2024/05/14/15:47:21.333194,136853,1715716041,333024311,map,34.200566664508045,-3.8595131878932807,-1.109039306640625,0.00230626730259154,0.016224994918354045,-0.13995277979252482,0.9900225502984128
2024/05/14/15:47:21.353823,136854,1715716041,353512547,map,34.200165212195444,-3.8593814896706653,-1.1118260622024536,0.0023088864961198527,0.016249172460941305,-0.13995362505131542,0.9900220281753727
2024/05/14/15:47:21.373357,136855,1715716041,373097579,map,34.199803060227325,-3.859262866328579,-1.1118260622024536,0.0023089010847065924,0.016249170388005,-0.13995451389794877,0.9900219025239145
2024/05/14/15:47:21.393207,136856,1715716041,392985900,map,34.199474605285815,-3.8591554583295586,-1.1118260622024536,0.0023089152810132473,0.01624916837079613,-0.139955378843924,0.9900217802503823
2024/05/14/15:47:21.413255,136857,1715716041,413022179,map,34.19917562981936,-3.8590578502967254,-1.1118260622024536,0.002308929091901691,0.016249166408340704,-0.13995622030731808,0.9900216612957374
2024/05/14/15:47:21.433217,136858,1715716041,432934194,map,34.198902008474704,-3.8589686874856177,-1.1118260622024536,0.0023089425489132673,0.01624916449615782,-0.1399570402098673,0.99002154538837
2024/05/14/15:47:21.454315,136859,1715716041,453763670,map,34.19892492774146,-3.8589739510152556,-1.1110440492630005,0.0022688081352274948,0.0162783547453426,-0.13995619464811113,0.9900212781834794
2024/05/14/15:47:21.473431,136860,1715716041,473112990,map,34.1989456058137,-3.8589784746582745,-1.1110440492630005,0.002268806872563473,0.016278354921327315,-0.13995611785507714,0.9900212890394661
2024/05/14/15:47:21.493192,136861,1715716041,492972672,map,34.19896438802699,-3.858982371671235,-1.1110440492630005,0.0022688056435960953,0.016278355092615434,-0.13995604311141457,0.9900212996057338
2024/05/14/15:47:21.513232,136862,1715716041,512955389,map,34.19898165109165,-3.8589857620263506,-1.1110440492630005,0.002268804446934094,0.016278355259400887,-0.13995597033250892,0.9900213098942449
2024/05/14/15:47:21.533181,136863,1715716041,532963369,map,34.198997438142875,-3.858988667267372,-1.1110440492630005,0.002268803281297055,0.016278355421862126,-0.13995589944048756,0.990021319916008
2024/05/14/15:47:21.554168,136864,1715716041,553685005,map,34.19942718756863,-3.8591298417787248,-1.1084035634994507,0.0024013824120928543,0.016240385448524935,-0.13995738947513764,0.9900214201593311
2024/05/14/15:47:21.573267,136865,1715716041,572995023,map,34.199814864959926,-3.8592570178789387,-1.1084035634994507,0.0024013700563354132,0.016240387275502546,-0.13995663626244217,0.9900215266392426
2024/05/14/15:47:21.593253,136866,1715716041,593028778,map,34.20016646272402,-3.859372184682578,-1.1084035634994507,0.0024013580330009,0.016240389053317393,-0.1399559033144059,0.9900216302538257
2024/05/14/15:47:21.613267,136867,1715716041,613004436,map,34.20048644754851,-3.8594768435259033,-1.1084035634994507,0.0024013463363493056,0.016240390782818966,-0.139955190281115,0.9900217310525921
2024/05/14/15:47:21.633303,136868,1715716041,633054538,map,34.20077930666972,-3.85957246530597,-1.1084035634994507,0.0024013349394948367,0.01624039246798336,-0.1399544955235987,0.9900218292672789
2024/05/14/15:47:21.653573,136869,1715716041,653219166,map,34.20081529853367,-3.8595867272567017,-1.1080727577209473,0.0023372555181328273,0.01623073529081134,-0.13995341611321135,0.9900222935807076
2024/05/14/15:47:21.673349,136870,1715716041,673080437,map,34.20084777336187,-3.8595998122789994,-1.1080727577209473,0.0023372537268701787,0.01623073554875633,-0.13995330685199034,0.9900223090262942
2024/05/14/15:47:21.693238,136871,1715716041,693001477,map,34.200877200539914,-3.8596118778379034,-1.1080727577209473,0.0023372519840698727,0.016230735799722465,-0.13995320054681534,0.9900223240539909
2024/05/14/15:47:21.713236,136872,1715716041,712992365,map,34.20090378264622,-3.859623000198713,-1.1080727577209473,0.002337250289579599,0.016230736043731694,-0.13995309718839585,0.9900223386651122
2024/05/14/15:47:21.733257,136873,1715716041,733016374,map,34.20092813566252,-3.8596333721600877,-1.1080727577209473,0.0023372486382575827,0.01623073628152445,-0.1399529964631004,0.9900223529039948
2024/05/14/15:47:21.753132,136874,1715716041,752871844,map,34.2005819221336,-3.859521808738753,-1.107055902481079,0.002254794465783821,0.016239051848310555,-0.1399523722605896,0.9900224960048223
2024/05/14/15:47:21.773275,136875,1715716041,773002875,map,34.200269562464825,-3.859421506017904,-1.107055902481079,0.0022548058397908934,0.01623905026902413,-0.1399530656830238,0.9900223979804236
2024/05/14/15:47:21.793172,136876,1715716041,792927131,map,34.199986225111196,-3.8593308606790564,-1.107055902481079,0.002254816907989108,0.016239048732191615,-0.139953740461656,0.9900223025910964
2024/05/14/15:47:21.813734,136877,1715716041,813486264,map,34.19972828273161,-3.8592486551029337,-1.107055902481079,0.0022548276758320293,0.01623904723705642,-0.13995439692896575,0.9900222097898786
2024/05/14/15:47:21.833207,136878,1715716041,832947987,map,34.19996070932509,-3.8593256072292785,-1.1099528074264526,0.0022710070682572968,0.01622700414478732,-0.13995461174595894,0.9900223399067412
2024/05/14/15:47:21.853182,136879,1715716041,852913268,map,34.20016950593599,-3.859394703103982,-1.1099528074264526,0.00227100555317093,0.01622700435682712,-0.139954519309343,0.9900223529740486
2024/05/14/15:47:21.873180,136880,1715716041,872921085,map,34.20035820524521,-3.8594571118972687,-1.1099528074264526,0.002271004079566581,0.016227004563061278,-0.1399544294035777,0.9900223656835739
2024/05/14/15:47:21.893165,136881,1715716041,892930730,map,34.20052962147094,-3.859513767592121,-1.1099528074264526,0.002271002645552954,0.016227004763754493,-0.13995434191327363,0.9900223780516294
2024/05/14/15:47:21.913195,136882,1715716041,912971206,map,34.200685878369065,-3.8595653830628867,-1.1099528074264526,0.0022710012502132385,0.01622700495903509,-0.13995425678249546,0.9900223900861234
2024/05/14/15:47:21.933557,136883,1715716041,933338501,map,34.20054815145904,-3.8595149800110535,-1.1058783531188965,0.002520400954731318,0.016246692605395924,-0.13995907530232027,0.9900207825085958
2024/05/14/15:47:21.954089,136884,1715716041,953705628,map,34.200424401111235,-3.859469229445577,-1.1058783531188965,0.0025204164763838986,0.016246690197465136,-0.13996002114152017,0.9900206487950027
2024/05/14/15:47:21.973347,136885,1715716041,973124199,map,34.200312568783445,-3.8594274497201395,-1.1058783531188965,0.002520431574000598,0.016246687855302012,-0.13996094114135973,0.9900205187334442
2024/05/14/15:47:21.993246,136886,1715716041,993039302,map,34.200211006829115,-3.859389093831272,-1.1058783531188965,0.0025204462656296263,0.016246685576107846,-0.13996183640163753,0.9900203921685119
2024/05/14/15:47:22.013006,136887,1715716042,12794143,map,34.20011844202356,-3.8593537354476437,-1.1058783531188965,0.0025204605555270883,0.016246683359223482,-0.1399627071817058,0.9900202690636093
2024/05/14/15:47:22.033330,136888,1715716042,33118126,map,34.20003367328288,-3.8593209788637415,-1.1058783531188965,0.0025204744813116502,0.016246681198813926,-0.13996355577392336,0.9900201490947207
2024/05/14/15:47:22.053835,136889,1715716042,53487765,map,34.199496603015646,-3.859144217234838,-1.1096159219741821,0.0024604315895785586,0.016267686403613528,-0.13996260691701615,0.9900200893519583
2024/05/14/15:47:22.073611,136890,1715716042,73386358,map,34.199011147895256,-3.858984630947789,-1.1096159219741821,0.002460433057996524,0.0162676861815203,-0.13996269628210772,0.9900200767180983
2024/05/14/15:47:22.093267,136891,1715716042,92998499,map,34.198570091283216,-3.8588398241504005,-1.1096159219741821,0.002460434487571449,0.016267685965301815,-0.13996278328328676,0.9900200644184249
2024/05/14/15:47:22.113267,136892,1715716042,113011733,map,34.19816812673632,-3.8587080087124708,-1.1096159219741821,0.0024604358779564146,0.016267685755010558,-0.1399628678994403,0.9900200524559241
2024/05/14/15:47:22.133116,136893,1715716042,132931017,map,34.19779967294118,-3.8585873603018954,-1.1096159219741821,0.0024604372340933526,0.01626768554989909,-0.13996295043132492,0.9900200407880768
2024/05/14/15:47:22.153369,136894,1715716042,152989034,map,34.19797874331545,-3.8586460104246765,-1.107801079750061,0.002315070040689452,0.016253170519997213,-0.13996015635550513,0.9900210247927552
2024/05/14/15:47:22.173218,136895,1715716042,172990709,map,34.19814037760605,-3.858698864555571,-1.107801079750061,0.0023150610452663234,0.016253171801285275,-0.13995960842191824,0.9900211022544609
2024/05/14/15:47:22.193137,136896,1715716042,192909986,map,34.198287072655084,-3.8587467494208556,-1.107801079750061,0.0023150522916553016,0.016253173048125277,-0.13995907521770826,0.9900211776335688
2024/05/14/15:47:22.213239,136897,1715716042,212970625,map,34.19842089651394,-3.858790349070046,-1.107801079750061,0.00231504377554732,0.016253174261131393,-0.1399585564803992,0.990021250967209
2024/05/14/15:47:22.233205,136898,1715716042,232981676,map,34.198554372058986,-3.8588336622675428,-1.1068464517593384,0.002396810581188752,0.016256702325942517,-0.13995965009548053,0.9900208438581858
2024/05/14/15:47:22.253454,136899,1715716042,253177740,map,34.1986744339403,-3.858872515257289,-1.1068464517593384,0.0023968076894151594,0.01625670275229155,-0.13995947398866174,0.9900208687544626
2024/05/14/15:47:22.273537,136900,1715716042,273273540,map,34.19878306247727,-3.8589075640213983,-1.1068464517593384,0.0023968048761216897,0.016256703167069345,-0.13995930266122306,0.9900208929750463
2024/05/14/15:47:22.293355,136901,1715716042,293096838,map,34.19888184288928,-3.8589393349507994,-1.1068464517593384,0.0023968021380702587,0.016256703570753362,-0.13995913591596768,0.9900209165478169
2024/05/14/15:47:22.313259,136902,1715716042,313006455,map,34.19897192698017,-3.858968216985449,-1.1068464517593384,0.002396799474882252,0.016256703963399448,-0.13995897372983823,0.9900209394760366
2024/05/14/15:47:22.333295,136903,1715716042,333076330,map,34.19905456882577,-3.8589946191865723,-1.1068464517593384,0.0023967968788554863,0.016256704346143222,-0.13995881563377754,0.9900209618260181
2024/05/14/15:47:22.353389,136904,1715716042,353130042,map,34.1990007083837,-3.858972606308577,-1.107184886932373,0.0021619631812364905,0.01626625772441532,-0.13995528574555077,0.9900218445906773
2024/05/14/15:47:22.373435,136905,1715716042,373169345,map,34.198952190745075,-3.858952374774411,-1.107184886932373,0.002161966685351295,0.016266257258679837,-0.13995549901834267,0.9900218144411631
2024/05/14/15:47:22.393372,136906,1715716042,393025918,map,34.19890826074961,-3.858933674183417,-1.107184886932373,0.002161970094700739,0.016266256805538972,-0.13995570652338002,0.990021785106968
2024/05/14/15:47:22.414041,136907,1715716042,413712365,map,34.19886828192168,-3.85891629410242,-1.107184886932373,0.0021619734111281885,0.01626625636474779,-0.13995590837285654,0.9900217565722353
2024/05/14/15:47:22.434207,136908,1715716042,433885121,map,34.198831792691664,-3.8589000791632895,-1.107184886932373,0.0021619766419146078,0.01626625593533862,-0.13995610500991737,0.9900217287743229
2024/05/14/15:47:22.453330,136909,1715716042,453090021,map,34.198776578613895,-3.8588844740390527,-1.10866117477417,0.0022589689389558598,0.016233179394017503,-0.139958491810083,0.9900217176993349
2024/05/14/15:47:22.473376,136910,1715716042,473053955,map,34.19872664614828,-3.8588706233296888,-1.10866117477417,0.002258980187563012,0.01623317782868529,-0.13995917783498887,0.9900216207163601
2024/05/14/15:47:22.493229,136911,1715716042,493001795,map,34.19868124666371,-3.8588582787041465,-1.10866117477417,0.0022589911340547835,0.01623317630538718,-0.13995984543461915,0.9900215263376914
2024/05/14/15:47:22.514389,136912,1715716042,514118796,map,34.198639834704835,-3.858847256355898,-1.10866117477417,0.002259001783447341,0.01623317482342575,-0.13996049491489757,0.9900214345201176
2024/05/14/15:47:22.534149,136913,1715716042,533806781,map,34.198601836295104,-3.858837368744892,-1.10866117477417,0.002259012160491749,0.016233173379357233,-0.13996112778533085,0.9900213450502736
2024/05/14/15:47:22.553366,136914,1715716042,553166509,map,34.19896467681376,-3.8589582518222145,-1.1082335710525513,0.002339960131012014,0.016223997282968593,-0.1399624109195893,0.9900211260515219
2024/05/14/15:47:22.573298,136915,1715716042,573051620,map,34.19929214906962,-3.859067364865612,-1.1082335710525513,0.002339959597469281,0.016223997359920566,-0.13996237836173273,0.9900211306543284
2024/05/14/15:47:22.593176,136916,1715716042,592920536,map,34.19958926268208,-3.859166370831495,-1.1082335710525513,0.002339959078417734,0.01622399743478248,-0.13996234668815757,0.9900211351321201
2024/05/14/15:47:22.613100,136917,1715716042,612860503,map,34.19985975583468,-3.8592565262591294,-1.1082335710525513,0.002339958572968273,0.016223997507682577,-0.13996231584460922,0.9900211394925672
2024/05/14/15:47:22.633140,136918,1715716042,632865821,map,34.200107389629494,-3.859339064022832,-1.1082335710525513,0.0023399580810864766,0.01622399757862581,-0.1399622858289872,0.9900211437359671
2024/05/14/15:47:22.653567,136919,1715716042,653345130,map,34.19992273062505,-3.8592773540640217,-1.110211968421936,0.00219931525498702,0.01624261955924442,-0.139959323165145,0.990021579654412
2024/05/14/15:47:22.673885,136920,1715716042,673619062,map,34.19975617675198,-3.859221666561416,-1.110211968421936,0.002199304683649287,0.016242620990642068,-0.13995867882003404,0.9900216707452486
2024/05/14/15:47:22.693550,136921,1715716042,693298152,map,34.19960513671209,-3.859171142426124,-1.110211968421936,0.0021992943968472092,0.016242622383505826,-0.13995805181796311,0.990021759383895
2024/05/14/15:47:22.713864,136922,1715716042,713589565,map,34.19946755619858,-3.8591250976400016,-1.110211968421936,0.002199284389653663,0.016242623738503388,-0.13995744185861383,0.9900218456128407
2024/05/14/15:47:22.733567,136923,1715716042,733304337,map,34.199341699270924,-3.8590829558286197,-1.110211968421936,0.0021992746390954174,0.016242625058745883,-0.13995684754172005,0.9900219296300695
2024/05/14/15:47:22.753791,136924,1715716042,753679610,map,34.19971271711469,-3.8592067720360386,-1.107973337173462,0.0022955809379563707,0.01624422577001167,-0.13995831603819042,0.9900214771453416
2024/05/14/15:47:22.773208,136925,1715716042,772962411,map,34.20004743003159,-3.859318506037526,-1.107973337173462,0.0022955802719719634,0.016244225864126396,-0.13995827544906808,0.9900214828833831
2024/05/14/15:47:22.793284,136926,1715716042,793029526,map,34.200350997301754,-3.8594198705630665,-1.107973337173462,0.0022955796238356197,0.016244225955718866,-0.13995823594771484,0.9900214884676463
2024/05/14/15:47:22.813252,136927,1715716042,812977256,map,34.20062727137778,-3.859512160394901,-1.107973337173462,0.0022955789938285042,0.01624422604474935,-0.13995819755126654,0.9900214938957086
2024/05/14/15:47:22.833227,136928,1715716042,833001974,map,34.20088011558101,-3.8595966421703896,-1.107973337173462,0.0022955783794598706,0.016244226131569832,-0.139958160107922,0.9900214991890304
2024/05/14/15:47:22.853409,136929,1715716042,853095259,map,34.200641266636794,-3.8595181712380047,-1.1097711324691772,0.002356076813759341,0.016245269409023624,-0.13995980653726722,0.9900211071880874
2024/05/14/15:47:22.873341,136930,1715716042,873089545,map,34.20042583118007,-3.8594474879969094,-1.1097711324691772,0.002356087942371886,0.016245267795019662,-0.1399604847384746,0.9900210113101878
2024/05/14/15:47:22.893189,136931,1715716042,892974549,map,34.2002304567252,-3.8593834806909135,-1.1097711324691772,0.002356098771394022,0.016245266224458398,-0.13996114468200982,0.9900209180129365
2024/05/14/15:47:22.913091,136932,1715716042,912875228,map,34.200052528988145,-3.8593252767845847,-1.1097711324691772,0.002356109306093353,0.016245264696576462,-0.13996178668889175,0.9900208272509873
2024/05/14/15:47:22.933129,136933,1715716042,932901426,map,34.19988973535013,-3.8592721112048776,-1.1097711324691772,0.002356119570534921,0.01624526320788418,-0.13996241222569486,0.9900207388170414
2024/05/14/15:47:22.953292,136934,1715716042,952992359,map,34.20013385298074,-3.8593511996920498,-1.1063470840454102,0.0022755204687616637,0.016216640434227096,-0.13996061861333334,0.9900216501758919
2024/05/14/15:47:22.973438,136935,1715716042,973143096,map,34.20035410444992,-3.8594223490045967,-1.1063470840454102,0.002275510058401554,0.016216641895006375,-0.13995998306357568,0.9900217400241608
2024/05/14/15:47:22.993289,136936,1715716042,993043268,map,34.20055389365524,-3.8594866887252404,-1.1063470840454102,0.0022754999282019487,0.01621664331646705,-0.139959364617543,0.9900218274540601
2024/05/14/15:47:23.013278,136937,1715716043,13012309,map,34.20073578103807,-3.8595450781482894,-1.1063470840454102,0.0022754900726874253,0.016216644699377968,-0.13995876294096224,0.9900219125128791
2024/05/14/15:47:23.033118,136938,1715716043,32865121,map,34.200902271421434,-3.859598339855141,-1.1063470840454102,0.0022754804703289137,0.016216646046760538,-0.13995817671948932,0.9900219953864559
2024/05/14/15:47:23.053373,136939,1715716043,53061100,map,34.200704516806404,-3.8595360415512423,-1.1073787212371826,0.002372955072100652,0.01622705633638626,-0.1399599347161384,0.9900213474471828
2024/05/14/15:47:23.074092,136940,1715716043,73793522,map,34.200526070896906,-3.8594801633203626,-1.1073787212371826,0.002372959377814577,0.016227055706741857,-0.1399601974100378,0.9900213103099471
2024/05/14/15:47:23.093299,136941,1715716043,93046097,map,34.20036416943996,-3.8594297883412585,-1.1073787212371826,0.002372963568082465,0.016227055093978544,-0.13996045306051333,0.9900212741683773
2024/05/14/15:47:23.113349,136942,1715716043,113083909,map,34.200216699779176,-3.85938420954596,-1.1073787212371826,0.002372967645450115,0.01622705449772412,-0.13996070182288547,0.990021239000521
2024/05/14/15:47:23.133183,136943,1715716043,132974287,map,34.200081693169025,-3.8593427782000305,-1.1073787212371826,0.0023729716182731716,0.016227053916756783,-0.1399609442069366,0.9900212047343148
2024/05/14/15:47:23.153443,136944,1715716043,153205246,map,34.19979156457389,-3.859244342566609,-1.1087013483047485,0.0023632049915689227,0.01631551152141015,-0.13996044653877895,0.9900198446246561
2024/05/14/15:47:23.174258,136945,1715716043,173966582,map,34.19952989189136,-3.859155380748639,-1.1087013483047485,0.002363205856089063,0.016315511396189517,-0.13996049899757523,0.9900198372084834
2024/05/14/15:47:23.193464,136946,1715716043,193000131,map,34.199292639354745,-3.8590745521618826,-1.1087013483047485,0.002363206696986003,0.01631551127439052,-0.13996055002292354,0.9900198299949567
2024/05/14/15:47:23.213347,136947,1715716043,213039948,map,34.199076858650365,-3.85900086225506,-1.1087013483047485,0.0023632075144632363,0.016315511155983686,-0.1399605996271718,0.9900198229823305
2024/05/14/15:47:23.233171,136948,1715716043,232931611,map,34.19887941096382,-3.8589332859669105,-1.1087013483047485,0.0023632083107946204,0.016315511040639667,-0.1399606479482969,0.9900198161510987
2024/05/14/15:47:23.253298,136949,1715716043,253070140,map,34.199169723286595,-3.8590290260979208,-1.1079035997390747,0.0022783935916492713,0.016231244463111784,-0.13995934656740225,0.9900215840749361
2024/05/14/15:47:23.274294,136950,1715716043,273431608,map,34.19943155014087,-3.859115290176027,-1.1079035997390747,0.002278388105152786,0.016231245233255018,-0.13995901191962126,0.9900216313840337
2024/05/14/15:47:23.293299,136951,1715716043,293038119,map,34.199668967739704,-3.8591934303372724,-1.1079035997390747,0.002278382766381865,0.016231245982660097,-0.13995868628233207,0.9900216774192088
2024/05/14/15:47:23.313526,136952,1715716043,313028096,map,34.19988512140974,-3.859264498094894,-1.1079035997390747,0.002278377572704125,0.01623124671169668,-0.139958369494973,0.990021722203169
2024/05/14/15:47:23.333175,136953,1715716043,332938721,map,34.200082880458254,-3.8593294404944567,-1.1079035997390747,0.00227837251230528,0.01623124742202327,-0.13995806083693405,0.9900217658377947
2024/05/14/15:47:23.353374,136954,1715716043,353129389,map,34.19973892860462,-3.8592158601146704,-1.1096798181533813,0.0023680564024990544,0.01626342268009724,-0.13995959377989212,0.9900208106401452
2024/05/14/15:47:23.374219,136955,1715716043,373573534,map,34.19942869268234,-3.859113497937922,-1.1096798181533813,0.002368060622317359,0.01626342206566465,-0.13995985065742791,0.9900207743252427
2024/05/14/15:47:23.393341,136956,1715716043,393064140,map,34.199147362507226,-3.8590207575845152,-1.1096798181533813,0.002368064728455992,0.016263421467783486,-0.13996010061481903,0.9900207389885793
2024/05/14/15:47:23.413236,136957,1715716043,413003928,map,34.19889130582428,-3.858936420602036,-1.1096798181533813,0.0023680687231982514,0.016263420886121354,-0.1399603437910593,0.9900207046105103
2024/05/14/15:47:23.433235,136958,1715716043,432988328,map,34.198656999112686,-3.8588593291514552,-1.1096798181533813,0.0023680726151821593,0.016263420319420584,-0.13996058071198014,0.9900206711167036
2024/05/14/15:47:23.453278,136959,1715716043,453047201,map,34.19867030656419,-3.8588635167596426,-1.1111959218978882,0.0023802998340017455,0.0162855828433336,-0.13996065016041415,0.9900202676565907
2024/05/14/15:47:23.473555,136960,1715716043,473312221,map,34.198682262767846,-3.858867257647697,-1.1111959218978882,0.0023802994443425764,0.016285582900286158,-0.13996062647256222,0.9900202710053775
2024/05/14/15:47:23.493455,136961,1715716043,493068811,map,34.19869308025529,-3.8588706213208734,-1.1111959218978882,0.0023802990651924393,0.016285582955702708,-0.13996060342356706,0.9900202742638476
2024/05/14/15:47:23.513276,136962,1715716043,512988696,map,34.19870302551779,-3.8588736915100004,-1.1111959218978882,0.002380298696152307,0.016285583009641568,-0.13996058098917133,0.9900202774354305
2024/05/14/15:47:23.533313,136963,1715716043,533025004,map,34.19871207045045,-3.8588764655713708,-1.1111959218978882,0.0023802983367584973,0.016285583062170518,-0.13996055914118716,0.9900202805241111
2024/05/14/15:47:23.553439,136964,1715716043,553165588,map,34.19905203666737,-3.858986285181115,-1.1055922508239746,0.002275088839145488,0.016241642565886023,-0.13995889282786564,0.9900214852900587
2024/05/14/15:47:23.573346,136965,1715716043,573060764,map,34.19935876523917,-3.8590850476139793,-1.1055922508239746,0.002275085579612003,0.01624164302247302,-0.1399586941405611,0.9900215133783735
2024/05/14/15:47:23.593375,136966,1715716043,593079967,map,34.19963699421159,-3.8591743255182025,-1.1055922508239746,0.00227508240746335,0.016241643466818736,-0.1399585007798644,0.9900215407136295
2024/05/14/15:47:23.613876,136967,1715716043,613612099,map,34.19989025189466,-3.859255304878046,-1.1055922508239746,0.002275079321182156,0.016241643899135773,-0.13995831265328293,0.9900215673089056
2024/05/14/15:47:23.633395,136968,1715716043,633129858,map,34.20012208380096,-3.859329147883698,-1.1055922508239746,0.002275076313702935,0.016241644320413893,-0.13995812933013466,0.9900215932250899
2024/05/14/15:47:23.653239,136969,1715716043,652963721,map,34.19980519325665,-3.8592236819783468,-1.1086139678955078,0.002341707377201527,0.016254501060274488,-0.13995987781444655,0.9900209796787169
2024/05/14/15:47:23.673430,136970,1715716043,673132660,map,34.199519423720496,-3.859128570284691,-1.1086139678955078,0.0023417194526353944,0.016254499320620536,-0.1399606132989031,0.9900208757025459
2024/05/14/15:47:23.693518,136971,1715716043,693305629,map,34.19926032437552,-3.8590423362274486,-1.1086139678955078,0.0023417312023209444,0.016254497627886902,-0.13996132894284635,0.9900207745307132
2024/05/14/15:47:23.713853,136972,1715716043,713607486,map,34.199024468116576,-3.858963833622923,-1.1086139678955078,0.002341742632126622,0.01625449598122886,-0.1399620251037083,0.9900206761127316
2024/05/14/15:47:23.734025,136973,1715716043,733720884,map,34.19880870555499,-3.8588920235279276,-1.1086139678955078,0.002341753768018048,0.016254494376906275,-0.13996270336299005,0.9900205802250602
2024/05/14/15:47:23.753317,136974,1715716043,753050139,map,34.1988741065438,-3.8589090714238825,-1.1099830865859985,0.0022846211088633885,0.016303612512273784,-0.13996105978065937,0.9900201384166453
2024/05/14/15:47:23.773503,136975,1715716043,773267087,map,34.19893319830056,-3.85892402684256,-1.1099830865859985,0.0022846128174240023,0.016303613674148943,-0.1399605562915115,0.9900202095957482
2024/05/14/15:47:23.793417,136976,1715716043,792997745,map,34.19898689736616,-3.85893719309212,-1.1099830865859985,0.002284604748987541,0.01630361480477069,-0.13996006634398706,0.9900202788601986
2024/05/14/15:47:23.813922,136977,1715716043,813655912,map,34.19903593643787,-3.8589488133653376,-1.1099830865859985,0.0022845968989981323,0.01630361590477777,-0.13995958966143543,0.990020346249127
2024/05/14/15:47:23.833153,136978,1715716043,832921436,map,34.19908089744726,-3.858959081761596,-1.1099830865859985,0.002284589250643106,0.01630361697652642,-0.1399591252229245,0.9900204119068821
2024/05/14/15:47:23.853314,136979,1715716043,853025105,map,34.19918999507418,-3.8589960281254796,-1.1092171669006348,0.002203335107736789,0.01621228474350272,-0.13995783447273086,0.9900222783894825
2024/05/14/15:47:23.873181,136980,1715716043,872962074,map,34.199288384382264,-3.859029409769581,-1.1092171669006348,0.0022033282610748285,0.016212285673998766,-0.1399574163732471,0.9900223374954346
2024/05/14/15:47:23.893244,136981,1715716043,892975297,map,34.19937758702733,-3.859059732022568,-1.1092171669006348,0.002203321599132154,0.016212286579387697,-0.1399570095538634,0.9900223950065667
2024/05/14/15:47:23.913711,136982,1715716043,913411623,map,34.19945872775743,-3.859087373564964,-1.1092171669006348,0.0022033151190973322,0.01621228746005183,-0.13995661384289634,0.9900224509471637
2024/05/14/15:47:23.933181,136983,1715716043,932981993,map,34.19953296695685,-3.8591127141258976,-1.1092171669006348,0.0022033088053249714,0.016212288318117656,-0.13995622828494161,0.9900225054523012
2024/05/14/15:47:23.953100,136984,1715716043,952875929,map,34.19954305322723,-3.859115857287103,-1.1066558361053467,0.0022645795098569185,0.016137260802819207,-0.139957362971014,0.9900234325729997
2024/05/14/15:47:23.973736,136985,1715716043,973482050,map,34.19955217849661,-3.8591186797955697,-1.1066558361053467,0.0022645768104939757,0.01613726118162688,-0.1399571973646822,0.9900234559843765
2024/05/14/15:47:23.993180,136986,1715716043,992919992,map,34.199560471827255,-3.859121224902592,-1.1066558361053467,0.002264574183844552,0.016137261550230066,-0.13995703621933597,0.9900234787650871
2024/05/14/15:47:24.013264,136987,1715716044,13012623,map,34.19956798449652,-3.8591235122511303,-1.1066558361053467,0.0022645716290436344,0.016137261908750183,-0.13995687948190663,0.9900235009226359
2024/05/14/15:47:24.033193,136988,1715716044,32945688,map,34.19957488992023,-3.8591255959761352,-1.1066558361053467,0.0022645691395018954,0.01613726225811196,-0.1399567267481379,0.9900235225141737
2024/05/14/15:47:24.053360,136989,1715716044,53048962,map,34.199417865421054,-3.859077786843771,-1.1107524633407593,0.0023702451828971614,0.016293435044348575,-0.13995747645350967,0.9900206112485708
2024/05/14/15:47:24.073660,136990,1715716044,73350901,map,34.199276109408984,-3.8590350536710964,-1.1107524633407593,0.002370241847764225,0.01629343552951804,-0.13995727380438516,0.9900206398967009
2024/05/14/15:47:24.093167,136991,1715716044,92955106,map,34.19914744164373,-3.8589966729931495,-1.1107524633407593,0.0023702386033161104,0.0162934360014947,-0.13995707666544588,0.9900206677658255
2024/05/14/15:47:24.113266,136992,1715716044,112994809,map,34.199030250055436,-3.858962102592423,-1.1107524633407593,0.002370235448144529,0.016293436460483486,-0.13995688495112152,0.9900206948680451
2024/05/14/15:47:24.133680,136993,1715716044,133379432,map,34.19892289576203,-3.8589308057352443,-1.1107524633407593,0.002370232374614527,0.016293436907595115,-0.13995669819749748,0.9900207212689455
2024/05/14/15:47:24.153377,136994,1715716044,153106176,map,34.199154444639376,-3.859007198564038,-1.10732901096344,0.002359190472116222,0.016236927207026897,-0.13995699095919276,0.9900216346609999
2024/05/14/15:47:24.174137,136995,1715716044,173561667,map,34.19936328751104,-3.859076036968213,-1.10732901096344,0.0023591938754169606,0.016236926712534284,-0.13995719847021493,0.9900216053256407
2024/05/14/15:47:24.193201,136996,1715716044,192969572,map,34.19955266704739,-3.859138396956366,-1.10732901096344,0.0023591971867225345,0.01623692623140768,-0.13995740037197377,0.9900215767832077
2024/05/14/15:47:24.213019,136997,1715716044,212818022,map,34.19972504697564,-3.859195104179206,-1.10732901096344,0.0023592004078395123,0.016236925763384646,-0.13995759677462197,0.9900215490181323
2024/05/14/15:47:24.232921,136998,1715716044,232759490,map,34.1993511095569,-3.8590721996823576,-1.1099579334259033,0.002368652847141128,0.016234767087303162,-0.1399577450616157,0.9900215408861458
2024/05/14/15:47:24.253005,136999,1715716044,252818797,map,34.199015076974455,-3.8589619011360585,-1.1099579334259033,0.0023686526815912983,0.016234767111456886,-0.13995773496612765,0.9900215423133285
2024/05/14/15:47:24.273312,137000,1715716044,273019368,map,34.198711317811075,-3.858862342869695,-1.1099579334259033,0.0023686525208884528,0.016234767134903433,-0.13995772516621627,0.9900215436987261
2024/05/14/15:47:24.293415,137001,1715716044,292878124,map,34.198435328892316,-3.858772029421907,-1.1099579334259033,0.0023686523647903977,0.01623476715767814,-0.13995771564711224,0.9900215450444261
2024/05/14/15:47:24.313040,137002,1715716044,312802113,map,34.198183817364175,-3.858689849948465,-1.1099579334259033,0.0023686522131070383,0.016234767179808735,-0.13995770639722324,0.9900215463520677
2024/05/14/15:47:24.333414,137003,1715716044,333223100,map,34.197908891932535,-3.858599188684129,-1.1096495389938354,0.0023552639744309337,0.016222767487476825,-0.13995747051223575,0.9900218083428641
2024/05/14/15:47:24.352983,137004,1715716044,352743571,map,34.197661371818405,-3.8585176490270894,-1.1096495389938354,0.0023552627214538198,0.016222767669387288,-0.1399573940471894,0.990021819152577
2024/05/14/15:47:24.372970,137005,1715716044,372767847,map,34.19743729129002,-3.8584439140706492,-1.1096495389938354,0.002355261502823738,0.01622276784631106,-0.13995731967822875,0.9900218296659645
2024/05/14/15:47:24.393510,137006,1715716044,393225960,map,34.197233442315415,-3.8583769169575057,-1.1096495389938354,0.0023552603170784755,0.01622276801846044,-0.1399572473161198,0.9900218398956422
2024/05/14/15:47:24.413119,137007,1715716044,412857022,map,34.19704764549831,-3.8583159131974054,-1.1096495389938354,0.002355259163874462,0.016222768185885316,-0.1399571769398956,0.9900218498445742
2024/05/14/15:47:24.433203,137008,1715716044,432964728,map,34.1973811642069,-3.8584242998999954,-1.109628438949585,0.0023462420581305404,0.01622270864395144,-0.1399567590460364,0.9900219313074774
2024/05/14/15:47:24.453428,137009,1715716044,453108752,map,34.197681464826005,-3.858521645800969,-1.109628438949585,0.0023462376580371874,0.016222709280323235,-0.13995649052189452,0.9900219692679818
2024/05/14/15:47:24.473438,137010,1715716044,473076370,map,34.197953435870026,-3.8586095680032697,-1.109628438949585,0.002346233377517685,0.016222709899400268,-0.13995622929497661,0.9900220061968268
2024/05/14/15:47:24.493972,137011,1715716044,493738021,map,34.198200981107,-3.8586893617380174,-1.109628438949585,0.002346229211503672,0.01622271050191565,-0.13995597505597618,0.9900220421377439
2024/05/14/15:47:24.513914,137012,1715716044,513649937,map,34.1984270426721,-3.858762014941097,-1.109628438949585,0.0023462251588795896,0.016222711088030813,-0.13995572773681408,0.9900220771003628
2024/05/14/15:47:24.533885,137013,1715716044,533637857,map,34.19863454753533,-3.858828488154173,-1.109628438949585,0.0023462212088853074,0.016222711659302037,-0.13995548668083266,0.9900221111775176
2024/05/14/15:47:24.553189,137014,1715716044,552983833,map,34.1984420589705,-3.8587641694548016,-1.1080992221832275,0.002331417877246099,0.01625802218398316,-0.1399556524084033,0.990021543484931
2024/05/14/15:47:24.573294,137015,1715716044,572974073,map,34.19826807194227,-3.8587060057262117,-1.1080992221832275,0.00233142679613031,0.01625802090500307,-0.13995619551797825,0.9900214667074044
2024/05/14/15:47:24.593116,137016,1715716044,592900588,map,34.19810999070045,-3.858653136222781,-1.1080992221832275,0.0023314354751706482,0.016258019660412123,-0.13995672402241924,0.9900213919942634
2024/05/14/15:47:24.613569,137017,1715716044,613307109,map,34.197965791027535,-3.8586048850070696,-1.1080992221832275,0.0023314439187814284,0.016258018449577683,-0.13995723819053302,0.9900213193075315
2024/05/14/15:47:24.633072,137018,1715716044,632878565,map,34.19783365642383,-3.858560651636055,-1.1080992221832275,0.0023314521458344946,0.016258017269793847,-0.13995773917150808,0.990021248484772
2024/05/14/15:47:24.653166,137019,1715716044,652920847,map,34.19726411600074,-3.858371968214251,-1.11376953125,0.0023137703234677115,0.016296173816001923,-0.13995786135935742,0.9900206453552187
2024/05/14/15:47:24.673294,137020,1715716044,673035761,map,34.19674958070358,-3.858201590090698,-1.11376953125,0.00231377952664582,0.0162961725093097,-0.13995842046828902,0.9900205663145946
2024/05/14/15:47:24.693089,137021,1715716044,692893057,map,34.19628232949754,-3.858046953746549,-1.11376953125,0.002313788482472827,0.016296171237731968,-0.13995896455021511,0.9900204893980127
2024/05/14/15:47:24.713235,137022,1715716044,712949068,map,34.195856689818214,-3.8579061475033063,-1.11376953125,0.0023137971947282073,0.016296170000732513,-0.13995949383474526,0.9900204145730385
2024/05/14/15:47:24.733112,137023,1715716044,732951244,map,34.19546669407794,-3.8577772208756764,-1.11376953125,0.0023138056842673034,0.016296168795350605,-0.13996000958887747,0.9900203416605793
2024/05/14/15:47:24.753189,137024,1715716044,752987040,map,34.1957269156957,-3.8578618104733744,-1.1069797277450562,0.0022902397045614347,0.016267178193717168,-0.13995974503684225,0.99002091063014
2024/05/14/15:47:24.774312,137025,1715716044,773884474,map,34.195961792424015,-3.8579379735638355,-1.1069797277450562,0.0022902393156523627,0.016267178248471275,-0.13995972136782545,0.9900209139762403
2024/05/14/15:47:24.794295,137026,1715716044,794034995,map,34.19617494778614,-3.8580069107405035,-1.1069797277450562,0.0022902389371265604,0.01626717830176353,-0.13995969833073477,0.9900209172330043
2024/05/14/15:47:24.813273,137027,1715716044,813023306,map,34.196369293859405,-3.858069589456533,-1.1069797277450562,0.002290238568261042,0.016267178353695715,-0.1399596758815692,0.9900209204066526
2024/05/14/15:47:24.833194,137028,1715716044,833000638,map,34.19654718595276,-3.8581267945042694,-1.1069797277450562,0.0022902382091831417,0.016267178404249905,-0.13995965402807836,0.9900209234960895
2024/05/14/15:47:24.853941,137029,1715716044,853660889,map,34.19625984153089,-3.858029358116115,-1.1115286350250244,0.002311844334660288,0.016266792513312457,-0.1399595571453161,0.9900208933152816
2024/05/14/15:47:24.873857,137030,1715716044,873467517,map,34.19600057580886,-3.8579412677705562,-1.1115286350250244,0.0023118373053358336,0.01626679351232186,-0.1399591293303016,0.9900209537955271
2024/05/14/15:47:24.894106,137031,1715716044,893605158,map,34.19576541038122,-3.857861202756571,-1.1115286350250244,0.0023118304651369485,0.016266794484449714,-0.13995871302574728,0.9900210126483567
2024/05/14/15:47:24.913713,137032,1715716044,913448693,map,34.195551363992365,-3.857788161492046,-1.1115286350250244,0.0023118238107874014,0.01626679543016188,-0.13995830803225684,0.9900210699019739
2024/05/14/15:47:24.933697,137033,1715716044,933432705,map,34.19535546519648,-3.8577211692991833,-1.1115286350250244,0.0023118173270278925,0.016266796351627217,-0.13995791342112693,0.9900211256876822
2024/05/14/15:47:24.953413,137034,1715716044,953134652,map,34.195454588415636,-3.857755799779779,-1.1096599102020264,0.0024387092078508384,0.016256091741995077,-0.139960513255974,0.9900206295364757
2024/05/14/15:47:24.974179,137035,1715716044,973892211,map,34.195543930473164,-3.8577871756730664,-1.1096599102020264,0.002438717961658098,0.016256090428762478,-0.1399610463761072,0.9900205541684377
2024/05/14/15:47:24.993091,137036,1715716044,992933555,map,34.195624895573886,-3.8578157623264797,-1.1096599102020264,0.0024387264797241085,0.016256089150890794,-0.13996156513924332,0.99002048082979
2024/05/14/15:47:25.013144,137037,1715716045,12907907,map,34.19569863365078,-3.8578419409065723,-1.1096599102020264,0.0024387347665185063,0.016256087907709865,-0.13996206981758974,0.990020409482073
2024/05/14/15:47:25.033691,137038,1715716045,33452663,map,34.1957660282181,-3.857866007121093,-1.1096599102020264,0.002438742840390841,0.016256086696467244,-0.13996256152866177,0.9900203399673215
2024/05/14/15:47:25.053382,137039,1715716045,53083341,map,34.19594426683624,-3.8579314078448066,-1.1036072969436646,0.002249962446378266,0.01610848084562649,-0.13996123752452938,0.990023386847219
2024/05/14/15:47:25.073207,137040,1715716045,73017548,map,34.19610489192819,-3.857990939820454,-1.1036072969436646,0.002249977980520548,0.016108478675877516,-0.13996219224920445,0.990023251875749
2024/05/14/15:47:25.093357,137041,1715716045,93127366,map,34.1962503989871,-3.8580454319221458,-1.1036072969436646,0.002249993096396241,0.01610847656453574,-0.13996312126731336,0.9900231205375698
2024/05/14/15:47:25.113346,137042,1715716045,113104630,map,34.19638267055293,-3.8580955163778805,-1.1036072969436646,0.002250007800792152,0.0161084745106544,-0.13996402499597171,0.9900229927737856
2024/05/14/15:47:25.133316,137043,1715716045,133028458,map,34.19650356720615,-3.858141803921259,-1.1036072969436646,0.002250022128314583,0.016108472509400843,-0.13996490556207475,0.9900228682837764
2024/05/14/15:47:25.153339,137044,1715716045,153047185,map,34.19704383973503,-3.8583223092152217,-1.1028470993041992,0.0020750560592841688,0.015737295118934406,-0.13996513760653304,0.9900291874179643
2024/05/14/15:47:25.173235,137045,1715716045,173013291,map,34.197531231846064,-3.858485213469159,-1.1028470993041992,0.0020750753513635186,0.01573729257514685,-0.13996635126627482,0.9900290158363522
2024/05/14/15:47:25.193512,137046,1715716045,193076649,map,34.19797324786927,-3.858633008826129,-1.1028470993041992,0.002075094123867412,0.01573729009984564,-0.13996753223964492,0.9900288488743316
2024/05/14/15:47:25.213166,137047,1715716045,212963584,map,34.198375398836845,-3.8587675524638376,-1.1028470993041992,0.0020751123849340842,0.015737287691959555,-0.1399686810386187,0.9900286864596397
2024/05/14/15:47:25.233358,137048,1715716045,233125680,map,34.19874346200033,-3.858890732935691,-1.1028470993041992,0.0020751301780797056,0.015737285345752347,-0.1399698004007882,0.9900285282053513
2024/05/14/15:47:25.253391,137049,1715716045,253084126,map,34.19982735938523,-3.8592554028060007,-1.1092979907989502,0.0019782211600444747,0.01537936924846527,-0.13997080545368729,0.9900342091378497
2024/05/14/15:47:25.273371,137050,1715716045,273102592,map,34.2008050969047,-3.859584731849522,-1.1092979907989502,0.001978233972799065,0.015379367600377804,-0.13997163026419057,0.9900340925259827
2024/05/14/15:47:25.293240,137051,1715716045,293002405,map,34.20169172355589,-3.859883719008984,-1.1092979907989502,0.0019782464405774785,0.015379365996653745,-0.13997243286712877,0.9900339790531527
2024/05/14/15:47:25.313246,137052,1715716045,312994870,map,34.20249819355094,-3.860156061343646,-1.1092979907989502,0.0019782585682616496,0.015379364436665979,-0.139973213576773,0.9900338686749824
2024/05/14/15:47:25.333150,137053,1715716045,332933951,map,34.20323626906125,-3.8604055979906544,-1.1092979907989502,0.001978270385675004,0.015379362916579093,-0.1399739743129824,0.9900337611200892
2024/05/14/15:47:25.353376,137054,1715716045,353102747,map,34.20470562521535,-3.8608975909816063,-1.1166733503341675,0.0018812859503707674,0.015455759415275735,-0.13997279020907524,0.9900329278691472
2024/05/14/15:47:25.373310,137055,1715716045,373066106,map,34.20603118482033,-3.86134171134552,-1.1166733503341675,0.0018812952414266385,0.01545575828435902,-0.13997338535622691,0.9900328437258974
2024/05/14/15:47:25.393309,137056,1715716045,393042478,map,34.20723330692874,-3.861744723620215,-1.1166733503341675,0.0018813042823264483,0.015455757183886113,-0.13997396447939464,0.9900327618478043
2024/05/14/15:47:25.413207,137057,1715716045,412969918,map,34.20832661713648,-3.8621115744950316,-1.1166733503341675,0.0018813130766403563,0.01545575611342289,-0.1399745278072688,0.9900326822025636
2024/05/14/15:47:25.433221,137058,1715716045,433007269,map,34.209327350348744,-3.8624475519940913,-1.1166733503341675,0.0018813216459697343,0.015455755070340391,-0.13997507672354573,0.9900326045945697
2024/05/14/15:47:25.453624,137059,1715716045,453399378,map,34.2114240986712,-3.8631486934413366,-1.1109713315963745,0.0017622714906184323,0.015578257384958357,-0.13997390212390184,0.9900310697247081
2024/05/14/15:47:25.473584,137060,1715716045,473321147,map,34.21331565721741,-3.86378152233667,-1.1109713315963745,0.0017622896741001743,0.015578255327963267,-0.1399750577224478,0.9900309063416347
2024/05/14/15:47:25.493623,137061,1715716045,493374656,map,34.215031077152275,-3.8643556917230266,-1.1109713315963745,0.0017623073676264534,0.015578253326373453,-0.1399761821832561,0.9900307473596167
2024/05/14/15:47:25.513820,137062,1715716045,513507346,map,34.222109102471784,-3.8664582559891403,-1.1109713315963745,0.0017623035528307651,0.015578253757926019,-0.13997593974496986,0.9900307816368914
2024/05/14/15:47:25.533571,137063,1715716045,533374234,map,34.228230687733884,-3.86828187862014,-1.1109713315963745,0.001762310077652152,0.01557825301979852,-0.13997635441108583,0.9900307230090507
2024/05/14/15:47:25.553780,137064,1715716045,553525362,map,34.235185471399404,-3.8704008295820933,-1.1099255084991455,0.0017105488870364088,0.015471119190902624,-0.1399754204529604,0.9900326258071007
2024/05/14/15:47:25.573749,137065,1715716045,573435629,map,34.24162512872485,-3.8723583846193783,-1.1099255084991455,0.001710538793311,0.015471120306901991,-0.13997477453216775,0.9900327171301739
2024/05/14/15:47:25.593717,137066,1715716045,593475370,map,34.247697145592404,-3.874199644798909,-1.1099255084991455,0.0017105288836333774,0.015471121402545873,-0.1399741403890052,0.9900328067876564
2024/05/14/15:47:25.613207,137067,1715716045,612959942,map,34.25634037287601,-3.8767699351365947,-1.1099255084991455,0.0017104964179584462,0.015471124992003921,-0.1399720628353826,0.9900331005168937
2024/05/14/15:47:25.633287,137068,1715716045,632990497,map,34.26417903157907,-3.879103227198013,-1.1099255084991455,0.0017104759632980762,0.01547112725346917,-0.13997075389429078,0.9900332855756668
2024/05/14/15:47:25.653347,137069,1715716045,653088945,map,34.272942846109196,-3.8817559275543005,-1.113325834274292,0.001620396432250077,0.015379273682563695,-0.13996878312755762,0.9900351468539842
2024/05/14/15:47:25.678263,137070,1715716045,673056825,map,34.281218396201396,-3.884253968899771,-1.113325834274292,0.0016203800283381017,0.01537927541090958,-0.13996772713167324,0.9900352961475629
2024/05/14/15:47:25.693347,137071,1715716045,693077403,map,34.28913324794672,-3.8866366839092508,-1.113325834274292,0.0016203636594184544,0.015379277135550977,-0.13996667338836685,0.9900354451215336
2024/05/14/15:47:25.713259,137072,1715716045,713004097,map,34.29804230466143,-3.889295434727264,-1.113325834274292,0.0016203176425250657,0.015379281983830293,-0.13996371106721342,0.9900358639164001
2024/05/14/15:47:25.733771,137073,1715716045,733509763,map,34.30640936388138,-3.8917910268255924,-1.113325834274292,0.0016202871074278411,0.015379285200891105,-0.1399617453810082,0.9900361418081165
2024/05/14/15:47:25.753377,137074,1715716045,753110879,map,34.315782512469404,-3.8946307961623243,-1.1181104183197021,0.0013746563437107878,0.015551043327293314,-0.1399568160498499,0.9900345271820361
2024/05/14/15:47:25.775307,137075,1715716045,773628637,map,34.3247390154361,-3.89733629329831,-1.1181104183197021,0.001374649171406932,0.015551043961297532,-0.13995635943556403,0.990034591731477
2024/05/14/15:47:25.793291,137076,1715716045,793039665,map,34.33337066134098,-3.8999363027776397,-1.1181104183197021,0.0013746411080582904,0.015551044674062719,-0.13995584609419548,0.9900346642999057
2024/05/14/15:47:25.813867,137077,1715716045,813508521,map,34.342461942115435,-3.9026581096940562,-1.1181104183197021,0.0013746217342387947,0.015551046386607446,-0.13995461268808573,0.9900348386590733
2024/05/14/15:47:25.833400,137078,1715716045,833081780,map,34.35115568492137,-3.9052572949888087,-1.1181104183197021,0.0013746073294365522,0.015551047659901165,-0.13995369562719742,0.9900349682974128
2024/05/14/15:47:25.853321,137079,1715716045,853053431,map,34.36030907953333,-3.9080113970160064,-1.1241238117218018,0.0012705607800670045,0.01604103699468509,-0.1399475810831691,0.9900281538200867
2024/05/14/15:47:25.880445,137080,1715716045,872968386,map,34.36914158273046,-3.9106611221702368,-1.1241238117218018,0.0012705274423577158,0.016041039635226767,-0.13994552353084738,0.9900284446676855
2024/05/14/15:47:25.894037,137081,1715716045,893513579,map,34.37771706215296,-3.9132267243644074,-1.1241238117218018,0.0012704923519211283,0.016041042414519393,-0.13994335780259604,0.9900287508019017
2024/05/14/15:47:25.913721,137082,1715716045,913418776,map,34.38658655769162,-3.9158679293620806,-1.1241238117218018,0.0012704517113467815,0.01604104563330696,-0.13994084952793528,0.9900291053503626
2024/05/14/15:47:25.933550,137083,1715716045,933315433,map,34.39516156420743,-3.91841720764949,-1.1241238117218018,0.001270411852984827,0.01604104879004162,-0.13993838952985443,0.990029453068559
2024/05/14/15:47:25.953832,137084,1715716045,953612400,map,34.4043325645871,-3.9211674779481127,-1.1143372058868408,0.001034951199055088,0.016248131709226937,-0.13993152099657138,0.9900273210995549
2024/05/14/15:47:25.973417,137085,1715716045,973081859,map,34.41322576802626,-3.9238267803264852,-1.1143372058868408,0.0010349141690260914,0.016248134067872545,-0.13992926469139683,0.9900276400055203
2024/05/14/15:47:25.993281,137086,1715716045,993023464,map,34.421892201941354,-3.9264114533054753,-1.1143372058868408,0.0010348741988553474,0.016248136613696815,-0.1399268292377364,0.9900279842264301
2024/05/14/15:47:26.014024,137087,1715716046,13771070,map,34.43029832713847,-3.928913528938158,-1.1143372058868408,0.001034832596230414,0.016248139263392303,-0.13992429431524192,0.990028342499525
2024/05/14/15:47:26.033234,137088,1715716046,33008214,map,34.43852829371205,-3.931357964456543,-1.1143372058868408,0.0010347881150285282,0.016248142096307726,-0.13992158399533747,0.9900287255550775
2024/05/14/15:47:26.053370,137089,1715716046,53077635,map,34.44741605496721,-3.9340153181355015,-1.1201870441436768,0.0008426370065935526,0.01596131765382864,-0.13990832078692686,0.9900354478887162
2024/05/14/15:47:26.073310,137090,1715716046,73063214,map,34.45607081847413,-3.9365950380159953,-1.1201870441436768,0.0008424414873779689,0.0159613279745655,-0.1398961932756949,0.9900371616301067
2024/05/14/15:47:26.093913,137091,1715716046,93609510,map,34.46452767890948,-3.939108673302374,-1.1201870441436768,0.0008422436273407775,0.015961338416420678,-0.13988392055644414,0.9900388957366206
2024/05/14/15:47:26.113380,137092,1715716046,113080570,map,34.47282351602326,-3.9415680426842705,-1.1201870441436768,0.0008420437737693006,0.015961348960985694,-0.13987152417001908,0.9900406471594914
2024/05/14/15:47:26.133239,137093,1715716046,133002499,map,34.48096613639887,-3.9439763568660915,-1.1201870441436768,0.0008418421982184226,0.01596135959386297,-0.1398590209598653,0.990042413514581
2024/05/14/15:47:26.153824,137094,1715716046,153592693,map,34.488880168391546,-3.946309916477169,-1.12274169921875,0.0010086041096005513,0.01612887730398659,-0.1398495057457041,0.9900408869220225
2024/05/14/15:47:26.173820,137095,1715716046,173536517,map,34.49666036590631,-3.9485986674770386,-1.12274169921875,0.0010084204651116997,0.016128888786971676,-0.13983823306809126,0.9900424791932197
2024/05/14/15:47:26.193761,137096,1715716046,193474328,map,34.50432627022308,-3.950849071976226,-1.12274169921875,0.001008234647104841,0.016128900403726668,-0.13982682696280757,0.990044090177895
2024/05/14/15:47:26.213395,137097,1715716046,213099225,map,34.51189519917434,-3.9530668036154872,-1.12274169921875,0.001008046894601467,0.01612891213923745,-0.139815302101416,0.9900457177994118
2024/05/14/15:47:26.233292,137098,1715716046,233022549,map,34.519377056991864,-3.9552552772831735,-1.12274169921875,0.0010078575011917626,0.016128923975090477,-0.13980367650513875,0.990047359508781
2024/05/14/15:47:26.254028,137099,1715716046,253760149,map,34.52738066801751,-3.957623644379825,-1.1253386735916138,0.0007493049121184642,0.016307063824710723,-0.13979246886308377,0.9900462533946227
2024/05/14/15:47:26.273227,137100,1715716046,272973886,map,34.53524266280956,-3.959944697611677,-1.1253386735916138,0.000749201989279577,0.016307068553660202,-0.13978622013536962,0.990047135681848
2024/05/14/15:47:26.293136,137101,1715716046,292950274,map,34.542983242352854,-3.9622251447713595,-1.1253386735916138,0.000749097631301044,0.01630707334788475,-0.13977988427255766,0.9900480302310166
2024/05/14/15:47:26.313327,137102,1715716046,313051659,map,34.55061783764283,-3.96447015802089,-1.1253386735916138,0.0007489921213299647,0.01630707819435167,-0.1397734784651515,0.9900489346134955
2024/05/14/15:47:26.333210,137103,1715716046,332993627,map,34.55816096966302,-3.9666845230467285,-1.1253386735916138,0.0007488856763089836,0.016307083083075685,-0.13976701588423285,0.9900498469685161
2024/05/14/15:47:26.353341,137104,1715716046,353086210,map,34.566106633920974,-3.969017203140002,-1.122376561164856,0.0010737125069979593,0.01619067512660058,-0.13974824467768976,0.9900541082637361
2024/05/14/15:47:26.373891,137105,1715716046,373602644,map,34.573917368328296,-3.9713042828237612,-1.122376561164856,0.001073310594694659,0.016190701775096804,-0.13972366785840745,0.9900575770229681
2024/05/14/15:47:26.393327,137106,1715716046,393104615,map,34.581612290893666,-3.9735521220922814,-1.122376561164856,0.0010729081466718984,0.016190728449072687,-0.13969905823429032,0.9900610497887742
2024/05/14/15:47:26.413868,137107,1715716046,413611434,map,34.589205153709976,-3.975765371447407,-1.122376561164856,0.0010724999528478648,0.016190755493612638,-0.13967409720869764,0.9900645715049764
2024/05/14/15:47:26.433200,137108,1715716046,432967753,map,34.59671115157758,-3.9779489976470543,-1.122376561164856,0.0010720945729590754,0.016190782341487957,-0.13964930820845292,0.9900680683151526
2024/05/14/15:47:26.453292,137109,1715716046,453049422,map,34.60434009423625,-3.980193469006916,-1.1244630813598633,0.0013676552625172833,0.016179534923882914,-0.13965187407759314,0.9900675260987738
2024/05/14/15:47:26.473375,137110,1715716046,473090154,map,34.61186456098187,-3.9824030512914206,-1.1244630813598633,0.001367618927751378,0.016179537995217735,-0.13964965065929072,0.9900678397157784
2024/05/14/15:47:26.493204,137111,1715716046,492975144,map,34.619299268059585,-3.984582642769728,-1.1244630813598633,0.0013675808099845614,0.016179541217179183,-0.13964731813424763,0.9900681687170041
2024/05/14/15:47:26.513403,137112,1715716046,513198394,map,34.627327513725135,-3.9869280749117197,-1.1244630813598633,0.0013675354090187028,0.01617954505464595,-0.1396445399309545,0.9900685605735605
2024/05/14/15:47:26.533526,137113,1715716046,533249308,map,34.63518791060817,-3.989222356437691,-1.1244630813598633,0.001367492073249783,0.016179548717434523,-0.1396418881020274,0.9900689345980062
2024/05/14/15:47:26.553169,137114,1715716046,552928172,map,34.64362795744032,-3.9916896014425585,-1.122367024421692,0.0012683185768948837,0.016210200971161184,-0.13961380705522175,0.9900725254404394
2024/05/14/15:47:26.573870,137115,1715716046,573631557,map,34.65190513355679,-3.9941031382943573,-1.122367024421692,0.0012678867326696526,0.016210234753730495,-0.1395874312279927,0.990076244435565
2024/05/14/15:47:26.594025,137116,1715716046,593551341,map,34.66005157298124,-3.996473170851615,-1.122367024421692,0.0012674551510361229,0.016210268504193374,-0.13956107139505755,0.9900799604595205
2024/05/14/15:47:26.613018,137117,1715716046,612796564,map,34.66935175925051,-3.999167621884063,-1.122367024421692,0.001267014058216647,0.01621030298650254,-0.1395341305992208,0.9900837576439591
2024/05/14/15:47:26.633167,137118,1715716046,632892983,map,34.67835241907998,-4.001771998559333,-1.122367024421692,0.0012665796339654662,0.01621033693569494,-0.1395075970571179,0.9900874966970399
