time,.header.seq,.header.stamp.secs,.header.stamp.nsecs,.header.frame_id,.twist.linear.x,.twist.linear.y,.twist.linear.z,.twist.angular.x,.twist.angular.y,.twist.angular.z
2024/05/14/15:47:20.653874,136819,1715716040,653472308,base_link,-9.739341674205643e-06,0.0,0.0,0.0,0.0,1.5544347555363875e-09
2024/05/14/15:47:20.673249,136820,1715716040,673005252,base_link,2.565093160746947e-06,0.0,0.0,0.0,0.0,5.294442511290275e-09
2024/05/14/15:47:20.693470,136821,1715716040,693284953,base_link,1.0831245313302588e-05,0.0,0.0,0.0,0.0,7.544051046935162e-09
2024/05/14/15:47:20.713825,136822,1715716040,713454306,base_link,1.3560702165979849e-05,0.0,0.0,0.0,0.0,2.6985733091113476e-09
2024/05/14/15:47:20.733707,136823,1715716040,733240589,base_link,1.4759822382186315e-05,0.0,0.0,0.0,0.0,1.987553861460203e-09
2024/05/14/15:47:20.753941,136824,1715716040,753650855,base_link,-5.8744265426840045e-06,0.0,0.0,0.0,0.0,-9.086997973441752e-09
2024/05/14/15:47:20.773987,136825,1715716040,773710419,base_link,-1.885251775547367e-05,0.0,0.0,0.0,0.0,-1.4836435861765392e-08
2024/05/14/15:47:20.793843,136826,1715716040,793621826,base_link,-2.735881921132038e-05,0.0,0.0,0.0,0.0,-1.826106222701723e-08
2024/05/14/15:47:20.814114,136827,1715716040,813727374,base_link,-2.708675110342914e-05,0.0,0.0,0.0,0.0,-6.128874705161567e-09
2024/05/14/15:47:20.834015,136828,1715716040,833632278,base_link,-2.6472716653590905e-05,0.0,0.0,0.0,0.0,-4.35557990921415e-09
2024/05/14/15:47:20.856894,136829,1715716040,853389369,base_link,-3.352713498126626e-05,0.0,0.0,0.0,0.0,-1.9185592982221675e-08
2024/05/14/15:47:20.878344,136830,1715716040,873296070,base_link,-3.7550279115236415e-05,0.0,0.0,0.0,0.0,-2.6840599487023818e-08
2024/05/14/15:47:20.893247,136831,1715716040,892920370,base_link,-3.98435719929241e-05,0.0,0.0,0.0,0.0,-3.136456474323585e-08
2024/05/14/15:47:20.913542,136832,1715716040,912997634,base_link,-3.3650230280170276e-05,0.0,0.0,0.0,0.0,-1.0255701644766075e-08
2024/05/14/15:47:20.934194,136833,1715716040,933803932,base_link,-2.984547850293838e-05,0.0,0.0,0.0,0.0,-7.174850368068416e-09
2024/05/14/15:47:20.961416,136834,1715716040,954551397,base_link,-1.0860593573960282e-05,0.0,0.0,0.0,0.0,8.798600701934231e-09
2024/05/14/15:47:20.973957,136835,1715716040,973597873,base_link,1.3191723087941683e-06,0.0,0.0,0.0,0.0,1.71177798607758e-08
2024/05/14/15:47:20.994070,136836,1715716040,993786284,base_link,9.501931801538118e-06,0.0,0.0,0.0,0.0,2.2094484654367013e-08
2024/05/14/15:47:21.013884,136837,1715716041,13605986,base_link,1.2426035168873032e-05,0.0,0.0,0.0,0.0,7.581634811352793e-09
2024/05/14/15:47:21.033391,136838,1715716041,33095265,base_link,1.3740735979223726e-05,0.0,0.0,0.0,0.0,5.457540390008584e-09
2024/05/14/15:47:21.054725,136839,1715716041,54371051,base_link,-1.9695592727319748e-06,0.0,0.0,0.0,0.0,-1.2911011751737147e-09
2024/05/14/15:47:21.073879,136840,1715716041,73557896,base_link,-1.1944004319016173e-05,0.0,0.0,0.0,0.0,-4.820999771909445e-09
2024/05/14/15:47:21.094114,136841,1715716041,93708690,base_link,-1.85602105139703e-05,0.0,0.0,0.0,0.0,-6.944862460603674e-09
2024/05/14/15:47:21.113999,136842,1715716041,113635389,base_link,-1.8897044033844014e-05,0.0,0.0,0.0,0.0,-2.494741691787142e-09
2024/05/14/15:47:21.133209,136843,1715716041,132933390,base_link,-1.876950496735291e-05,0.0,0.0,0.0,0.0,-1.841522851707099e-09
2024/05/14/15:47:21.159747,136844,1715716041,154329319,base_link,-6.230083667592518e-07,0.0,0.0,0.0,0.0,3.339978572816846e-09
2024/05/14/15:47:21.173811,136845,1715716041,173483182,base_link,1.0832736453231684e-05,0.0,0.0,0.0,0.0,6.0354156438960904e-09
2024/05/14/15:47:21.193877,136846,1715716041,193561258,base_link,1.8377978269035773e-05,0.0,0.0,0.0,0.0,7.645338840617331e-09
2024/05/14/15:47:21.213856,136847,1715716041,213559095,base_link,1.9229651568253173e-05,0.0,0.0,0.0,0.0,2.60106626663782e-09
2024/05/14/15:47:21.233702,136848,1715716041,233406709,base_link,1.932420402545522e-05,0.0,0.0,0.0,0.0,1.863157506086675e-09
2024/05/14/15:47:21.254899,136849,1715716041,254386462,base_link,2.3332024538005206e-05,0.0,0.0,0.0,0.0,3.305359692038147e-09
2024/05/14/15:47:21.273273,136850,1715716041,273018809,base_link,2.5520394076889217e-05,0.0,0.0,0.0,0.0,4.0407009399117344e-09
2024/05/14/15:47:21.293361,136851,1715716041,293038616,base_link,2.6679169118199828e-05,0.0,0.0,0.0,0.0,4.4678671751235975e-09
2024/05/14/15:47:21.313167,136852,1715716041,312914659,base_link,2.2292917391973198e-05,0.0,0.0,0.0,0.0,1.4175476791390985e-09
2024/05/14/15:47:21.333232,136853,1715716041,333026512,base_link,1.9608236976286206e-05,0.0,0.0,0.0,0.0,9.730598368226974e-10
2024/05/14/15:47:21.353889,136854,1715716041,353522034,base_link,-8.395756056154293e-06,0.0,0.0,0.0,0.0,-1.966940905288632e-08
2024/05/14/15:47:21.373358,136855,1715716041,373100389,base_link,-2.5960434907815235e-05,0.0,0.0,0.0,0.0,-3.036745033964726e-08
2024/05/14/15:47:21.393227,136856,1715716041,392988413,base_link,-3.7435205539189946e-05,0.0,0.0,0.0,0.0,-3.672463826980751e-08
2024/05/14/15:47:21.413332,136857,1715716041,413024557,base_link,-3.694730310570291e-05,0.0,0.0,0.0,0.0,-1.2219659798181533e-08
2024/05/14/15:47:21.433237,136858,1715716041,432936825,base_link,-3.603412928155816e-05,0.0,0.0,0.0,0.0,-8.63952146453387e-09
2024/05/14/15:47:21.454335,136859,1715716041,453769646,base_link,-2.7686018612684574e-05,0.0,0.0,0.0,0.0,-4.316723550322081e-09
2024/05/14/15:47:21.473437,136860,1715716041,473115679,base_link,-2.196867184660419e-05,0.0,0.0,0.0,0.0,-2.0235566057504005e-09
2024/05/14/15:47:21.493232,136861,1715716041,492975434,base_link,-1.7833137958269873e-05,0.0,0.0,0.0,0.0,-6.179999540885202e-10
2024/05/14/15:47:21.513248,136862,1715716041,512958032,base_link,-1.2054948184051803e-05,0.0,0.0,0.0,0.0,9.614785976876172e-11
2024/05/14/15:47:21.533282,136863,1715716041,532965377,base_link,-8.811193005609608e-06,0.0,0.0,0.0,0.0,1.9542718695014926e-10
2024/05/14/15:47:21.554194,136864,1715716041,553693550,base_link,1.8944492881038497e-05,0.0,0.0,0.0,0.0,1.736798446829765e-08
2024/05/14/15:47:21.573329,136865,1715716041,572997721,base_link,3.6196019982048944e-05,0.0,0.0,0.0,0.0,2.6261169654939246e-08
2024/05/14/15:47:21.593288,136866,1715716041,593032323,base_link,4.733531704099417e-05,0.0,0.0,0.0,0.0,3.154053056494332e-08
2024/05/14/15:47:21.613303,136867,1715716041,613007049,base_link,4.47788023349454e-05,0.0,0.0,0.0,0.0,1.0458664441217543e-08
2024/05/14/15:47:21.633372,136868,1715716041,633057688,base_link,4.264696643475464e-05,0.0,0.0,0.0,0.0,7.37921510492094e-09
2024/05/14/15:47:21.653582,136869,1715716041,653223904,base_link,3.667376838528585e-05,0.0,0.0,0.0,0.0,7.687848541207245e-09
2024/05/14/15:47:21.673357,136870,1715716041,673082689,base_link,3.2322917823834194e-05,0.0,0.0,0.0,0.0,7.80138902276595e-09
2024/05/14/15:47:21.693272,136871,1715716041,693004162,base_link,2.8977666487460376e-05,0.0,0.0,0.0,0.0,7.83122339506022e-09
2024/05/14/15:47:21.713342,136872,1715716041,712994617,base_link,2.15426653974417e-05,0.0,0.0,0.0,0.0,2.341206945434293e-09
2024/05/14/15:47:21.733263,136873,1715716041,733018772,base_link,1.726524188193708e-05,0.0,0.0,0.0,0.0,1.5435486395591014e-09
2024/05/14/15:47:21.753145,136874,1715716041,752874286,base_link,-7.429632865137699e-06,0.0,0.0,0.0,0.0,-1.4752714948964761e-08
2024/05/14/15:47:21.773306,136875,1715716041,773005648,base_link,-2.2960453208696097e-05,0.0,0.0,0.0,0.0,-2.3202756282291396e-08
2024/05/14/15:47:21.793200,136876,1715716041,792929738,base_link,-3.314129107071461e-05,0.0,0.0,0.0,0.0,-2.8227708880996126e-08
2024/05/14/15:47:21.813781,136877,1715716041,813489289,base_link,-3.274621420253713e-05,0.0,0.0,0.0,0.0,-9.419993501744124e-09
2024/05/14/15:47:21.833226,136878,1715716041,832950486,base_link,-9.022261236924956e-06,0.0,0.0,0.0,0.0,-2.411138899711174e-09
2024/05/14/15:47:21.853209,136879,1715716041,852915943,base_link,4.899450651988935e-06,0.0,0.0,0.0,0.0,3.3984376179468635e-10
2024/05/14/15:47:21.873203,136880,1715716041,872924373,base_link,1.3626506209996424e-05,0.0,0.0,0.0,0.0,1.7798602327704302e-09
2024/05/14/15:47:21.893189,136881,1715716041,892933713,base_link,1.9321513439845893e-05,0.0,0.0,0.0,0.0,2.6471760308171406e-09
2024/05/14/15:47:21.913228,136882,1715716041,912973627,base_link,1.893937099938022e-05,0.0,0.0,0.0,0.0,9.624351416572912e-10
2024/05/14/15:47:21.933598,136883,1715716041,933341031,base_link,6.401106207125492e-06,0.0,0.0,0.0,0.0,-3.0090056472161395e-08
2024/05/14/15:47:21.954162,136884,1715716041,953712373,base_link,-8.687998314960026e-07,0.0,0.0,0.0,0.0,-4.194232941159236e-08
2024/05/14/15:47:21.973369,136885,1715716041,973127363,base_link,-5.354968425626758e-06,0.0,0.0,0.0,0.0,-4.7893372226614517e-08
2024/05/14/15:47:21.993300,136886,1715716041,993042178,base_link,-8.222507979930521e-06,0.0,0.0,0.0,0.0,-5.127442707265029e-08
2024/05/14/15:47:22.013012,136887,1715716042,12796579,base_link,-8.259723325603591e-06,0.0,0.0,0.0,0.0,-1.596471554145637e-08
2024/05/14/15:47:22.033339,136888,1715716042,33121923,base_link,-8.089835339249183e-06,0.0,0.0,0.0,0.0,-1.082444942056474e-08
2024/05/14/15:47:22.053924,136889,1715716042,53492890,base_link,-3.955436136859102e-05,0.0,0.0,0.0,0.0,-9.606975564848027e-09
2024/05/14/15:47:22.073639,136890,1715716042,73389888,base_link,-5.8891619126393425e-05,0.0,0.0,0.0,0.0,-8.908562718644851e-09
2024/05/14/15:47:22.093290,136891,1715716042,93000751,base_link,-7.118784582988964e-05,0.0,0.0,0.0,0.0,-8.438835292028625e-09
2024/05/14/15:47:22.113525,136892,1715716042,113014250,base_link,-6.47988578014797e-05,0.0,0.0,0.0,0.0,-2.4227422128791336e-09
2024/05/14/15:47:22.133318,136893,1715716042,132933332,base_link,-6.0324279959933464e-05,0.0,0.0,0.0,0.0,-1.5502559339192294e-09
2024/05/14/15:47:22.153371,136894,1715716042,152992078,base_link,-3.8557860394780464e-05,0.0,0.0,0.0,0.0,1.1465949255846965e-08
2024/05/14/15:47:22.173273,136895,1715716042,172993071,base_link,-2.4247418883398376e-05,0.0,0.0,0.0,0.0,1.8217634143503204e-08
2024/05/14/15:47:22.193156,136896,1715716042,192912400,base_link,-1.4351972482993444e-05,0.0,0.0,0.0,0.0,2.2234595033070185e-08
2024/05/14/15:47:22.213278,136897,1715716042,212973038,base_link,-5.944373515718431e-06,0.0,0.0,0.0,0.0,7.431833123815838e-09
2024/05/14/15:47:22.233219,136898,1715716042,232983971,base_link,5.247331411258102e-06,0.0,0.0,0.0,0.0,9.939258325294791e-09
2024/05/14/15:47:22.253468,136899,1715716042,253180850,base_link,1.1675764717420968e-05,0.0,0.0,0.0,0.0,1.0834408863367601e-08
2024/05/14/15:47:22.273592,136900,1715716042,273276470,base_link,1.5593791015093085e-05,0.0,0.0,0.0,0.0,1.1235902190944342e-08
2024/05/14/15:47:22.293390,136901,1715716042,293099363,base_link,1.8056794636709154e-05,0.0,0.0,0.0,0.0,1.1423857317652816e-08
2024/05/14/15:47:22.313289,136902,1715716042,313009277,base_link,1.606860428047136e-05,0.0,0.0,0.0,0.0,3.444114619732947e-09
2024/05/14/15:47:22.333563,136903,1715716042,333079402,base_link,1.4755688436266944e-05,0.0,0.0,0.0,0.0,2.284281402677238e-09
2024/05/14/15:47:22.353432,136904,1715716042,353133496,base_link,9.896811551118607e-06,0.0,0.0,0.0,0.0,-3.315674562749353e-09
2024/05/14/15:47:22.373466,136905,1715716042,373171910,base_link,6.7751024223121006e-06,0.0,0.0,0.0,0.0,-6.230616433239224e-09
2024/05/14/15:47:22.393396,136906,1715716042,393028466,base_link,4.674397346741662e-06,0.0,0.0,0.0,0.0,-7.973117291373225e-09
2024/05/14/15:47:22.414082,136907,1715716042,413716282,base_link,2.6337581647444254e-06,0.0,0.0,0.0,0.0,-2.7252587843049454e-09
2024/05/14/15:47:22.434241,136908,1715716042,433890472,base_link,1.5627212441179304e-06,0.0,0.0,0.0,0.0,-1.9573513242571534e-09
2024/05/14/15:47:22.453359,136909,1715716042,453092972,base_link,-2.7332215846398757e-06,0.0,0.0,0.0,0.0,-1.7081019443589826e-08
2024/05/14/15:47:22.473392,136910,1715716042,473056707,base_link,-5.462992628253047e-06,0.0,0.0,0.0,0.0,-2.490239519212081e-08
2024/05/14/15:47:22.493282,136911,1715716042,493004344,base_link,-7.275320750521064e-06,0.0,0.0,0.0,0.0,-2.9536749766599365e-08
2024/05/14/15:47:22.514424,136912,1715716042,514122554,base_link,-6.971929408732238e-06,0.0,0.0,0.0,0.0,-9.73253311826894e-09
2024/05/14/15:47:22.534186,136913,1715716042,533811221,base_link,-6.7130469268674635e-06,0.0,0.0,0.0,0.0,-6.84078872324736e-09
2024/05/14/15:47:22.553428,136914,1715716042,553169185,base_link,1.631761351903677e-05,0.0,0.0,0.0,0.0,-4.045180522429016e-09
2024/05/14/15:47:22.573320,136915,1715716042,573054590,base_link,3.0597768488751766e-05,0.0,0.0,0.0,0.0,-2.554291856497489e-09
2024/05/14/15:47:22.593191,136916,1715716042,592922896,base_link,3.978830283867413e-05,0.0,0.0,0.0,0.0,-1.6342438947796776e-09
2024/05/14/15:47:22.613134,136917,1715716042,612863043,base_link,3.752389581100128e-05,0.0,0.0,0.0,0.0,-3.03761533675856e-10
2024/05/14/15:47:22.633162,136918,1715716042,632867700,base_link,3.566134642659308e-05,0.0,0.0,0.0,0.0,-1.134003574249377e-10
2024/05/14/15:47:22.653605,136919,1715716042,653349253,base_link,1.829255611895855e-05,0.0,0.0,0.0,0.0,1.4681632670148811e-08
2024/05/14/15:47:22.673914,136920,1715716042,673622261,base_link,7.082818373186867e-06,0.0,0.0,0.0,0.0,2.2345472845830045e-08
2024/05/14/15:47:22.693578,136921,1715716042,693301672,base_link,-5.027955430171232e-07,0.0,0.0,0.0,0.0,2.689658771070693e-08
2024/05/14/15:47:22.713899,136922,1715716042,713593239,base_link,-4.754687229009066e-06,0.0,0.0,0.0,0.0,8.92857548518793e-09
2024/05/14/15:47:22.733602,136923,1715716042,733306768,base_link,-6.873929057440785e-06,0.0,0.0,0.0,0.0,6.303819613544005e-09
2024/05/14/15:47:22.753818,136924,1715716042,753683710,base_link,1.6538924743464214e-05,0.0,0.0,0.0,0.0,5.347128319220648e-09
2024/05/14/15:47:22.773249,136925,1715716042,772965323,base_link,3.104544407046883e-05,0.0,0.0,0.0,0.0,4.812078021058927e-09
2024/05/14/15:47:22.793302,136926,1715716042,793032832,base_link,4.037351328252106e-05,0.0,0.0,0.0,0.0,4.462307039313313e-09
2024/05/14/15:47:22.813265,136927,1715716042,812980482,base_link,3.807165260671256e-05,0.0,0.0,0.0,0.0,1.2608687899203096e-09
2024/05/14/15:47:22.833284,136928,1715716042,833004999,base_link,3.6175782149843894e-05,0.0,0.0,0.0,0.0,7.968931446870029e-10
2024/05/14/15:47:22.853657,136929,1715716042,853098120,base_link,1.5181332128147436e-05,0.0,0.0,0.0,0.0,-1.496002724142724e-08
2024/05/14/15:47:22.873381,136930,1715716042,873092430,base_link,1.7066694176654274e-06,0.0,0.0,0.0,0.0,-2.312614959748882e-08
2024/05/14/15:47:22.893219,136931,1715716042,892977452,base_link,-7.351156420566239e-06,0.0,0.0,0.0,0.0,-2.7978812612476612e-08
2024/05/14/15:47:22.913096,136932,1715716042,912877380,base_link,-1.1165037931356856e-05,0.0,0.0,0.0,0.0,-9.311419132918466e-09
2024/05/14/15:47:22.933159,136933,1715716042,932904086,base_link,-1.295061323067707e-05,0.0,0.0,0.0,0.0,-6.584081817315132e-09
2024/05/14/15:47:22.953337,136934,1715716042,952994763,base_link,4.510221742519588e-06,0.0,0.0,0.0,0.0,9.912100172643048e-09
2024/05/14/15:47:22.973485,136935,1715716042,973148816,base_link,1.5493970302136583e-05,0.0,0.0,0.0,0.0,1.8497333674199286e-08
2024/05/14/15:47:22.993292,136936,1715716042,993045902,base_link,2.2696050210307694e-05,0.0,0.0,0.0,0.0,2.3628234381554005e-08
2024/05/14/15:47:23.013294,136937,1715716043,13015483,base_link,2.255340525913245e-05,0.0,0.0,0.0,0.0,8.06958028337484e-09
2024/05/14/15:47:23.033151,136938,1715716043,32867665,base_link,2.208590842170943e-05,0.0,0.0,0.0,0.0,5.792971155628173e-09
2024/05/14/15:47:23.053432,136939,1715716043,53063949,base_link,5.452937549909085e-06,0.0,0.0,0.0,0.0,-1.9162275426583462e-09
2024/05/14/15:47:23.074125,136940,1715716043,73800908,base_link,-5.184329402394462e-06,0.0,0.0,0.0,0.0,-5.945388012975361e-09
2024/05/14/15:47:23.093314,136941,1715716043,93048459,base_link,-1.230385108966588e-05,0.0,0.0,0.0,0.0,-8.36711762653988e-09
2024/05/14/15:47:23.113381,136942,1715716043,113086659,base_link,-1.409900485898549e-05,0.0,0.0,0.0,0.0,-2.9782197255300122e-09
2024/05/14/15:47:23.133216,136943,1715716043,132977334,base_link,-1.4805441737488495e-05,0.0,0.0,0.0,0.0,-2.1876382683434795e-09
2024/05/14/15:47:23.153451,136944,1715716043,153208093,base_link,-2.9093219160925303e-05,0.0,0.0,0.0,0.0,-2.753274125508305e-09
2024/05/14/15:47:23.174300,136945,1715716043,173971248,base_link,-3.762886408140976e-05,0.0,0.0,0.0,0.0,-3.032507128031793e-09
2024/05/14/15:47:23.193507,136946,1715716043,193002622,base_link,-4.285073439831101e-05,0.0,0.0,0.0,0.0,-3.1871586414263358e-09
2024/05/14/15:47:23.213359,136947,1715716043,213043185,base_link,-3.770478410834032e-05,0.0,0.0,0.0,0.0,-9.812596938289356e-10
2024/05/14/15:47:23.233176,136948,1715716043,232934639,base_link,-3.432335564851328e-05,0.0,0.0,0.0,0.0,-6.603054968906093e-10
2024/05/14/15:47:23.253318,136949,1715716043,253072802,base_link,-1.063250415673766e-05,0.0,0.0,0.0,0.0,7.182326764680458e-09
2024/05/14/15:47:23.274347,136950,1715716043,273435161,base_link,4.469981951915448e-06,0.0,0.0,0.0,0.0,1.124832756383306e-08
2024/05/14/15:47:23.293302,136951,1715716043,293040652,base_link,1.4538654968188723e-05,0.0,0.0,0.0,0.0,1.3665748268839407e-08
2024/05/14/15:47:23.313575,136952,1715716043,313030706,base_link,1.7568300180780533e-05,0.0,0.0,0.0,0.0,4.557390408797439e-09
2024/05/14/15:47:23.333302,136953,1715716043,332941115,base_link,1.8827435764874984e-05,0.0,0.0,0.0,0.0,3.2264719263976128e-09
2024/05/14/15:47:23.353401,136954,1715716043,353131931,base_link,-5.327639357674118e-06,0.0,0.0,0.0,0.0,-3.6063017311861984e-09
2024/05/14/15:47:23.374236,136955,1715716043,373578214,base_link,-2.0488893455202665e-05,0.0,0.0,0.0,0.0,-7.16537457774157e-09
2024/05/14/15:47:23.393358,136956,1715716043,393066857,base_link,-3.0402572961208824e-05,0.0,0.0,0.0,0.0,-9.294886383037106e-09
2024/05/14/15:47:23.413291,136957,1715716043,413006559,base_link,-3.033864819037093e-05,0.0,0.0,0.0,0.0,-3.1965675620859615e-09
2024/05/14/15:47:23.433266,136958,1715716043,432991048,base_link,-2.9757122802700266e-05,0.0,0.0,0.0,0.0,-2.3038496711329174e-09
2024/05/14/15:47:23.453363,136959,1715716043,453049807,base_link,-2.36222598018184e-05,0.0,0.0,0.0,0.0,-1.0741960693666935e-09
2024/05/14/15:47:23.473596,136960,1715716043,473316459,base_link,-1.9405323762151493e-05,0.0,0.0,0.0,0.0,-4.2286991163105574e-10
2024/05/14/15:47:23.493479,136961,1715716043,493072235,base_link,-1.6343325781130194e-05,0.0,0.0,0.0,0.0,-2.4429148731100514e-11
2024/05/14/15:47:23.513309,136962,1715716043,512991481,base_link,-1.1489245395511685e-05,0.0,0.0,0.0,0.0,7.220812004022125e-11
2024/05/14/15:47:23.533335,136963,1715716043,533027248,base_link,-8.75556215993941e-06,0.0,0.0,0.0,0.0,8.497860375232652e-11
2024/05/14/15:47:23.553458,136964,1715716043,553170111,base_link,1.397272673796193e-05,0.0,0.0,0.0,0.0,4.574317455077239e-09
2024/05/14/15:47:23.573362,136965,1715716043,573063376,base_link,2.8161230194831086e-05,0.0,0.0,0.0,0.0,6.8988717019089185e-09
2024/05/14/15:47:23.593380,136966,1715716043,593083146,base_link,3.737458684697406e-05,0.0,0.0,0.0,0.0,8.278544805099973e-09
2024/05/14/15:47:23.613920,136967,1715716043,613616185,base_link,3.561884971393623e-05,0.0,0.0,0.0,0.0,2.7438939102162486e-09
2024/05/14/15:47:23.633420,136968,1715716043,633132454,base_link,3.4084600269318844e-05,0.0,0.0,0.0,0.0,1.9354489671206357e-09
2024/05/14/15:47:23.653254,136969,1715716043,652966178,base_link,9.065921882769816e-06,0.0,0.0,0.0,0.0,-1.5459380905901256e-08
2024/05/14/15:47:23.673459,136970,1715716043,673136054,base_link,-6.83080301352066e-06,0.0,0.0,0.0,0.0,-2.4480489593620855e-08
2024/05/14/15:47:23.693541,136971,1715716043,693309055,base_link,-1.7386281483425472e-05,0.0,0.0,0.0,0.0,-2.984620921375992e-08
2024/05/14/15:47:23.713887,136972,1715716043,713612069,base_link,-2.0144563455623748e-05,0.0,0.0,0.0,0.0,-9.970545919992465e-09
2024/05/14/15:47:23.734036,136973,1715716043,733725527,base_link,-2.120722743064246e-05,0.0,0.0,0.0,0.0,-7.0659978121247716e-09
2024/05/14/15:47:23.753377,136974,1715716043,753052284,base_link,-1.236562174750709e-05,0.0,0.0,0.0,0.0,6.519320128427433e-09
2024/05/14/15:47:23.773539,136975,1715716043,773270433,base_link,-6.510565541428978e-06,0.0,0.0,0.0,0.0,1.3599664867132657e-08
2024/05/14/15:47:23.793457,136976,1715716043,793000498,base_link,-2.4281070102892896e-06,0.0,0.0,0.0,0.0,1.783929270278283e-08
2024/05/14/15:47:23.813956,136977,1715716043,813660903,base_link,4.310652770674371e-07,0.0,0.0,0.0,0.0,6.165456358673629e-09
2024/05/14/15:47:23.833167,136978,1715716043,832923688,base_link,1.9518958255678097e-06,0.0,0.0,0.0,0.0,4.4560231925336604e-09
2024/05/14/15:47:23.853358,136979,1715716043,853027844,base_link,7.980109834416911e-06,0.0,0.0,0.0,0.0,1.2683757663007084e-08
2024/05/14/15:47:23.873199,136980,1715716043,872964719,base_link,1.1647538244254487e-05,0.0,0.0,0.0,0.0,1.691694965730152e-08
2024/05/14/15:47:23.893293,136981,1715716043,892978671,base_link,1.3948955569715485e-05,0.0,0.0,0.0,0.0,1.9407461414094176e-08
2024/05/14/15:47:23.913747,136982,1715716043,913416073,base_link,1.2618314070208527e-05,0.0,0.0,0.0,0.0,6.284111499385983e-09
2024/05/14/15:47:23.933228,136983,1715716043,932984092,base_link,1.1689854638416177e-05,0.0,0.0,0.0,0.0,4.369666618872406e-09
2024/05/14/15:47:23.953144,136984,1715716043,952878221,base_link,1.0272795950162331e-05,0.0,0.0,0.0,0.0,6.844285609765038e-09
2024/05/14/15:47:23.973862,136985,1715716043,973485521,base_link,9.234036664233547e-06,0.0,0.0,0.0,0.0,8.098443100968357e-09
2024/05/14/15:47:23.993198,136986,1715716043,992922914,base_link,8.43062790957746e-06,0.0,0.0,0.0,0.0,8.820748498158434e-09
2024/05/14/15:47:24.013268,136987,1715716044,13015349,base_link,6.3758299732133144e-06,0.0,0.0,0.0,0.0,2.7744201825922823e-09
2024/05/14/15:47:24.033218,136988,1715716044,32948426,base_link,5.1938233145539975e-06,0.0,0.0,0.0,0.0,1.893730628202979e-09
2024/05/14/15:47:24.053378,136989,1715716044,53051266,base_link,-6.226539814241823e-06,0.0,0.0,0.0,0.0,5.997337961414934e-09
2024/05/14/15:47:24.073672,136990,1715716044,73354278,base_link,-1.3428105193756372e-05,0.0,0.0,0.0,0.0,8.110704210719864e-09
2024/05/14/15:47:24.093176,136991,1715716044,92957411,base_link,-1.8164779071729042e-05,0.0,0.0,0.0,0.0,9.355733988831742e-09
2024/05/14/15:47:24.113340,136992,1715716044,112997680,base_link,-1.7495126795724827e-05,0.0,0.0,0.0,0.0,3.038236156121792e-09
2024/05/14/15:47:24.133708,136993,1715716044,133383299,base_link,-1.6867904148371416e-05,0.0,0.0,0.0,0.0,2.116485943659281e-09
2024/05/14/15:47:24.153413,136994,1715716044,153108470,base_link,1.520678516009875e-07,0.0,0.0,0.0,0.0,-3.266962459536402e-09
2024/05/14/15:47:24.174170,136995,1715716044,173565865,base_link,1.0888421719881873e-05,0.0,0.0,0.0,0.0,-6.0683642371373055e-09
2024/05/14/15:47:24.193239,136996,1715716044,192978371,base_link,1.7953276659393026e-05,0.0,0.0,0.0,0.0,-7.742325519372969e-09
2024/05/14/15:47:24.213065,136997,1715716044,212819880,base_link,1.8611320389309418e-05,0.0,0.0,0.0,0.0,-2.6426985655399724e-09
2024/05/14/15:47:24.232932,136998,1715716044,232761226,base_link,-1.247847862764284e-05,0.0,0.0,0.0,0.0,-1.1671707280018823e-09
2024/05/14/15:47:24.253024,136999,1715716044,252820759,base_link,-3.031684237029194e-05,0.0,0.0,0.0,0.0,-5.825882920715089e-10
2024/05/14/15:47:24.273328,137000,1715716044,273024014,base_link,-4.1175135156490266e-05,0.0,0.0,0.0,0.0,-2.7248913779308854e-10
2024/05/14/15:47:24.293509,137001,1715716044,292880812,base_link,-4.7990388797592116e-05,0.0,0.0,0.0,0.0,-8.242846443015398e-11
2024/05/14/15:47:24.313076,137002,1715716044,312804008,base_link,-4.2839126173163796e-05,0.0,0.0,0.0,0.0,1.3339717674932987e-11
2024/05/14/15:47:24.333481,137003,1715716044,333225135,base_link,-5.3464093988631285e-05,0.0,0.0,0.0,0.0,2.488105177271594e-09
2024/05/14/15:47:24.353035,137004,1715716044,352745326,base_link,-5.8711485703052316e-05,0.0,0.0,0.0,0.0,3.431890618028339e-09
2024/05/14/15:47:24.373269,137005,1715716044,372769871,base_link,-6.121023094305509e-05,0.0,0.0,0.0,0.0,3.905151698392779e-09
2024/05/14/15:47:24.393522,137006,1715716044,393228413,base_link,-6.217914067809213e-05,0.0,0.0,0.0,0.0,4.17351905294395e-09
2024/05/14/15:47:24.413163,137007,1715716044,412859029,base_link,-5.0982309412917855e-05,0.0,0.0,0.0,0.0,1.2980884365972086e-09
2024/05/14/15:47:24.433247,137008,1715716044,432968148,base_link,-1.5269722811457906e-05,0.0,0.0,0.0,0.0,9.400006113584364e-09
2024/05/14/15:47:24.453453,137009,1715716044,453111322,base_link,5.807965038402279e-06,0.0,0.0,0.0,0.0,1.247966294365669e-08
2024/05/14/15:47:24.473466,137010,1715716044,473079538,base_link,1.911287016845685e-05,0.0,0.0,0.0,0.0,1.4016102126108307e-08
2024/05/14/15:47:24.494371,137011,1715716044,493741565,base_link,2.786908133564164e-05,0.0,0.0,0.0,0.0,1.488076683826059e-08
2024/05/14/15:47:24.513926,137012,1715716044,513654074,base_link,2.7665086514473333e-05,0.0,0.0,0.0,0.0,4.609995695809913e-09
2024/05/14/15:47:24.533899,137013,1715716044,533641306,base_link,2.709047058419998e-05,0.0,0.0,0.0,0.0,3.115193005068899e-09
2024/05/14/15:47:24.553201,137014,1715716044,552986207,base_link,1.0676488122652264e-05,0.0,0.0,0.0,0.0,-1.026886339630588e-08
2024/05/14/15:47:24.573323,137015,1715716044,572976793,base_link,1.618093276154768e-07,0.0,0.0,0.0,0.0,-1.7221065816195462e-08
2024/05/14/15:47:24.593140,137016,1715716044,592903038,base_link,-6.8875995387112186e-06,0.0,0.0,0.0,0.0,-2.1365186453266484e-08
2024/05/14/15:47:24.613611,137017,1715716044,613312206,base_link,-9.630511312719616e-06,0.0,0.0,0.0,0.0,-7.197979522619549e-09
2024/05/14/15:47:24.633083,137018,1715716044,632880986,base_link,-1.0881814620096637e-05,0.0,0.0,0.0,0.0,-5.126711579188837e-09
2024/05/14/15:47:24.653189,137019,1715716044,652922994,base_link,-4.3729244864272495e-05,0.0,0.0,0.0,0.0,-1.640575258701847e-08
2024/05/14/15:47:24.673301,137020,1715716044,673039876,base_link,-6.384367684344927e-05,0.0,0.0,0.0,0.0,-2.2215865096224946e-08
2024/05/14/15:47:24.693173,137021,1715716044,692895302,base_link,-7.65736134043956e-05,0.0,0.0,0.0,0.0,-2.563982871603496e-08
2024/05/14/15:47:24.713249,137022,1715716044,712951885,base_link,-6.939555726787769e-05,0.0,0.0,0.0,0.0,-8.328967470237253e-09
2024/05/14/15:47:24.733123,137023,1715716044,732953348,base_link,-6.44140570652826e-05,0.0,0.0,0.0,0.0,-5.803285102058309e-09
2024/05/14/15:47:24.753274,137024,1715716044,752989698,base_link,-3.675627649825822e-05,0.0,0.0,0.0,0.0,-3.5321635429645508e-09
2024/05/14/15:47:24.774319,137025,1715716044,773888274,base_link,-1.873575630213614e-05,0.0,0.0,0.0,0.0,-2.3194218465480107e-09
2024/05/14/15:47:24.794300,137026,1715716044,794039706,base_link,-6.40428019756512e-06,0.0,0.0,0.0,0.0,-1.5697927331004022e-09
2024/05/14/15:47:24.813286,137027,1715716044,813025833,base_link,1.9083054608129364e-06,0.0,0.0,0.0,0.0,-3.1854067508011516e-10
2024/05/14/15:47:24.833262,137028,1715716044,833003124,base_link,6.211761110313786e-06,0.0,0.0,0.0,0.0,-1.3914605792490528e-10
2024/05/14/15:47:24.853984,137029,1715716044,853664144,base_link,-1.1761473455272635e-05,0.0,0.0,0.0,0.0,9.702470711856105e-09
2024/05/14/15:47:24.873890,137030,1715716044,873471182,base_link,-2.288205178495837e-05,0.0,0.0,0.0,0.0,1.4800867267309928e-08
2024/05/14/15:47:24.894135,137031,1715716044,893608775,base_link,-3.0019284740347577e-05,0.0,0.0,0.0,0.0,1.7828861271262373e-08
2024/05/14/15:47:24.913722,137032,1715716044,913451845,base_link,-2.8405830575502652e-05,0.0,0.0,0.0,0.0,5.920700969994382e-09
2024/05/14/15:47:24.933745,137033,1715716044,933436803,base_link,-2.7032065939551123e-05,0.0,0.0,0.0,0.0,4.18113027403826e-09
2024/05/14/15:47:24.953435,137034,1715716044,953137788,base_link,-1.6682451167275882e-05,0.0,0.0,0.0,0.0,-9.280496232289909e-09
2024/05/14/15:47:24.974223,137035,1715716044,973895998,base_link,-9.95099172926375e-06,0.0,0.0,0.0,0.0,-1.6279139456011732e-08
2024/05/14/15:47:24.993121,137036,1715716044,992935748,base_link,-5.3537910315472575e-06,0.0,0.0,0.0,0.0,-2.0455931755760527e-08
2024/05/14/15:47:25.013166,137037,1715716045,12910550,base_link,-1.72388755225655e-06,0.0,0.0,0.0,0.0,-6.9332823993081865e-09
2024/05/14/15:47:25.033718,137038,1715716045,33455569,base_link,1.7780553446402204e-07,0.0,0.0,0.0,0.0,-4.955507951827109e-09
2024/05/14/15:47:25.053412,137039,1715716045,53086042,base_link,9.345224613887177e-06,0.0,0.0,0.0,0.0,-2.533351213743578e-08
2024/05/14/15:47:25.073260,137040,1715716045,73019806,base_link,1.4853736922556207e-05,0.0,0.0,0.0,0.0,-3.58571087444123e-08
2024/05/14/15:47:25.094238,137041,1715716045,93130218,base_link,1.8251443206252787e-05,0.0,0.0,0.0,0.0,-4.208032991443725e-08
2024/05/14/15:47:25.113388,137042,1715716045,113107776,base_link,1.666732079158487e-05,0.0,0.0,0.0,0.0,-1.3789941056286806e-08
2024/05/14/15:47:25.133378,137043,1715716045,133030741,base_link,1.5482637068262396e-05,0.0,0.0,0.0,0.0,-9.660278534647697e-09
2024/05/14/15:47:25.153351,137044,1715716045,153050703,base_link,4.496252047415261e-05,0.0,0.0,0.0,0.0,-3.454771923840528e-08
2024/05/14/15:47:25.173257,137045,1715716045,173016098,base_link,6.286652764011193e-05,0.0,0.0,0.0,0.0,-4.73771473506173e-08
2024/05/14/15:47:25.193368,137046,1715716045,193079520,base_link,7.407485816865423e-05,0.0,0.0,0.0,0.0,-5.4945287087837186e-08
2024/05/14/15:47:25.213227,137047,1715716045,212966504,base_link,6.646265789402179e-05,0.0,0.0,0.0,0.0,-1.789453231507252e-08
2024/05/14/15:47:25.233372,137048,1715716045,233128287,base_link,6.128469902837234e-05,0.0,0.0,0.0,0.0,-1.2487904087180274e-08
2024/05/14/15:47:25.253402,137049,1715716045,253087044,base_link,0.00011440030918184797,0.0,0.0,0.0,0.0,-2.7622760071560134e-08
2024/05/14/15:47:25.273395,137050,1715716045,273105188,base_link,0.00014610933746336845,0.0,0.0,0.0,0.0,-3.538321124920124e-08
2024/05/14/15:47:25.293268,137051,1715716045,293005063,base_link,0.00016548783708668374,0.0,0.0,0.0,0.0,-3.992727570773781e-08
2024/05/14/15:47:25.313252,137052,1715716045,312997076,base_link,0.00014520484557348234,0.0,0.0,0.0,0.0,-1.2812837000033148e-08
2024/05/14/15:47:25.333179,137053,1715716045,332936021,base_link,0.0001319723621942702,0.0,0.0,0.0,0.0,-8.859325236749755e-09
2024/05/14/15:47:25.353391,137054,1715716045,353105448,base_link,0.0001958545867162191,0.0,0.0,0.0,0.0,-1.9812760349943317e-08
2024/05/14/15:47:25.373349,137055,1715716045,373068849,base_link,0.0002331741439930882,0.0,0.0,0.0,0.0,-2.5430203542310527e-08
2024/05/14/15:47:25.393324,137056,1715716045,393045327,base_link,0.0002552672986516444,0.0,0.0,0.0,0.0,-2.8720295692031483e-08
2024/05/14/15:47:25.413239,137057,1715716045,412972271,base_link,0.00021954704618441404,0.0,0.0,0.0,0.0,-9.220736739909874e-09
2024/05/14/15:47:25.433271,137058,1715716045,433009507,base_link,0.00019694306193068987,0.0,0.0,0.0,0.0,-6.377458718656926e-09
2024/05/14/15:47:25.453638,137059,1715716045,453402053,base_link,0.00028677433513023764,0.0,0.0,0.0,0.0,-3.086643198473009e-08
2024/05/14/15:47:25.473954,137060,1715716045,473324595,base_link,0.00033910384209582796,0.0,0.0,0.0,0.0,-4.3509669356931704e-08
2024/05/14/15:47:25.493625,137061,1715716045,493378191,base_link,0.00036994966957808217,0.0,0.0,0.0,0.0,-5.0983657334290984e-08
2024/05/14/15:47:25.513854,137062,1715716045,513510804,base_link,0.053928632588183374,0.0,0.0,0.0,0.0,4.046782216563796e-05
2024/05/14/15:47:25.533595,137063,1715716045,533377555,base_link,0.08431665539414586,0.0,0.0,0.0,0.0,4.631451416566061e-05
2024/05/14/15:47:25.553799,137064,1715716045,553528155,base_link,0.10402349650257095,0.0,0.0,0.0,0.0,4.866082178845957e-05
2024/05/14/15:47:25.573809,137065,1715716045,573439303,base_link,0.11776388102079022,0.0,0.0,0.0,0.0,4.992514939089278e-05
2024/05/14/15:47:25.593729,137066,1715716045,593479255,base_link,0.12788871071185973,0.0,0.0,0.0,0.0,5.071566774458118e-05
2024/05/14/15:47:25.613246,137067,1715716045,612962535,base_link,0.1698058397262804,0.0,0.0,0.0,0.0,9.600652654985747e-05
2024/05/14/15:47:25.633364,137068,1715716045,632994054,base_link,0.19358729562539953,0.0,0.0,0.0,0.0,0.00010254173700737796
2024/05/14/15:47:25.653389,137069,1715716045,653091891,base_link,0.20905012945015555,0.0,0.0,0.0,0.0,0.00010515858931500214
2024/05/14/15:47:25.678292,137070,1715716045,673059635,base_link,0.21982715640925882,0.0,0.0,0.0,0.0,0.00010656879196046013
2024/05/14/15:47:25.693392,137071,1715716045,693080467,base_link,0.22776519468912818,0.0,0.0,0.0,0.0,0.00010745058730937928
2024/05/14/15:47:25.713289,137072,1715716045,713006998,base_link,0.25128307284494056,0.0,0.0,0.0,0.0,0.0001667260259668508
2024/05/14/15:47:25.733842,137073,1715716045,733512916,base_link,0.26462354317528025,0.0,0.0,0.0,0.0,0.00017527914067063866
2024/05/14/15:47:25.753385,137074,1715716045,753115237,base_link,0.27336457023768723,0.0,0.0,0.0,0.0,0.0001786825354662755
2024/05/14/15:47:25.775323,137075,1715716045,773632072,base_link,0.2794496068997179,0.0,0.0,0.0,0.0,0.00018051709012697378
2024/05/14/15:47:25.793348,137076,1715716045,793042178,base_link,0.28392631847840755,0.0,0.0,0.0,0.0,0.00018166460985978144
2024/05/14/15:47:25.813881,137077,1715716045,813512482,base_link,0.29718209618329067,0.0,0.0,0.0,0.0,0.0002037686047949318
2024/05/14/15:47:25.833432,137078,1715716045,833085048,base_link,0.3046991047268218,0.0,0.0,0.0,0.0,0.00020695814119155121
2024/05/14/15:47:25.853342,137079,1715716045,853055960,base_link,0.3096574945405061,0.0,0.0,0.0,0.0,0.00020820226516575242
2024/05/14/15:47:25.880462,137080,1715716045,872971015,base_link,0.31310497108316443,0.0,0.0,0.0,0.0,0.00020887338552516232
2024/05/14/15:47:25.894109,137081,1715716045,893517813,base_link,0.3156380332153172,0.0,0.0,0.0,0.0,0.00020929355050456393
2024/05/14/15:47:25.913733,137082,1715716045,913422098,base_link,0.3240554647898676,0.0,0.0,0.0,0.0,0.00021749907863922286
2024/05/14/15:47:25.933576,137083,1715716045,933318908,base_link,0.3288277194286379,0.0,0.0,0.0,0.0,0.00021868315891557596
2024/05/14/15:47:25.953888,137084,1715716045,953615762,base_link,0.33201164920862297,0.0,0.0,0.0,0.0,0.00021909230787067302
2024/05/14/15:47:25.973459,137085,1715716045,973084369,base_link,0.3342217376891202,0.0,0.0,0.0,0.0,0.00021931407182809287
2024/05/14/15:47:25.993304,137086,1715716045,993026189,base_link,0.335842885673833,0.0,0.0,0.0,0.0,0.00021945372483667887
2024/05/14/15:47:26.014078,137087,1715716046,13775554,base_link,0.3373727123878651,0.0,0.0,0.0,0.0,0.00021780209455685086
2024/05/14/15:47:26.033260,137088,1715716046,33010646,base_link,0.3382369747212201,0.0,0.0,0.0,0.0,0.0002175639031414064
2024/05/14/15:47:26.053407,137089,1715716046,53080262,base_link,0.3388993727382672,0.0,0.0,0.0,0.0,0.0002174283929690967
2024/05/14/15:47:26.073588,137090,1715716046,73066058,base_link,0.33935027447726074,0.0,0.0,0.0,0.0,0.0002173556837952712
2024/05/14/15:47:26.093966,137091,1715716046,93613102,base_link,0.3396743302540337,0.0,0.0,0.0,0.0,0.00021731045320736556
2024/05/14/15:47:26.113389,137092,1715716046,113083122,base_link,0.340144840665145,0.0,0.0,0.0,0.0,0.0002172646840893496
2024/05/14/15:47:26.133323,137093,1715716046,133005523,base_link,0.34040816934244084,0.0,0.0,0.0,0.0,0.00021725810834969525
2024/05/14/15:47:26.153853,137094,1715716046,153596065,base_link,0.34062670958266744,0.0,0.0,0.0,0.0,0.0002171825573869622
2024/05/14/15:47:26.173844,137095,1715716046,173546153,base_link,0.34077257966188573,0.0,0.0,0.0,0.0,0.00021714278718506561
2024/05/14/15:47:26.193823,137096,1715716046,193477535,base_link,0.34087519519049436,0.0,0.0,0.0,0.0,0.00021711864717722664
2024/05/14/15:47:26.213809,137097,1715716046,213101648,base_link,0.3409912682724527,0.0,0.0,0.0,0.0,0.00021721169093558447
2024/05/14/15:47:26.233298,137098,1715716046,233025191,base_link,0.3410549950327207,0.0,0.0,0.0,0.0,0.00021722521195905597
2024/05/14/15:47:26.254054,137099,1715716046,253763567,base_link,0.3411633332389881,0.0,0.0,0.0,0.0,0.00021725486857914747
2024/05/14/15:47:26.273576,137100,1715716046,272976890,base_link,0.3412318292082533,0.0,0.0,0.0,0.0,0.00021727028976967756
2024/05/14/15:47:26.293176,137101,1715716046,292952984,base_link,0.3412770285031062,0.0,0.0,0.0,0.0,0.00021727948516020394
2024/05/14/15:47:26.313351,137102,1715716046,313054956,base_link,0.3412840308414585,0.0,0.0,0.0,0.0,0.00021726640085326267
2024/05/14/15:47:26.333253,137103,1715716046,332996534,base_link,0.34128571645434586,0.0,0.0,0.0,0.0,0.00021726445125251214
2024/05/14/15:47:26.353348,137104,1715716046,353088570,base_link,0.3413505141120782,0.0,0.0,0.0,0.0,0.00021722442756532895
2024/05/14/15:47:26.373916,137105,1715716046,373605935,base_link,0.34138892404598453,0.0,0.0,0.0,0.0,0.00021720243744060484
2024/05/14/15:47:26.393386,137106,1715716046,393107462,base_link,0.3414121573996957,0.0,0.0,0.0,0.0,0.00021718835199319573
2024/05/14/15:47:26.414075,137107,1715716046,413615524,base_link,0.34138102353792876,0.0,0.0,0.0,0.0,0.00022738932885009571
2024/05/14/15:47:26.433271,137108,1715716046,432970406,base_link,0.3413611650112595,0.0,0.0,0.0,0.0,0.00022886122650566496
2024/05/14/15:47:26.453323,137109,1715716046,453051986,base_link,0.34139253864186353,0.0,0.0,0.0,0.0,0.00022945547545291775
2024/05/14/15:47:26.473402,137110,1715716046,473092863,base_link,0.34140915594215715,0.0,0.0,0.0,0.0,0.00022977568977544774
2024/05/14/15:47:26.493211,137111,1715716046,492977432,base_link,0.34141746366302717,0.0,0.0,0.0,0.0,0.00022997589273488422
2024/05/14/15:47:26.513422,137112,1715716046,513200888,base_link,0.34791465074085637,0.0,0.0,0.0,0.0,0.00024259805818025793
2024/05/14/15:47:26.533554,137113,1715716046,533253193,base_link,0.3515997157841809,0.0,0.0,0.0,0.0,0.000244419361085059
2024/05/14/15:47:26.553172,137114,1715716046,552931341,base_link,0.35404072518080104,0.0,0.0,0.0,0.0,0.0002451165091657216
2024/05/14/15:47:26.573923,137115,1715716046,573636291,base_link,0.3557376591399771,0.0,0.0,0.0,0.0,0.0002454916368047104
2024/05/14/15:47:26.594047,137116,1715716046,593555094,base_link,0.3569843029186858,0.0,0.0,0.0,0.0,0.00024572576224340313
2024/05/14/15:47:26.613048,137117,1715716046,612798548,base_link,0.3709610554067884,0.0,0.0,0.0,0.0,0.0002681179321048062
2024/05/14/15:47:26.633161,137118,1715716046,632895848,base_link,0.37888990384163584,0.0,0.0,0.0,0.0,0.0002713489380271688
2024/05/14/15:47:26.653281,137119,1715716046,652956854,base_link,0.38407279193997496,0.0,0.0,0.0,0.0,0.0002725909007731793
2024/05/14/15:47:26.673509,137120,1715716046,673186215,base_link,0.38768232822822435,0.0,0.0,0.0,0.0,0.00027325986581872464
2024/05/14/15:47:26.693173,137121,1715716046,692914999,base_link,0.39033894593496543,0.0,0.0,0.0,0.0,0.0002736779161557841
2024/05/14/15:47:26.714121,137122,1715716046,713765769,base_link,0.4094993851721832,0.0,0.0,0.0,0.0,0.0003014968468405891
2024/05/14/15:47:26.733276,137123,1715716046,732988375,base_link,0.4203693797659878,0.0,0.0,0.0,0.0,0.00030551093021831546
2024/05/14/15:47:26.753331,137124,1715716046,753052369,base_link,0.42743955785062915,0.0,0.0,0.0,0.0,0.00030704726814252437
2024/05/14/15:47:26.773889,137125,1715716046,773638506,base_link,0.432366723089598,0.0,0.0,0.0,0.0,0.00030787416068080034
2024/05/14/15:47:26.798675,137126,1715716046,793473055,base_link,0.4359955563544402,0.0,0.0,0.0,0.0,0.0003083904216371762
2024/05/14/15:47:26.814110,137127,1715716046,813792308,base_link,0.4595536738079335,0.0,0.0,0.0,0.0,0.00035685819104798287
2024/05/14/15:47:26.834007,137128,1715716046,833551169,base_link,0.47291925724689166,0.0,0.0,0.0,0.0,0.0003638517167885886
2024/05/14/15:47:26.853348,137129,1715716046,853025537,base_link,0.48160769007405196,0.0,0.0,0.0,0.0,0.0003665589131651868
2024/05/14/15:47:26.873213,137130,1715716046,872949943,base_link,0.48766336522869713,0.0,0.0,0.0,0.0,0.00036801944506183084
2024/05/14/15:47:26.893946,137131,1715716046,893613816,base_link,0.49212390897277014,0.0,0.0,0.0,0.0,0.00036893398310108285
2024/05/14/15:47:26.913846,137132,1715716046,913586739,base_link,0.5132727097343169,0.0,0.0,0.0,0.0,0.0003805308614048158
2024/05/14/15:47:26.933975,137133,1715716046,933695439,base_link,0.5252708864642582,0.0,0.0,0.0,0.0,0.00038220439724940625
2024/05/14/15:47:26.953445,137134,1715716046,953074025,base_link,0.5330761876364313,0.0,0.0,0.0,0.0,0.0003827968066100151
2024/05/14/15:47:26.975313,137135,1715716046,973583144,base_link,0.5385156713095361,0.0,0.0,0.0,0.0,0.00038311510059740113
2024/05/14/15:47:26.993366,137136,1715716046,993034818,base_link,0.5425218345183268,0.0,0.0,0.0,0.0,0.00038331340290505126
2024/05/14/15:47:27.014579,137137,1715716047,13500195,base_link,0.5628396517550237,0.0,0.0,0.0,0.0,0.0002798278986471664
2024/05/14/15:47:27.033694,137138,1715716047,33439842,base_link,0.5743663273919452,0.0,0.0,0.0,0.0,0.0002648954352576858
2024/05/14/15:47:27.053402,137139,1715716047,53062560,base_link,0.581869131194093,0.0,0.0,0.0,0.0,0.00025885046698197753
2024/05/14/15:47:27.073875,137140,1715716047,73532392,base_link,0.5870974318183061,0.0,0.0,0.0,0.0,0.0002555905558245109
2024/05/14/15:47:27.094016,137141,1715716047,93741540,base_link,0.590947777376874,0.0,0.0,0.0,0.0,0.0002535503655975352
2024/05/14/15:47:27.113702,137142,1715716047,113439764,base_link,0.610979244506294,0.0,0.0,0.0,0.0,0.00024143065214714789
2024/05/14/15:47:27.133626,137143,1715716047,133376781,base_link,0.6223434029667966,0.0,0.0,0.0,0.0,0.00023968161014887386
2024/05/14/15:47:27.153333,137144,1715716047,153092133,base_link,0.6297470620030984,0.0,0.0,0.0,0.0,0.00023895332442044586
2024/05/14/15:47:27.173400,137145,1715716047,172996809,base_link,0.6349056655056984,0.0,0.0,0.0,0.0,0.00023855788082544565
2024/05/14/15:47:27.193696,137146,1715716047,193488972,base_link,0.6387042259282638,0.0,0.0,0.0,0.0,0.00023830833010105357
2024/05/14/15:47:27.213275,137147,1715716047,213024044,base_link,0.6573281821557004,0.0,0.0,0.0,0.0,0.0002489651747413634
2024/05/14/15:47:27.233330,137148,1715716047,233027466,base_link,0.667893496638896,0.0,0.0,0.0,0.0,0.000250502604323194
2024/05/14/15:47:27.253287,137149,1715716047,252992099,base_link,0.6747682199022543,0.0,0.0,0.0,0.0,0.0002511108778439381
2024/05/14/15:47:27.275640,137150,1715716047,273623799,base_link,0.679558631893664,0.0,0.0,0.0,0.0,0.0002514377324435443
2024/05/14/15:47:27.293689,137151,1715716047,293423166,base_link,0.6830863358653119,0.0,0.0,0.0,0.0,0.0002516413841352429
2024/05/14/15:47:27.313341,137152,1715716047,313047754,base_link,0.7038415078802778,0.0,0.0,0.0,0.0,0.0002662237489861936
2024/05/14/15:47:27.333315,137153,1715716047,333005934,base_link,0.7156164616230752,0.0,0.0,0.0,0.0,0.0002683278079932507
2024/05/14/15:47:27.353326,137154,1715716047,353044222,base_link,0.7232622857280999,0.0,0.0,0.0,0.0,0.0002691068421439055
2024/05/14/15:47:27.375288,137155,1715716047,373545684,base_link,0.7285917944422784,0.0,0.0,0.0,0.0,0.00026952666623263657
2024/05/14/15:47:27.393692,137156,1715716047,393411573,base_link,0.732517828440575,0.0,0.0,0.0,0.0,0.0002697891989488432
2024/05/14/15:47:27.413384,137157,1715716047,413045844,base_link,0.7553190294089054,0.0,0.0,0.0,0.0,0.0002859341784407891
2024/05/14/15:47:27.433360,137158,1715716047,433050536,base_link,0.768255290565384,0.0,0.0,0.0,0.0,0.0002882638157788333
2024/05/14/15:47:27.453356,137159,1715716047,453054826,base_link,0.7765894480314878,0.0,0.0,0.0,0.0,0.00028919731933542403
2024/05/14/15:47:27.473430,137160,1715716047,473160578,base_link,0.7824467337167982,0.0,0.0,0.0,0.0,0.0002895950240964706
2024/05/14/15:47:27.493323,137161,1715716047,493046429,base_link,0.7867622651669621,0.0,0.0,0.0,0.0,0.0002898447397711116
2024/05/14/15:47:27.513325,137162,1715716047,513049554,base_link,0.8102829080552889,0.0,0.0,0.0,0.0,0.00012485961700636191
2024/05/14/15:47:27.533852,137163,1715716047,533615849,base_link,0.8236274118455836,0.0,0.0,0.0,0.0,0.00010105334510892837
2024/05/14/15:47:27.553309,137164,1715716047,553071251,base_link,0.8322247052786359,0.0,0.0,0.0,0.0,9.151416412789027e-05
2024/05/14/15:47:27.576185,137165,1715716047,573389527,base_link,0.8382791209851691,0.0,0.0,0.0,0.0,8.632245255016723e-05
2024/05/14/15:47:27.593729,137166,1715716047,593438617,base_link,0.8427390229196373,0.0,0.0,0.0,0.0,8.3075489159468e-05
2024/05/14/15:47:27.613399,137167,1715716047,613097508,base_link,0.8652026140129737,0.0,0.0,0.0,0.0,7.580080318359984e-05
2024/05/14/15:47:27.633394,137168,1715716047,633107597,base_link,0.8779468776901327,0.0,0.0,0.0,0.0,7.475102548930491e-05
2024/05/14/15:47:27.653286,137169,1715716047,653021469,base_link,0.8862396449714597,0.0,0.0,0.0,0.0,7.437624329691435e-05
2024/05/14/15:47:27.673359,137170,1715716047,673043233,base_link,0.8920187233579638,0.0,0.0,0.0,0.0,7.417272097979341e-05
2024/05/14/15:47:27.693258,137171,1715716047,692968554,base_link,0.8962482272382036,0.0,0.0,0.0,0.0,7.4061369453044e-05
2024/05/14/15:47:27.713125,137172,1715716047,712856181,base_link,0.918335037166313,0.0,0.0,0.0,0.0,7.662053790165693e-05
2024/05/14/15:47:27.733283,137173,1715716047,732981716,base_link,0.9308511193737398,0.0,0.0,0.0,0.0,7.699202110803898e-05
2024/05/14/15:47:27.753378,137174,1715716047,753060756,base_link,0.9389187754324726,0.0,0.0,0.0,0.0,7.701597663966105e-05
2024/05/14/15:47:27.773807,137175,1715716047,773197427,base_link,0.9445471580867237,0.0,0.0,0.0,0.0,7.703057736104482e-05
2024/05/14/15:47:27.793941,137176,1715716047,793553410,base_link,0.9486972544127777,0.0,0.0,0.0,0.0,7.70410521302625e-05
2024/05/14/15:47:27.813284,137177,1715716047,812999353,base_link,0.9680432594001652,0.0,0.0,0.0,0.0,7.986241655646538e-05
2024/05/14/15:47:27.833803,137178,1715716047,833560757,base_link,0.9790207846437105,0.0,0.0,0.0,0.0,8.026970959316179e-05
2024/05/14/15:47:27.853370,137179,1715716047,853076538,base_link,0.9861354262208787,0.0,0.0,0.0,0.0,8.028281516016078e-05
2024/05/14/15:47:27.873883,137180,1715716047,873619000,base_link,0.9910964964398116,0.0,0.0,0.0,0.0,8.029252260373231e-05
2024/05/14/15:47:27.893271,137181,1715716047,893021848,base_link,0.9947526911125003,0.0,0.0,0.0,0.0,8.030066005734961e-05
2024/05/14/15:47:27.913254,137182,1715716047,912947525,base_link,1.019707539871194,0.0,0.0,0.0,0.0,8.458550146204367e-05
2024/05/14/15:47:27.933213,137183,1715716047,932953113,base_link,1.033867019308627,0.0,0.0,0.0,0.0,8.520405864020624e-05
2024/05/14/15:47:27.953673,137184,1715716047,953350645,base_link,1.0430348145567605,0.0,0.0,0.0,0.0,8.525238768197202e-05
2024/05/14/15:47:27.974289,137185,1715716047,973744461,base_link,1.0494278566664423,0.0,0.0,0.0,0.0,8.528238774080146e-05
2024/05/14/15:47:27.993271,137186,1715716047,992999426,base_link,1.0541395924980148,0.0,0.0,0.0,0.0,8.530422163429483e-05
2024/05/14/15:47:28.013765,137187,1715716048,13419773,base_link,1.075786557744864,0.0,0.0,0.0,0.0,8.86266796966089e-05
2024/05/14/15:47:28.033215,137188,1715716048,32935720,base_link,1.0880687489138028,0.0,0.0,0.0,0.0,8.910650020906321e-05
2024/05/14/15:47:28.053219,137189,1715716048,52947793,base_link,1.096012222220149,0.0,0.0,0.0,0.0,8.919399461105221e-05
2024/05/14/15:47:28.074008,137190,1715716048,73636844,base_link,1.1015520578581144,0.0,0.0,0.0,0.0,8.923818285741064e-05
2024/05/14/15:47:28.093232,137191,1715716048,93001566,base_link,1.1056353789305038,0.0,0.0,0.0,0.0,8.92637494717574e-05
2024/05/14/15:47:28.113910,137192,1715716048,113564395,base_link,1.1287586767285458,0.0,0.0,0.0,0.0,9.297584626215705e-05
2024/05/14/15:47:28.133823,137193,1715716048,133550379,base_link,1.1418789499828725,0.0,0.0,0.0,0.0,9.351126782362892e-05
2024/05/14/15:47:28.153338,137194,1715716048,153041652,base_link,1.150376878755368,0.0,0.0,0.0,0.0,9.359216602758219e-05
2024/05/14/15:47:28.173893,137195,1715716048,173652822,base_link,1.1563027123069876,0.0,0.0,0.0,0.0,9.363170236205663e-05
2024/05/14/15:47:28.193411,137196,1715716048,193131283,base_link,1.160670029492611,0.0,0.0,0.0,0.0,9.365359834035917e-05
2024/05/14/15:47:28.213329,137197,1715716048,213042401,base_link,1.1921475542365327,0.0,0.0,0.0,0.0,2.3594771985494686e-05
2024/05/14/15:47:28.233484,137198,1715716048,233148388,base_link,1.210008103541261,0.0,0.0,0.0,0.0,1.3485383499767833e-05
2024/05/14/15:47:28.253354,137199,1715716048,253056164,base_link,1.2215712602903108,0.0,0.0,0.0,0.0,9.315174480495276e-06
2024/05/14/15:47:28.274233,137200,1715716048,273910978,base_link,1.2296349898050907,0.0,0.0,0.0,0.0,7.0635793399021775e-06
2024/05/14/15:47:28.293381,137201,1715716048,293085333,base_link,1.2355782492182954,0.0,0.0,0.0,0.0,5.652656365159519e-06
2024/05/14/15:47:28.313796,137202,1715716048,313459756,base_link,1.2725415592598142,0.0,0.0,0.0,0.0,1.402886967871532e-06
2024/05/14/15:47:28.333780,137203,1715716048,333494678,base_link,1.2935146660361516,0.0,0.0,0.0,0.0,7.893489418853571e-07
2024/05/14/15:47:28.353864,137204,1715716048,353535323,base_link,1.3070761774041655,0.0,0.0,0.0,0.0,4.1175765223622545e-07
2024/05/14/15:47:28.373901,137205,1715716048,373579025,base_link,1.3165347303826482,0.0,0.0,0.0,0.0,2.0773243027983538e-07
2024/05/14/15:47:28.394132,137206,1715716048,393699642,base_link,1.323506951239203,0.0,0.0,0.0,0.0,7.989595715962284e-08
2024/05/14/15:47:28.413240,137207,1715716048,412937499,base_link,1.3610488125493752,0.0,0.0,0.0,0.0,-2.2793813400320187e-09
2024/05/14/15:47:28.433201,137208,1715716048,432992100,base_link,1.382350341063322,0.0,0.0,0.0,0.0,-1.4130727472685914e-08
2024/05/14/15:47:28.453331,137209,1715716048,453032598,base_link,1.3961458100883175,0.0,0.0,0.0,0.0,-2.279533044169221e-07
2024/05/14/15:47:28.477486,137210,1715716048,473768480,base_link,1.405765947120368,0.0,0.0,0.0,0.0,-3.406229760252998e-07
2024/05/14/15:47:28.493151,137211,1715716048,492906258,base_link,1.4128560771028853,0.0,0.0,0.0,0.0,-4.090153708715504e-07
2024/05/14/15:47:28.514067,137212,1715716048,513750267,base_link,1.4532101030986937,0.0,0.0,0.0,0.0,-0.00023031095393767013
2024/05/14/15:47:28.533967,137213,1715716048,533622993,base_link,1.4761068111799938,0.0,0.0,0.0,0.0,-0.00026348422656408187
2024/05/14/15:47:28.553821,137214,1715716048,553520619,base_link,1.4908910962999138,0.0,0.0,0.0,0.0,-0.00027708916545031095
2024/05/14/15:47:28.573595,137215,1715716048,573177844,base_link,1.5012040172838996,0.0,0.0,0.0,0.0,-0.00028441465682967765
2024/05/14/15:47:28.593892,137216,1715716048,593609413,base_link,1.508807153737859,0.0,0.0,0.0,0.0,-0.0002889905152758366
2024/05/14/15:47:28.614037,137217,1715716048,613738396,base_link,1.5540519085466853,0.0,0.0,0.0,0.0,-0.00041825506075009275
2024/05/14/15:47:28.633884,137218,1715716048,633625402,base_link,1.5797247597854596,0.0,0.0,0.0,0.0,-0.0004369065995572578
2024/05/14/15:47:28.653250,137219,1715716048,653014021,base_link,1.5963216979330974,0.0,0.0,0.0,0.0,-0.0004446129529319636
2024/05/14/15:47:28.673600,137220,1715716048,672928033,base_link,1.6078982875032348,0.0,0.0,0.0,0.0,-0.0004487582583248867
2024/05/14/15:47:28.693862,137221,1715716048,693565688,base_link,1.616432472534735,0.0,0.0,0.0,0.0,-0.00045134459948926314
2024/05/14/15:47:28.713765,137222,1715716048,713494638,base_link,1.6607515633874539,0.0,0.0,0.0,0.0,-0.0004802693808653683
2024/05/14/15:47:28.734016,137223,1715716048,733720342,base_link,1.6858987340359475,0.0,0.0,0.0,0.0,-0.00048444236363415796
2024/05/14/15:47:28.753314,137224,1715716048,753042213,base_link,1.702167666382715,0.0,0.0,0.0,0.0,-0.0004863212602057407
2024/05/14/15:47:28.779557,137225,1715716048,773316550,base_link,1.7135143284356191,0.0,0.0,0.0,0.0,-0.0004873295637232459
2024/05/14/15:47:28.793368,137226,1715716048,793062749,base_link,1.7218781422684666,0.0,0.0,0.0,0.0,-0.00048795680995575156
2024/05/14/15:47:28.813554,137227,1715716048,813029843,base_link,1.7645653650410238,0.0,0.0,0.0,0.0,-0.0005095496336689516
2024/05/14/15:47:28.833342,137228,1715716048,833058297,base_link,1.7887861503093718,0.0,0.0,0.0,0.0,-0.0005126649363396574
2024/05/14/15:47:28.853267,137229,1715716048,853054401,base_link,1.804391870905502,0.0,0.0,0.0,0.0,-0.0005139129676162382
2024/05/14/15:47:28.874253,137230,1715716048,873856577,base_link,1.815344120654969,0.0,0.0,0.0,0.0,-0.0005147696588131859
2024/05/14/15:47:28.894022,137231,1715716048,893727580,base_link,1.823415368669342,0.0,0.0,0.0,0.0,-0.0005153021698279922
2024/05/14/15:47:28.913309,137232,1715716048,913028963,base_link,1.864243933342335,0.0,0.0,0.0,0.0,-0.0005354771182860665
2024/05/14/15:47:28.933551,137233,1715716048,933023694,base_link,1.8874090172218108,0.0,0.0,0.0,0.0,-0.00053838782780659
2024/05/14/15:47:28.953281,137234,1715716048,953009292,base_link,1.9023834846298058,0.0,0.0,0.0,0.0,-0.0005396481649543138
2024/05/14/15:47:28.973607,137235,1715716048,973180404,base_link,1.912827479020261,0.0,0.0,0.0,0.0,-0.000540321911197813
2024/05/14/15:47:28.993317,137236,1715716048,993054303,base_link,1.9205260515600868,0.0,0.0,0.0,0.0,-0.000540739260005143
2024/05/14/15:47:29.014049,137237,1715716049,13728985,base_link,1.9515447111517839,0.0,0.0,0.0,0.0,-0.0005541965323216272
2024/05/14/15:47:29.034965,137238,1715716049,33527271,base_link,1.9691444215924196,0.0,0.0,0.0,0.0,-0.0005561378836610644
2024/05/14/15:47:29.053374,137239,1715716049,53065800,base_link,1.9805298867030863,0.0,0.0,0.0,0.0,-0.0005571000132655325
2024/05/14/15:47:29.073734,137240,1715716049,73494599,base_link,1.988470281127909,0.0,0.0,0.0,0.0,-0.0005576100408297221
2024/05/14/15:47:29.094016,137241,1715716049,93708173,base_link,1.9943230057729044,0.0,0.0,0.0,0.0,-0.000557922763381483
2024/05/14/15:47:29.113567,137242,1715716049,113318637,base_link,2.021973412880558,0.0,0.0,0.0,0.0,-0.0005708383010526593
2024/05/14/15:47:29.139112,137243,1715716049,133529436,base_link,2.037662055590213,0.0,0.0,0.0,0.0,-0.0005727012054854227
2024/05/14/15:47:29.153887,137244,1715716049,153565358,base_link,2.047840582648977,0.0,0.0,0.0,0.0,-0.0005737251646699304
2024/05/14/15:47:29.173291,137245,1715716049,172976138,base_link,2.0549369869694605,0.0,0.0,0.0,0.0,-0.0005742624182603108
2024/05/14/15:47:29.193599,137246,1715716049,193363328,base_link,2.060165915206263,0.0,0.0,0.0,0.0,-0.000574587743789809
2024/05/14/15:47:29.213299,137247,1715716049,213023806,base_link,2.089270343021974,0.0,0.0,0.0,0.0,-0.0005892024156025839
2024/05/14/15:47:29.233295,137248,1715716049,233022826,base_link,2.105783443621063,0.0,0.0,0.0,0.0,-0.0005913099815460895
2024/05/14/15:47:29.253463,137249,1715716049,253207481,base_link,2.116442088189909,0.0,0.0,0.0,0.0,-0.0005924631409986592
2024/05/14/15:47:29.273386,137250,1715716049,273073437,base_link,2.1238771933535654,0.0,0.0,0.0,0.0,-0.000593076512590427
2024/05/14/15:47:29.293820,137251,1715716049,293557664,base_link,2.129358662214283,0.0,0.0,0.0,0.0,-0.00059345394057283
2024/05/14/15:47:29.313207,137252,1715716049,312935120,base_link,2.1563500061565777,0.0,0.0,0.0,0.0,-0.0006061967984859121
2024/05/14/15:47:29.333232,137253,1715716049,332966569,base_link,2.1716652614300407,0.0,0.0,0.0,0.0,-0.0006080347457559341
2024/05/14/15:47:29.353336,137254,1715716049,353065593,base_link,2.1815557307472657,0.0,0.0,0.0,0.0,-0.0006089235011587537
2024/05/14/15:47:29.373648,137255,1715716049,373332011,base_link,2.1884554341650264,0.0,0.0,0.0,0.0,-0.0006094048269765293
2024/05/14/15:47:29.393445,137256,1715716049,393018605,base_link,2.193542510213328,0.0,0.0,0.0,0.0,-0.000609707271582996
2024/05/14/15:47:29.413433,137257,1715716049,413137859,base_link,2.2145885151262,0.0,0.0,0.0,0.0,-0.0006187229462970587
2024/05/14/15:47:29.433663,137258,1715716049,433063758,base_link,2.226530308770893,0.0,0.0,0.0,0.0,-0.0006200239643896087
2024/05/14/15:47:29.454092,137259,1715716049,453603486,base_link,2.2342247237140036,0.0,0.0,0.0,0.0,-0.000620545330669888
2024/05/14/15:47:29.473631,137260,1715716049,473260269,base_link,2.2395958875508475,0.0,0.0,0.0,0.0,-0.0006210136188011781
2024/05/14/15:47:29.493275,137261,1715716049,493007470,base_link,2.24355658596492,0.0,0.0,0.0,0.0,-0.0006213036804741467
2024/05/14/15:47:29.513362,137262,1715716049,513025487,base_link,2.2677918831279014,0.0,0.0,0.0,0.0,-0.0006338281523321792
2024/05/14/15:47:29.533291,137263,1715716049,533058590,base_link,2.2815436736905705,0.0,0.0,0.0,0.0,-0.0006356349711234398
2024/05/14/15:47:29.553207,137264,1715716049,552965524,base_link,2.2904467707129865,0.0,0.0,0.0,0.0,-0.0006366948999657261
2024/05/14/15:47:29.580909,137265,1715716049,574325166,base_link,2.296656275572192,0.0,0.0,0.0,0.0,-0.0006372570939274698
2024/05/14/15:47:29.593783,137266,1715716049,593478309,base_link,2.3012334437486066,0.0,0.0,0.0,0.0,-0.0006376018395289334
2024/05/14/15:47:29.613978,137267,1715716049,613645121,base_link,2.3226425868471012,0.0,0.0,0.0,0.0,-0.0006472874059263563
2024/05/14/15:47:29.633749,137268,1715716049,633480802,base_link,2.334790046189109,0.0,0.0,0.0,0.0,-0.0006486841221536943
2024/05/14/15:47:29.653283,137269,1715716049,653010990,base_link,2.3426487622210184,0.0,0.0,0.0,0.0,-0.0006495819115883942
2024/05/14/15:47:29.674380,137270,1715716049,673894428,base_link,2.3481298130632084,0.0,0.0,0.0,0.0,-0.0006500643312610346
2024/05/14/15:47:29.693771,137271,1715716049,693470136,base_link,2.3521699569452865,0.0,0.0,0.0,0.0,-0.0006503645280567453
2024/05/14/15:47:29.714048,137272,1715716049,713769703,base_link,2.371291247551833,0.0,0.0,0.0,0.0,-0.0006588969752963825
2024/05/14/15:47:29.733656,137273,1715716049,733381200,base_link,2.382140558277229,0.0,0.0,0.0,0.0,-0.0006601278781694917
2024/05/14/15:47:29.753301,137274,1715716049,753029767,base_link,2.3891633132088854,0.0,0.0,0.0,0.0,-0.0006607933682147003
2024/05/14/15:47:29.779534,137275,1715716049,773148554,base_link,2.3940610268845113,0.0,0.0,0.0,0.0,-0.0006611553015346952
2024/05/14/15:47:29.793258,137276,1715716049,792993749,base_link,2.3976709526153153,0.0,0.0,0.0,0.0,-0.0006613837110419184
2024/05/14/15:47:29.813770,137277,1715716049,813483057,base_link,2.412082432692272,0.0,0.0,0.0,0.0,-0.0006672337065008801
2024/05/14/15:47:29.833657,137278,1715716049,833421176,base_link,2.4202591801801536,0.0,0.0,0.0,0.0,-0.0006680779938646631
2024/05/14/15:47:29.853258,137279,1715716049,852962733,base_link,2.425591147420084,0.0,0.0,0.0,0.0,-0.0006686620240534454
2024/05/14/15:47:29.876375,137280,1715716049,873065427,base_link,2.4293064817058254,0.0,0.0,0.0,0.0,-0.0006689666626866144
2024/05/14/15:47:29.894188,137281,1715716049,893731498,base_link,2.4320424904939184,0.0,0.0,0.0,0.0,-0.0006691497627423806
2024/05/14/15:47:29.913116,137282,1715716049,912901512,base_link,2.451365523277147,0.0,0.0,0.0,0.0,-0.0006064636207014653
2024/05/14/15:47:29.933292,137283,1715716049,933075538,base_link,2.4623284506279486,0.0,0.0,0.0,0.0,-0.0005974174819588442
2024/05/14/15:47:29.953594,137284,1715716049,953336994,base_link,2.4694242251830336,0.0,0.0,0.0,0.0,-0.0005940999443012426
2024/05/14/15:47:29.975862,137285,1715716049,973599279,base_link,2.474372224982606,0.0,0.0,0.0,0.0,-0.0005922992752686038
2024/05/14/15:47:29.993905,137286,1715716049,993617465,base_link,2.478018732545653,0.0,0.0,0.0,0.0,-0.0005911638637216982
2024/05/14/15:47:30.013331,137287,1715716050,13050751,base_link,2.4924905462837135,0.0,0.0,0.0,0.0,-0.0006653050683418146
2024/05/14/15:47:30.033349,137288,1715716050,33090945,base_link,2.500701310258852,0.0,0.0,0.0,0.0,-0.00067600209235337
2024/05/14/15:47:30.053169,137289,1715716050,52901451,base_link,2.5060059938966153,0.0,0.0,0.0,0.0,-0.0006805456681230461
2024/05/14/15:47:30.073653,137290,1715716050,73213052,base_link,2.50970591595456,0.0,0.0,0.0,0.0,-0.0006829847987735693
2024/05/14/15:47:30.094007,137291,1715716050,93607996,base_link,2.512433292695586,0.0,0.0,0.0,0.0,-0.0006845030307295017
2024/05/14/15:47:30.114087,137292,1715716050,113736101,base_link,2.527859879941683,0.0,0.0,0.0,0.0,-0.00054665030902608
2024/05/14/15:47:30.133932,137293,1715716050,133678514,base_link,2.5366130148800683,0.0,0.0,0.0,0.0,-0.0005267580908190662
2024/05/14/15:47:30.153228,137294,1715716050,152984758,base_link,2.5422930090162907,0.0,0.0,0.0,0.0,-0.0005189553145808012
2024/05/14/15:47:30.173556,137295,1715716050,173043966,base_link,2.5462533912526335,0.0,0.0,0.0,0.0,-0.0005147504449893723
2024/05/14/15:47:30.193569,137296,1715716050,192998739,base_link,2.5491717651129404,0.0,0.0,0.0,0.0,-0.000512120941185949
2024/05/14/15:47:30.213525,137297,1715716050,213135985,base_link,2.5675446703222318,0.0,0.0,0.0,0.0,-0.0001291845106094696
2024/05/14/15:47:30.233214,137298,1715716050,232956764,base_link,2.5779691702017042,0.0,0.0,0.0,0.0,-7.392883544552159e-05
