time,.header.seq,.header.stamp.secs,.header.stamp.nsecs,.header.frame_id,.twist.linear.x,.twist.linear.y,.twist.linear.z,.twist.angular.x,.twist.angular.y,.twist.angular.z
2024/05/14/15:11:17.573704,28665,1715713877,573388420,base_link,-0.0001078671987129209,0.0,0.0,0.0,0.0,-5.441489228148368e-08
2024/05/14/15:11:17.593695,28666,1715713877,593451684,base_link,-9.257111078617996e-05,0.0,0.0,0.0,0.0,-1.731182408598154e-08
2024/05/14/15:11:17.613906,28667,1715713877,613257234,base_link,-7.047846650778402e-05,0.0,0.0,0.0,0.0,5.9725751490267295e-09
2024/05/14/15:11:17.636745,28668,1715713877,633610304,base_link,-5.893039195556165e-05,0.0,0.0,0.0,0.0,1.496024463295449e-08
2024/05/14/15:11:17.655133,28669,1715713877,653232403,base_link,-5.2789014821658656e-05,0.0,0.0,0.0,0.0,1.9550713754829485e-08
2024/05/14/15:11:17.676783,28670,1715713877,673899615,base_link,-4.9675829500635546e-05,0.0,0.0,0.0,0.0,2.2223807448212694e-08
2024/05/14/15:11:17.694263,28671,1715713877,694048975,base_link,-3.960416726046589e-05,0.0,0.0,0.0,0.0,7.154969849005452e-09
2024/05/14/15:11:17.713601,28672,1715713877,713063927,base_link,-3.448297627331137e-05,0.0,0.0,0.0,0.0,4.954342459079955e-09
2024/05/14/15:11:17.734023,28673,1715713877,733704782,base_link,-5.271339528780171e-05,0.0,0.0,0.0,0.0,1.3547913915486752e-08
2024/05/14/15:11:17.753739,28674,1715713877,753137625,base_link,-6.519954750034085e-05,0.0,0.0,0.0,0.0,1.7941747408784974e-08
2024/05/14/15:11:17.773833,28675,1715713877,773534152,base_link,-7.423280861587489e-05,0.0,0.0,0.0,0.0,2.0504190202316563e-08
2024/05/14/15:11:17.793874,28676,1715713877,793555514,base_link,-6.636695735778007e-05,0.0,0.0,0.0,0.0,6.620341218265477e-09
2024/05/14/15:11:17.813495,28677,1715713877,813144832,base_link,-6.182656508166875e-05,0.0,0.0,0.0,0.0,4.592345017270201e-09
2024/05/14/15:11:17.835150,28678,1715713877,833717118,base_link,-5.88451113285386e-05,0.0,0.0,0.0,0.0,3.763128812551081e-09
2024/05/14/15:11:17.853578,28679,1715713877,853356314,base_link,-7.111121129740503e-05,0.0,0.0,0.0,0.0,2.087218272707582e-09
2024/05/14/15:11:17.873877,28680,1715713877,873491731,base_link,-8.003837706526639e-05,0.0,0.0,0.0,0.0,1.033108909021964e-09
2024/05/14/15:11:17.893852,28681,1715713877,893307691,base_link,-7.109029893761012e-05,0.0,0.0,0.0,0.0,9.18333510997596e-11
2024/05/14/15:11:17.913375,28682,1715713877,913070229,base_link,-8.172201095039101e-05,0.0,0.0,0.0,0.0,3.5903403326017284e-08
2024/05/14/15:11:17.934363,28683,1715713877,933656847,base_link,-8.879802586101621e-05,0.0,0.0,0.0,0.0,4.952840703219511e-08
2024/05/14/15:11:17.953408,28684,1715713877,953034628,base_link,-9.38960540541517e-05,0.0,0.0,0.0,0.0,5.633563617211801e-08
2024/05/14/15:11:17.974036,28685,1715713877,973737634,base_link,-9.777138905688419e-05,0.0,0.0,0.0,0.0,6.017469553319366e-08
2024/05/14/15:11:17.993635,28686,1715713877,993232842,base_link,-8.258010490120384e-05,0.0,0.0,0.0,0.0,1.870498789650887e-08
2024/05/14/15:11:18.013782,28687,1715713878,13548576,base_link,-0.00010451530497042952,0.0,0.0,0.0,0.0,-2.2533264527293493e-08
2024/05/14/15:11:18.033860,28688,1715713878,33560624,base_link,-0.00011759451242006936,0.0,0.0,0.0,0.0,-3.84574395060923e-08
2024/05/14/15:11:18.053768,28689,1715713878,53425531,base_link,-0.00012597134349105917,0.0,0.0,0.0,0.0,-4.659562217429836e-08
2024/05/14/15:11:18.073993,28690,1715713878,73617933,base_link,-0.00013159398398966042,0.0,0.0,0.0,0.0,-5.133859168069037e-08
2024/05/14/15:11:18.093689,28691,1715713878,93452844,base_link,-0.0001109636606555498,0.0,0.0,0.0,0.0,-1.6261626044662066e-08
2024/05/14/15:11:18.113786,28692,1715713878,113526311,base_link,-0.00012412169393340584,0.0,0.0,0.0,0.0,-7.912500108339876e-08
2024/05/14/15:11:18.133584,28693,1715713878,133268408,base_link,-0.00013163575450704436,0.0,0.0,0.0,0.0,-1.0301133220582436e-07
2024/05/14/15:11:18.153306,28694,1715713878,153037019,base_link,-0.00013619060923588454,0.0,0.0,0.0,0.0,-1.1492109135624105e-07
2024/05/14/15:11:18.173375,28695,1715713878,173053826,base_link,-0.0001390393115185421,0.0,0.0,0.0,0.0,-1.216173772465818e-07
2024/05/14/15:11:18.193738,28696,1715713878,193509550,base_link,-0.0001153440199030256,0.0,0.0,0.0,0.0,-3.7608791197367517e-08
2024/05/14/15:11:18.213675,28697,1715713878,213553813,base_link,-0.00012482670954009725,0.0,0.0,0.0,0.0,-3.750831582372841e-11
2024/05/14/15:11:18.233575,28698,1715713878,233305992,base_link,-0.00013022574769473895,0.0,0.0,0.0,0.0,1.4571941006302892e-08
2024/05/14/15:11:18.253783,28699,1715713878,253424780,base_link,-0.0001334843032097394,0.0,0.0,0.0,0.0,2.2115868909939012e-08
2024/05/14/15:11:18.274147,28700,1715713878,273612195,base_link,-0.00013550927848135944,0.0,0.0,0.0,0.0,2.6576427085035536e-08
2024/05/14/15:11:18.293674,28701,1715713878,293385349,base_link,-0.00011201681299899909,0.0,0.0,0.0,0.0,8.810341404879185e-09
2024/05/14/15:11:18.313806,28702,1715713878,313508375,base_link,-0.00013071968313719658,0.0,0.0,0.0,0.0,8.173749380490068e-08
2024/05/14/15:11:18.334000,28703,1715713878,333371215,base_link,-0.00014126762813729976,0.0,0.0,0.0,0.0,1.0945724010328252e-07
2024/05/14/15:11:18.353409,28704,1715713878,353131540,base_link,-0.0001475542389730636,0.0,0.0,0.0,0.0,1.2328575518146823e-07
2024/05/14/15:11:18.373524,28705,1715713878,373195036,base_link,-0.00015139462749646766,0.0,0.0,0.0,0.0,1.310671500843492e-07
2024/05/14/15:11:18.393789,28706,1715713878,393315065,base_link,-0.00012590883975269662,0.0,0.0,0.0,0.0,4.063314433659018e-08
2024/05/14/15:11:18.413877,28707,1715713878,413580207,base_link,-0.0001244579325758088,0.0,0.0,0.0,0.0,-4.191485844971992e-08
2024/05/14/15:11:18.433573,28708,1715713878,433160089,base_link,-0.00012372832305157443,0.0,0.0,0.0,0.0,-7.378215088678717e-08
2024/05/14/15:11:18.453664,28709,1715713878,453182925,base_link,-0.0001233630978408783,0.0,0.0,0.0,0.0,-9.006154658555504e-08
2024/05/14/15:11:18.473874,28710,1715713878,473519618,base_link,-0.0001231979209193241,0.0,0.0,0.0,0.0,-9.954377421760807e-08
2024/05/14/15:11:18.493691,28711,1715713878,493366742,base_link,-0.00010085600509801774,0.0,0.0,0.0,0.0,-3.158283434102266e-08
2024/05/14/15:11:18.513493,28712,1715713878,513208234,base_link,-9.549278265876125e-05,0.0,0.0,0.0,0.0,3.142364618978711e-08
2024/05/14/15:11:18.534820,28713,1715713878,533880860,base_link,-9.290657778752337e-05,0.0,0.0,0.0,0.0,5.568851510983761e-08
2024/05/14/15:11:18.553914,28714,1715713878,553545627,base_link,-9.172074643824468e-05,0.0,0.0,0.0,0.0,6.803943743949097e-08
2024/05/14/15:11:18.573590,28715,1715713878,573294717,base_link,-9.130179825199632e-05,0.0,0.0,0.0,0.0,7.519664796123872e-08
2024/05/14/15:11:18.593339,28716,1715713878,593052619,base_link,-7.479256828017182e-05,0.0,0.0,0.0,0.0,2.3847435647289242e-08
2024/05/14/15:11:18.613906,28717,1715713878,613580055,base_link,-8.212154873191937e-05,0.0,0.0,0.0,0.0,7.202010299101209e-08
2024/05/14/15:11:18.634192,28718,1715713878,633608375,base_link,-8.707921938264052e-05,0.0,0.0,0.0,0.0,9.017094965382854e-08
2024/05/14/15:11:18.653469,28719,1715713878,653186715,base_link,-9.070648245553765e-05,0.0,0.0,0.0,0.0,9.910155091081289e-08
2024/05/14/15:11:18.673405,28720,1715713878,673167134,base_link,-9.350353336097125e-05,0.0,0.0,0.0,0.0,1.0402210290510405e-07
2024/05/14/15:11:18.693960,28721,1715713878,693273290,base_link,-7.841113496228654e-05,0.0,0.0,0.0,0.0,3.199706343970692e-08
2024/05/14/15:11:18.713378,28722,1715713878,713161959,base_link,-0.00010270698220559064,0.0,0.0,0.0,0.0,3.176437455868419e-09
2024/05/14/15:11:18.734914,28723,1715713878,733543189,base_link,-0.00011719192309970815,0.0,0.0,0.0,0.0,-8.120919646717534e-09
2024/05/14/15:11:18.753358,28724,1715713878,752998623,base_link,-0.00012646490581219366,0.0,0.0,0.0,0.0,-1.4023405182903913e-08
2024/05/14/15:11:18.773997,28725,1715713878,773653558,base_link,-0.0001326839340797237,0.0,0.0,0.0,0.0,-1.7569401185485838e-08
2024/05/14/15:11:18.794156,28726,1715713878,793805999,base_link,-0.00011219031409937202,0.0,0.0,0.0,0.0,-5.952823741206782e-09
2024/05/14/15:11:18.813640,28727,1715713878,813441621,base_link,-8.62516435109548e-05,0.0,0.0,0.0,0.0,-1.4541193355059176e-08
2024/05/14/15:11:18.834215,28728,1715713878,833583247,base_link,-7.221381627050356e-05,0.0,0.0,0.0,0.0,-1.780667891669745e-08
2024/05/14/15:11:18.853508,28729,1715713878,853199478,base_link,-6.43254072142946e-05,0.0,0.0,0.0,0.0,-1.9436481131875377e-08
2024/05/14/15:11:18.873560,28730,1715713878,873171660,base_link,-5.991637755501665e-05,0.0,0.0,0.0,0.0,-2.035417821911083e-08
2024/05/14/15:11:18.893701,28731,1715713878,893312107,base_link,-4.717118705649788e-05,0.0,0.0,0.0,0.0,-6.258557388846539e-09
2024/05/14/15:11:18.913454,28732,1715713878,913133669,base_link,-7.566830545394594e-05,0.0,0.0,0.0,0.0,8.536464705429807e-08
2024/05/14/15:11:18.933566,28733,1715713878,933175587,base_link,-9.300004258121157e-05,0.0,0.0,0.0,0.0,1.2034128904787803e-07
2024/05/14/15:11:18.953499,28734,1715713878,953094259,base_link,-0.0001043606945857338,0.0,0.0,0.0,0.0,1.3790711080887577e-07
2024/05/14/15:11:18.973464,28735,1715713878,973147344,base_link,-0.00011219421636184161,0.0,0.0,0.0,0.0,1.4789012612606668e-07
2024/05/14/15:11:18.994992,28736,1715713878,993549957,base_link,-9.647161629735998e-05,0.0,0.0,0.0,0.0,4.608921771753199e-08
2024/05/14/15:11:19.013900,28737,1715713879,13272041,base_link,-7.700787385301999e-05,0.0,0.0,0.0,0.0,-7.10625040432452e-08
2024/05/14/15:11:19.033712,28738,1715713879,33103502,base_link,-6.67311877823688e-05,0.0,0.0,0.0,0.0,-1.1617734780295188e-07
2024/05/14/15:11:19.053331,28739,1715713879,52912600,base_link,-6.117477948219832e-05,0.0,0.0,0.0,0.0,-1.391391006222051e-07
2024/05/14/15:11:19.073549,28740,1715713879,73230126,base_link,-5.826932174537803e-05,0.0,0.0,0.0,0.0,-1.5244347958866013e-07
2024/05/14/15:11:19.093484,28741,1715713879,93061024,base_link,-4.6633644282857194e-05,0.0,0.0,0.0,0.0,-4.812066134721111e-08
2024/05/14/15:11:19.113830,28742,1715713879,113375808,base_link,-5.468971193313949e-05,0.0,0.0,0.0,0.0,2.2272562421007515e-08
2024/05/14/15:11:19.133452,28743,1715713879,133154641,base_link,-6.070336011458258e-05,0.0,0.0,0.0,0.0,4.949198937398946e-08
2024/05/14/15:11:19.153540,28744,1715713879,153154585,base_link,-6.5488360501694e-05,0.0,0.0,0.0,0.0,6.343111267075029e-08
2024/05/14/15:11:19.173653,28745,1715713879,173322860,base_link,-6.945046173807176e-05,0.0,0.0,0.0,0.0,7.157829215842962e-08
2024/05/14/15:11:19.193630,28746,1715713879,193326677,base_link,-5.9638254930480535e-05,0.0,0.0,0.0,0.0,2.296605629602969e-08
2024/05/14/15:11:19.213540,28747,1715713879,213209338,base_link,-8.765884270826384e-05,0.0,0.0,0.0,0.0,-2.069675352238153e-08
2024/05/14/15:11:19.233872,28748,1715713879,233519351,base_link,-0.00010446075048078628,0.0,0.0,0.0,0.0,-3.758007435535397e-08
2024/05/14/15:11:19.253685,28749,1715713879,253096047,base_link,-0.00011529200817365572,0.0,0.0,0.0,0.0,-4.622594172948578e-08
2024/05/14/15:11:19.273665,28750,1715713879,273401384,base_link,-0.00012261700542374134,0.0,0.0,0.0,0.0,-5.127916272331055e-08
2024/05/14/15:11:19.293524,28751,1715713879,293044901,base_link,-0.00010461445309380134,0.0,0.0,0.0,0.0,-1.6305665053363555e-08
2024/05/14/15:11:19.313345,28752,1715713879,313081490,base_link,-8.242365917947448e-05,0.0,0.0,0.0,0.0,3.5582515644289175e-08
2024/05/14/15:11:19.333749,28753,1715713879,333326974,base_link,-7.051254825458358e-05,0.0,0.0,0.0,0.0,5.548296080865818e-08
2024/05/14/15:11:19.353144,28754,1715713879,352990339,base_link,-6.39028517109648e-05,0.0,0.0,0.0,0.0,6.554891367656713e-08
2024/05/14/15:11:19.373993,28755,1715713879,373423345,base_link,-6.0285112792522355e-05,0.0,0.0,0.0,0.0,7.132957697587052e-08
2024/05/14/15:11:19.393291,28756,1715713879,393044242,base_link,-4.7876630505025265e-05,0.0,0.0,0.0,0.0,2.241996449153187e-08
2024/05/14/15:11:19.413356,28757,1715713879,413088530,base_link,-8.493635370793473e-05,0.0,0.0,0.0,0.0,-2.0873653898296944e-08
2024/05/14/15:11:19.435308,28758,1715713879,433555545,base_link,-0.00010688005780381004,0.0,0.0,0.0,0.0,-3.7609414496391564e-08
2024/05/14/15:11:19.453272,28759,1715713879,452961608,base_link,-0.0001208127468154404,0.0,0.0,0.0,0.0,-4.617604188778052e-08
2024/05/14/15:11:19.473351,28760,1715713879,473086880,base_link,-0.00013006517722168167,0.0,0.0,0.0,0.0,-5.11799322632332e-08
2024/05/14/15:11:19.493880,28761,1715713879,493484768,base_link,-0.00011170302416787801,0.0,0.0,0.0,0.0,-1.626589290262151e-08
2024/05/14/15:11:19.513366,28762,1715713879,513073250,base_link,-0.00010463738475532979,0.0,0.0,0.0,0.0,1.9621175809278072e-08
2024/05/14/15:11:19.535504,28763,1715713879,533579954,base_link,-0.00010103146696383293,0.0,0.0,0.0,0.0,3.3415178673011916e-08
2024/05/14/15:11:19.553544,28764,1715713879,553217083,base_link,-9.918897785951776e-05,0.0,0.0,0.0,0.0,4.0415853228342664e-08
2024/05/14/15:11:19.573392,28765,1715713879,573112956,base_link,-9.832634709529705e-05,0.0,0.0,0.0,0.0,4.445569552921662e-08
2024/05/14/15:11:19.594122,28766,1715713879,593827877,base_link,-8.029168677677143e-05,0.0,0.0,0.0,0.0,1.4058418393016677e-08
2024/05/14/15:11:19.613543,28767,1715713879,613229935,base_link,-9.516092834406326e-05,0.0,0.0,0.0,0.0,-3.18982323646182e-08
2024/05/14/15:11:19.634256,28768,1715713879,633717055,base_link,-0.00010414744472742206,0.0,0.0,0.0,0.0,-4.95809088993376e-08
2024/05/14/15:11:19.653516,28769,1715713879,653304071,base_link,-0.0001099937109255172,0.0,0.0,0.0,0.0,-5.8569082839839645e-08
2024/05/14/15:11:19.673387,28770,1715713879,673150771,base_link,-0.000113989122017305,0.0,0.0,0.0,0.0,-6.376732614117093e-08
2024/05/14/15:11:19.693561,28771,1715713879,693293643,base_link,-9.566986895023793e-05,0.0,0.0,0.0,0.0,-2.005824017059977e-08
2024/05/14/15:11:19.713466,28772,1715713879,713194229,base_link,-0.00010699540950215618,0.0,0.0,0.0,0.0,-3.912997589317223e-08
2024/05/14/15:11:19.733696,28773,1715713879,733268215,base_link,-0.0001137213924360904,0.0,0.0,0.0,0.0,-4.627479029576163e-08
2024/05/14/15:11:19.753402,28774,1715713879,753100649,base_link,-0.0001180057259261076,0.0,0.0,0.0,0.0,-4.97578011116162e-08
2024/05/14/15:11:19.773455,28775,1715713879,773155040,base_link,-0.00012086068709269988,0.0,0.0,0.0,0.0,-5.164913275880367e-08
2024/05/14/15:11:19.793588,28776,1715713879,793326949,base_link,-0.00010058738982531584,0.0,0.0,0.0,0.0,-1.578450488427222e-08
2024/05/14/15:11:19.813417,28777,1715713879,813079862,base_link,-0.00010793006129392536,0.0,0.0,0.0,0.0,-1.1307516814877478e-08
2024/05/14/15:11:19.835311,28778,1715713879,833400808,base_link,-0.00011238278007182984,0.0,0.0,0.0,0.0,-9.501633399410667e-09
2024/05/14/15:11:19.853438,28779,1715713879,853127603,base_link,-0.00011528972467883043,0.0,0.0,0.0,0.0,-8.519623871863078e-09
2024/05/14/15:11:19.873755,28780,1715713879,873184582,base_link,-0.00011728338972919128,0.0,0.0,0.0,0.0,-7.89865790031969e-09
2024/05/14/15:11:19.893362,28781,1715713879,893033348,base_link,-9.721195794396063e-05,0.0,0.0,0.0,0.0,-2.2362974501515898e-09
2024/05/14/15:11:19.913505,28782,1715713879,913172219,base_link,-9.769102078979169e-05,0.0,0.0,0.0,0.0,5.300154009635103e-08
2024/05/14/15:11:19.933274,28783,1715713879,933004869,base_link,-9.840448912308413e-05,0.0,0.0,0.0,0.0,7.40666406621642e-08
2024/05/14/15:11:19.953345,28784,1715713879,953036388,base_link,-9.918988273402681e-05,0.0,0.0,0.0,0.0,8.46290904966178e-08
2024/05/14/15:11:19.973591,28785,1715713879,973129753,base_link,-9.997971194489612e-05,0.0,0.0,0.0,0.0,9.061789376626431e-08
2024/05/14/15:11:19.993463,28786,1715713879,993201421,base_link,-8.250766492861873e-05,0.0,0.0,0.0,0.0,2.8213709742934577e-08
2024/05/14/15:11:20.013687,28787,1715713880,13425689,base_link,-9.436336793493284e-05,0.0,0.0,0.0,0.0,-1.2138048521591318e-07
2024/05/14/15:11:20.033870,28788,1715713880,33583766,base_link,-0.00010181648725613122,0.0,0.0,0.0,0.0,-1.7872973582495927e-07
2024/05/14/15:11:20.053837,28789,1715713880,53535518,base_link,-0.00010688429467413675,0.0,0.0,0.0,0.0,-2.0771923823780312e-07
2024/05/14/15:11:20.073851,28790,1715713880,73549188,base_link,-0.0001105211094671395,0.0,0.0,0.0,0.0,-2.2435167893425507e-07
2024/05/14/15:11:20.093304,28791,1715713880,93144442,base_link,-9.273792353674365e-05,0.0,0.0,0.0,0.0,-7.022876917210915e-08
2024/05/14/15:11:20.113467,28792,1715713880,113108440,base_link,-0.00011271909651889179,0.0,0.0,0.0,0.0,-1.2184315567647812e-07
2024/05/14/15:11:20.135318,28793,1715713880,133854542,base_link,-0.00012441700876670504,0.0,0.0,0.0,0.0,-1.4099835781648664e-07
2024/05/14/15:11:20.153392,28794,1715713880,153077102,base_link,-0.00013173923966858388,0.0,0.0,0.0,0.0,-1.501933741216049e-07
2024/05/14/15:11:20.177337,28795,1715713880,173184381,base_link,-0.00013651527310719794,0.0,0.0,0.0,0.0,-1.5506318704992858e-07
2024/05/14/15:11:20.193470,28796,1715713880,192915032,base_link,-0.0001144178905069976,0.0,0.0,0.0,0.0,-4.721852087215711e-08
2024/05/14/15:11:20.213393,28797,1715713880,212909877,base_link,-0.00010161168197848894,0.0,0.0,0.0,0.0,-3.153989032595313e-08
2024/05/14/15:11:20.233528,28798,1715713880,233188312,base_link,-8.725962868068521e-05,0.0,0.0,0.0,0.0,1.821819401917079e-08
2024/05/14/15:11:20.253520,28799,1715713880,253266014,base_link,-7.890468383298144e-05,0.0,0.0,0.0,0.0,4.4170530668012436e-08
2024/05/14/15:11:20.273425,28800,1715713880,273122670,base_link,-7.396380904434573e-05,0.0,0.0,0.0,0.0,5.972611373117793e-08
2024/05/14/15:11:20.294269,28801,1715713880,293296682,base_link,-5.822207514725326e-05,0.0,0.0,0.0,0.0,2.091027492956529e-08
2024/05/14/15:11:20.313497,28802,1715713880,313209805,base_link,-8.770780159398237e-05,0.0,0.0,0.0,0.0,5.1534404461295447e-08
2024/05/14/15:11:20.334751,28803,1715713880,333641265,base_link,-0.0001053339715858109,0.0,0.0,0.0,0.0,6.301466067012074e-08
2024/05/14/15:11:20.353453,28804,1715713880,353156099,base_link,-0.00011665744260989863,0.0,0.0,0.0,0.0,6.861725498687063e-08
2024/05/14/15:11:20.373499,28805,1715713880,373087873,base_link,-0.00012428566377934257,0.0,0.0,0.0,0.0,7.166491499978743e-08
2024/05/14/15:11:20.395139,28806,1715713880,393316983,base_link,-0.00010613548429843671,0.0,0.0,0.0,0.0,2.1974279452604288e-08
2024/05/14/15:11:20.413508,28807,1715713880,413311887,base_link,-9.552854383689582e-05,0.0,0.0,0.0,0.0,1.4743501500184221e-08
2024/05/14/15:11:20.433838,28808,1715713880,433210625,base_link,-7.889063492939722e-05,0.0,0.0,0.0,0.0,-1.4208375394185004e-08
2024/05/14/15:11:20.453263,28809,1715713880,452926005,base_link,-6.921056648770303e-05,0.0,0.0,0.0,0.0,-2.9324874921785907e-08
2024/05/14/15:11:20.473345,28810,1715713880,472977491,base_link,-6.348948244105537e-05,0.0,0.0,0.0,0.0,-3.839848410319914e-08
2024/05/14/15:11:20.493403,28811,1715713880,493135196,base_link,-4.9274101395177684e-05,0.0,0.0,0.0,0.0,-1.3266343972378082e-08
2024/05/14/15:11:20.513174,28812,1715713880,512938372,base_link,-8.184826836540965e-05,0.0,0.0,0.0,0.0,5.6471351597499886e-08
2024/05/14/15:11:20.533594,28813,1715713880,533186483,base_link,-0.00010115223192725181,0.0,0.0,0.0,0.0,8.315737703242805e-08
2024/05/14/15:11:20.553421,28814,1715713880,553038490,base_link,-0.00011342538098565647,0.0,0.0,0.0,0.0,9.660924034445252e-08
2024/05/14/15:11:20.573448,28815,1715713880,573096530,base_link,-0.0001215916264339345,0.0,0.0,0.0,0.0,1.0429589339942186e-07
2024/05/14/15:11:20.593337,28816,1715713880,593065337,base_link,-0.00010416729503967217,0.0,0.0,0.0,0.0,3.2631196373721914e-08
2024/05/14/15:11:20.613473,28817,1715713880,613186626,base_link,-0.00010662386987755506,0.0,0.0,0.0,0.0,5.881242625086053e-09
2024/05/14/15:11:20.633807,28818,1715713880,633470876,base_link,-0.00010842488982618233,0.0,0.0,0.0,0.0,-4.625945925403153e-09
2024/05/14/15:11:20.653295,28819,1715713880,652962698,base_link,-0.00010983551378577564,0.0,0.0,0.0,0.0,-1.0131840605304284e-08
2024/05/14/15:11:20.673426,28820,1715713880,673101497,base_link,-0.00011098723127208589,0.0,0.0,0.0,0.0,-1.3452660344285765e-08
2024/05/14/15:11:20.693605,28821,1715713880,693341360,base_link,-9.168835523751302e-05,0.0,0.0,0.0,0.0,-4.679445583647405e-09
2024/05/14/15:11:20.713368,28822,1715713880,713050106,base_link,-9.248322054089619e-05,0.0,0.0,0.0,0.0,-3.4155703912761446e-08
2024/05/14/15:11:20.733802,28823,1715713880,733209676,base_link,-9.341780924091479e-05,0.0,0.0,0.0,0.0,-4.539500011451437e-08
2024/05/14/15:11:20.753350,28824,1715713880,753112031,base_link,-9.436992021529645e-05,0.0,0.0,0.0,0.0,-5.102937898988463e-08
2024/05/14/15:11:20.774194,28825,1715713880,773360349,base_link,-9.529170492222155e-05,0.0,0.0,0.0,0.0,-5.42229770421073e-08
2024/05/14/15:11:20.793576,28826,1715713880,793354982,base_link,-7.875677381260505e-05,0.0,0.0,0.0,0.0,-1.6811739131273945e-08
2024/05/14/15:11:20.813713,28827,1715713880,813480526,base_link,-9.249396667149971e-05,0.0,0.0,0.0,0.0,2.9858097890664325e-08
2024/05/14/15:11:20.833454,28828,1715713880,833174892,base_link,-0.00010081448516312072,0.0,0.0,0.0,0.0,4.7772875102430136e-08
2024/05/14/15:11:20.853460,28829,1715713880,853181515,base_link,-0.00010624146840952882,0.0,0.0,0.0,0.0,5.6846590131625685e-08
2024/05/14/15:11:20.874191,28830,1715713880,873663401,base_link,-0.00010996149611187033,0.0,0.0,0.0,0.0,6.2067551276033e-08
2024/05/14/15:11:20.893431,28831,1715713880,893072354,base_link,-9.221927430700026e-05,0.0,0.0,0.0,0.0,1.9546463387790345e-08
2024/05/14/15:11:20.913411,28832,1715713880,913183472,base_link,-9.230195563564441e-05,0.0,0.0,0.0,0.0,-5.098432266341284e-08
2024/05/14/15:11:20.935452,28833,1715713880,933173907,base_link,-9.364438894360706e-05,0.0,0.0,0.0,0.0,-7.809229387594336e-08
2024/05/14/15:11:20.953422,28834,1715713880,953103591,base_link,-9.549433092807774e-05,0.0,0.0,0.0,0.0,-9.184907773187238e-08
2024/05/14/15:11:20.973547,28835,1715713880,973180207,base_link,-9.752696454320102e-05,0.0,0.0,0.0,0.0,-9.978719733322655e-08
2024/05/14/15:11:20.993197,28836,1715713880,992955960,base_link,-8.156145177030479e-05,0.0,0.0,0.0,0.0,-3.1347291093556e-08
2024/05/14/15:11:21.013535,28837,1715713881,13304152,base_link,-4.633484610898663e-05,0.0,0.0,0.0,0.0,-5.834278307103525e-08
2024/05/14/15:11:21.033449,28838,1715713881,33150784,base_link,-2.8263766424705853e-05,0.0,0.0,0.0,0.0,-6.842733595281518e-08
2024/05/14/15:11:21.053720,28839,1715713881,53458801,base_link,-1.8940145541762603e-05,0.0,0.0,0.0,0.0,-7.332113440175643e-08
2024/05/14/15:11:21.073925,28840,1715713881,73528632,base_link,-1.4482883498483223e-05,0.0,0.0,0.0,0.0,-7.59595386766454e-08
2024/05/14/15:11:21.093662,28841,1715713881,93412629,base_link,-1.055403459226137e-05,0.0,0.0,0.0,0.0,-2.318459748699009e-08
2024/05/14/15:11:21.113351,28842,1715713881,113027992,base_link,-7.11844769362308e-05,0.0,0.0,0.0,0.0,1.1741694032058212e-08
2024/05/14/15:11:21.134280,28843,1715713881,133631129,base_link,-0.0001074092289013095,0.0,0.0,0.0,0.0,2.520500789226134e-08
2024/05/14/15:11:21.153470,28844,1715713881,153138426,base_link,-0.0001306709579001174,0.0,0.0,0.0,0.0,3.206791105432963e-08
2024/05/14/15:11:21.173620,28845,1715713881,173261298,base_link,-0.00014633640188852686,0.0,0.0,0.0,0.0,3.605332609305191e-08
2024/05/14/15:11:21.194122,28846,1715713881,193809077,base_link,-0.0001287726256517641,0.0,0.0,0.0,0.0,1.1538859251698877e-08
2024/05/14/15:11:21.213622,28847,1715713881,213257601,base_link,-0.00015092855987952034,0.0,0.0,0.0,0.0,6.939792037013454e-09
2024/05/14/15:11:21.233551,28848,1715713881,233286084,base_link,-0.00016364677992429554,0.0,0.0,0.0,0.0,5.042877231935572e-09
2024/05/14/15:11:21.253382,28849,1715713881,253004742,base_link,-0.00017141065027034735,0.0,0.0,0.0,0.0,3.980791444065521e-09
2024/05/14/15:11:21.273379,28850,1715713881,272885938,base_link,-0.0001763132776676721,0.0,0.0,0.0,0.0,3.285621683718758e-09
2024/05/14/15:11:21.293682,28851,1715713881,292937722,base_link,-0.00014696660113441438,0.0,0.0,0.0,0.0,8.338862806698573e-10
2024/05/14/15:11:21.313510,28852,1715713881,313226110,base_link,-0.00012996119022559894,0.0,0.0,0.0,0.0,4.75986497706363e-10
2024/05/14/15:11:21.333899,28853,1715713881,333600949,base_link,-0.00012383618251675122,0.0,0.0,0.0,0.0,-6.00786490520701e-08
2024/05/14/15:11:21.353336,28854,1715713881,353027062,base_link,-0.00012033285161345156,0.0,0.0,0.0,0.0,-9.148060498501703e-08
2024/05/14/15:11:21.373394,28855,1715713881,373126915,base_link,-0.00011831383096473679,0.0,0.0,0.0,0.0,-1.1015678917438328e-07
2024/05/14/15:11:21.394295,28856,1715713881,393774269,base_link,-9.597404426097406e-05,0.0,0.0,0.0,0.0,-3.658174642782159e-08
2024/05/14/15:11:21.413689,28857,1715713881,413377072,base_link,-0.00010435155898615476,0.0,0.0,0.0,0.0,5.71771914798055e-08
2024/05/14/15:11:21.433966,28858,1715713881,433738657,base_link,-0.00010991853060948037,0.0,0.0,0.0,0.0,9.319361061678808e-08
2024/05/14/15:11:21.453758,28859,1715713881,453337616,base_link,-0.00011392331551499816,0.0,0.0,0.0,0.0,1.1145640620025191e-07
2024/05/14/15:11:21.473381,28860,1715713881,473111663,base_link,-0.0001169630678131553,0.0,0.0,0.0,0.0,1.2198223352143548e-07
2024/05/14/15:11:21.494362,28861,1715713881,493924476,base_link,-9.775328307195929e-05,0.0,0.0,0.0,0.0,3.8468228919562675e-08
2024/05/14/15:11:21.513508,28862,1715713881,513224395,base_link,-0.00012053406843844566,0.0,0.0,0.0,0.0,-4.063122979150553e-09
2024/05/14/15:11:21.534024,28863,1715713881,533616092,base_link,-0.0001342240623908139,0.0,0.0,0.0,0.0,-2.0654244203043686e-08
2024/05/14/15:11:21.553331,28864,1715713881,552984379,base_link,-0.00014307350558857572,0.0,0.0,0.0,0.0,-2.9261927501547413e-08
2024/05/14/15:11:21.574106,28865,1715713881,573818192,base_link,-0.00014907790836746036,0.0,0.0,0.0,0.0,-3.4384437338056754e-08
2024/05/14/15:11:21.594013,28866,1715713881,593783774,base_link,-0.00012554154217566275,0.0,0.0,0.0,0.0,-1.1283298523786247e-08
2024/05/14/15:11:21.613454,28867,1715713881,613091499,base_link,-7.774931725109942e-05,0.0,0.0,0.0,0.0,-8.781271157317535e-08
2024/05/14/15:11:21.633296,28868,1715713881,633014329,base_link,-5.183702203935971e-05,0.0,0.0,0.0,0.0,-1.1696399359483502e-07
2024/05/14/15:11:21.653291,28869,1715713881,653030484,base_link,-3.723170225204159e-05,0.0,0.0,0.0,0.0,-1.3155562622071366e-07
2024/05/14/15:11:21.673686,28870,1715713881,673370448,base_link,-2.9026574416375464e-05,0.0,0.0,0.0,0.0,-1.3980786566358405e-07
2024/05/14/15:11:21.694018,28871,1715713881,693689705,base_link,-2.0203136629756455e-05,0.0,0.0,0.0,0.0,-4.334539233917101e-08
2024/05/14/15:11:21.713615,28872,1715713881,713370861,base_link,6.121715073826288e-05,0.0,0.0,0.0,0.0,-9.010495422541636e-08
2024/05/14/15:11:21.734396,28873,1715713881,733814835,base_link,0.00010381529932682887,0.0,0.0,0.0,0.0,-1.0763603999631222e-07
2024/05/14/15:11:21.753727,28874,1715713881,753412931,base_link,0.0001265057547759276,0.0,0.0,0.0,0.0,-1.1619342512228813e-07
2024/05/14/15:11:21.773841,28875,1715713881,773541918,base_link,0.0001380419463681385,0.0,0.0,0.0,0.0,-1.208500907554763e-07
2024/05/14/15:11:21.793732,28876,1715713881,793462142,base_link,0.0001170811448622888,0.0,0.0,0.0,0.0,-3.6974605655971386e-08
2024/05/14/15:11:21.813732,28877,1715713881,813498787,base_link,0.00010299836610144627,0.0,0.0,0.0,0.0,-2.4779309495709207e-08
2024/05/14/15:11:21.838223,28878,1715713881,833654355,base_link,0.0002142870439263771,0.0,0.0,0.0,0.0,-3.503835440826664e-08
2024/05/14/15:11:21.853418,28879,1715713881,853122675,base_link,0.0002778638939129695,0.0,0.0,0.0,0.0,-4.023412041104964e-08
2024/05/14/15:11:21.873410,28880,1715713881,873176255,base_link,0.0003143865152501771,0.0,0.0,0.0,0.0,-4.322347178250353e-08
2024/05/14/15:11:21.893393,28881,1715713881,893106280,base_link,0.04472553648667924,0.0,0.0,0.0,0.0,-0.0001486718428045081
2024/05/14/15:11:21.913316,28882,1715713881,913093492,base_link,0.07014741670215899,0.0,0.0,0.0,0.0,-0.0001702506833489079
2024/05/14/15:11:21.934731,28883,1715713881,934213934,base_link,0.0864917618488911,0.0,0.0,0.0,0.0,-0.00017889458001483184
2024/05/14/15:11:21.953440,28884,1715713881,953221484,base_link,0.09787877372436854,0.0,0.0,0.0,0.0,-0.0001835506550871886
2024/05/14/15:11:21.973553,28885,1715713881,973277325,base_link,0.10626364302646463,0.0,0.0,0.0,0.0,-0.00018646050699000163
2024/05/14/15:11:21.993607,28886,1715713881,993337801,base_link,0.15414181343744707,0.0,0.0,0.0,0.0,-0.00030495881321497163
2024/05/14/15:11:22.013652,28887,1715713882,13392878,base_link,0.18130622317125522,0.0,0.0,0.0,0.0,-0.0003220572890341932
2024/05/14/15:11:22.033465,28888,1715713882,33145200,base_link,0.19899722680907528,0.0,0.0,0.0,0.0,-0.0003290270148759599
2024/05/14/15:11:22.053905,28889,1715713882,53308352,base_link,0.21131798756684544,0.0,0.0,0.0,0.0,-0.0003327799155319689
2024/05/14/15:11:22.073550,28890,1715713882,73267111,base_link,0.2203876630567678,0.0,0.0,0.0,0.0,-0.00033512427261724585
2024/05/14/15:11:22.094109,28891,1715713882,93346514,base_link,0.26817392309233046,0.0,0.0,0.0,0.0,-0.00044727940272973766
2024/05/14/15:11:22.113464,28892,1715713882,113207343,base_link,0.2952841525930927,0.0,0.0,0.0,0.0,-0.00046346248358987717
2024/05/14/15:11:22.133515,28893,1715713882,133233235,base_link,0.31291440361713624,0.0,0.0,0.0,0.0,-0.00047015298610586574
2024/05/14/15:11:22.153492,28894,1715713882,153260619,base_link,0.32519382796128304,0.0,0.0,0.0,0.0,-0.000473751202172371
2024/05/14/15:11:22.173360,28895,1715713882,173168281,base_link,0.33423388482987515,0.0,0.0,0.0,0.0,-0.0004759955603761526
2024/05/14/15:11:22.193752,28896,1715713882,193419037,base_link,0.36759892032364166,0.0,0.0,0.0,0.0,-0.0005666195543983189
2024/05/14/15:11:22.213167,28897,1715713882,212897679,base_link,0.38652604494640824,0.0,0.0,0.0,0.0,-0.0005796953750437863
2024/05/14/15:11:22.235592,28898,1715713882,233388374,base_link,0.398836369958559,0.0,0.0,0.0,0.0,-0.0005850638434604906
2024/05/14/15:11:22.253587,28899,1715713882,253346215,base_link,0.40740882475022805,0.0,0.0,0.0,0.0,-0.0005879468125913305
2024/05/14/15:11:22.273522,28900,1715713882,273224410,base_link,0.4137186218297461,0.0,0.0,0.0,0.0,-0.0005897417413355709
2024/05/14/15:11:22.293597,28901,1715713882,293341474,base_link,0.44343868684709364,0.0,0.0,0.0,0.0,-0.0006603024816876847
2024/05/14/15:11:22.313531,28902,1715713882,313271105,base_link,0.4604548941013048,0.0,0.0,0.0,0.0,-0.0006706546399983107
2024/05/14/15:11:22.333621,28903,1715713882,333235766,base_link,0.471392149350468,0.0,0.0,0.0,0.0,-0.0006747802877095459
2024/05/14/15:11:22.353229,28904,1715713882,352930129,base_link,0.47901004881689146,0.0,0.0,0.0,0.0,-0.0006769870463706562
2024/05/14/15:11:22.373362,28905,1715713882,372968395,base_link,0.48461804048195145,0.0,0.0,0.0,0.0,-0.0006783540993616994
2024/05/14/15:11:22.393304,28906,1715713882,393117989,base_link,0.50784245383639,0.0,0.0,0.0,0.0,-0.0007459540888122839
2024/05/14/15:11:22.413323,28907,1715713882,413133843,base_link,0.5211726722454851,0.0,0.0,0.0,0.0,-0.0007557898303202091
2024/05/14/15:11:22.433553,28908,1715713882,433306878,base_link,0.5297374093869778,0.0,0.0,0.0,0.0,-0.0007596996366979119
2024/05/14/15:11:22.453458,28909,1715713882,453204084,base_link,0.5357003262281631,0.0,0.0,0.0,0.0,-0.000761783541420202
2024/05/14/15:11:22.473490,28910,1715713882,473299101,base_link,0.540088084558102,0.0,0.0,0.0,0.0,-0.0007630687032298662
2024/05/14/15:11:22.493456,28911,1715713882,493211216,base_link,0.5702331325994523,0.0,0.0,0.0,0.0,-0.0008871135645714639
2024/05/14/15:11:22.513225,28912,1715713882,513016843,base_link,0.5874983693866892,0.0,0.0,0.0,0.0,-0.000905096286831295
2024/05/14/15:11:22.534748,28913,1715713882,533320434,base_link,0.5985967410990848,0.0,0.0,0.0,0.0,-0.0009122576111982777
2024/05/14/15:11:22.553302,28914,1715713882,552894779,base_link,0.606327422277234,0.0,0.0,0.0,0.0,-0.000916084213493862
2024/05/14/15:11:22.573461,28915,1715713882,572971039,base_link,0.6120187697178392,0.0,0.0,0.0,0.0,-0.0009184517134592367
2024/05/14/15:11:22.593433,28916,1715713882,593229389,base_link,0.6380082844497328,0.0,0.0,0.0,0.0,-0.0010918323324310077
2024/05/14/15:11:22.613612,28917,1715713882,613392994,base_link,0.6528099556121211,0.0,0.0,0.0,0.0,-0.0011169107578547553
2024/05/14/15:11:22.639827,28918,1715713882,633696071,base_link,0.6623315695793508,0.0,0.0,0.0,0.0,-0.0011269057057699205
2024/05/14/15:11:22.653635,28919,1715713882,653080149,base_link,0.6689688386051899,0.0,0.0,0.0,0.0,-0.0011322522635280646
2024/05/14/15:11:22.673491,28920,1715713882,673246387,base_link,0.673858827037618,0.0,0.0,0.0,0.0,-0.0011355647301809506
2024/05/14/15:11:22.695423,28921,1715713882,693404264,base_link,0.7036758176927842,0.0,0.0,0.0,0.0,-0.0013314723024837073
2024/05/14/15:11:22.713955,28922,1715713882,713686339,base_link,0.7205942516521742,0.0,0.0,0.0,0.0,-0.0013597366861798454
2024/05/14/15:11:22.734185,28923,1715713882,733807582,base_link,0.7315732971308333,0.0,0.0,0.0,0.0,-0.0013709916041280148
2024/05/14/15:11:22.753438,28924,1715713882,753183140,base_link,0.7392238834110214,0.0,0.0,0.0,0.0,-0.001377007766305908
2024/05/14/15:11:22.773499,28925,1715713882,773219702,base_link,0.7448588455715803,0.0,0.0,0.0,0.0,-0.001380731786779553
2024/05/14/15:11:22.793586,28926,1715713882,793181935,base_link,0.7747085007379937,0.0,0.0,0.0,0.0,-0.0014878517228303185
2024/05/14/15:11:22.813372,28927,1715713882,813084291,base_link,0.7916442175228121,0.0,0.0,0.0,0.0,-0.0015033036070825718
2024/05/14/15:11:22.834473,28928,1715713882,833658316,base_link,0.8026279022918683,0.0,0.0,0.0,0.0,-0.0015093160159736425
2024/05/14/15:11:22.853819,28929,1715713882,853237883,base_link,0.8102816756182337,0.0,0.0,0.0,0.0,-0.0015124996493171797
2024/05/14/15:11:22.873470,28930,1715713882,873095949,base_link,0.8159190106762696,0.0,0.0,0.0,0.0,-0.0015144468874117396
2024/05/14/15:11:22.893407,28931,1715713882,893026996,base_link,0.8588475747748419,0.0,0.0,0.0,0.0,-0.0016788970393478298
2024/05/14/15:11:22.913634,28932,1715713882,913119933,base_link,0.8832999662549958,0.0,0.0,0.0,0.0,-0.0017018283334075568
2024/05/14/15:11:22.934225,28933,1715713882,933759887,base_link,0.8990343662707335,0.0,0.0,0.0,0.0,-0.0017109441266336387
2024/05/14/15:11:22.953749,28934,1715713882,953466871,base_link,0.9100059341175388,0.0,0.0,0.0,0.0,-0.0017158037086097181
2024/05/14/15:11:22.973431,28935,1715713882,973142592,base_link,0.9180918878131351,0.0,0.0,0.0,0.0,-0.0017188018747222038
2024/05/14/15:11:22.993711,28936,1715713882,993424684,base_link,0.9642020676137277,0.0,0.0,0.0,0.0,-0.0018167415999218997
2024/05/14/15:11:23.013703,28937,1715713883,13394012,base_link,0.9903663185662344,0.0,0.0,0.0,0.0,-0.0018308685798806882
2024/05/14/15:11:23.034244,28938,1715713883,33496492,base_link,1.0073102334353148,0.0,0.0,0.0,0.0,-0.0018357753206737935
2024/05/14/15:11:23.053496,28939,1715713883,53153489,base_link,1.019122159042665,0.0,0.0,0.0,0.0,-0.0018383546097875264
2024/05/14/15:11:23.073450,28940,1715713883,73129268,base_link,1.0278256556159624,0.0,0.0,0.0,0.0,-0.0018399179365597685
2024/05/14/15:11:23.093495,28941,1715713883,93251831,base_link,1.0815838666891788,0.0,0.0,0.0,0.0,-0.0019845862509111634
2024/05/14/15:11:23.113438,28942,1715713883,113130785,base_link,1.1122130835714665,0.0,0.0,0.0,0.0,-0.0020042670073938426
2024/05/14/15:11:23.133774,28943,1715713883,133507809,base_link,1.1319227034479924,0.0,0.0,0.0,0.0,-0.0020120576086405744
2024/05/14/15:11:23.153551,28944,1715713883,153296715,base_link,1.1456665376970798,0.0,0.0,0.0,0.0,-0.002016187455580466
2024/05/14/15:11:23.173970,28945,1715713883,173326869,base_link,1.1557958516270095,0.0,0.0,0.0,0.0,-0.002018718014140033
2024/05/14/15:11:23.193435,28946,1715713883,193194592,base_link,1.216082465448947,0.0,0.0,0.0,0.0,-0.0022160097137888957
2024/05/14/15:11:23.214030,28947,1715713883,213724754,base_link,1.2503606359254829,0.0,0.0,0.0,0.0,-0.002243061960913606
2024/05/14/15:11:23.233758,28948,1715713883,233495445,base_link,1.2724263854608888,0.0,0.0,0.0,0.0,-0.002253816544623031
2024/05/14/15:11:23.254102,28949,1715713883,253680988,base_link,1.287818681027652,0.0,0.0,0.0,0.0,-0.0022595516044678515
2024/05/14/15:11:23.274591,28950,1715713883,273593468,base_link,1.299166874269051,0.0,0.0,0.0,0.0,-0.0022630923966659795
2024/05/14/15:11:23.293502,28951,1715713883,293236310,base_link,1.368254787690433,0.0,0.0,0.0,0.0,-0.0024921213467643797
2024/05/14/15:11:23.313288,28952,1715713883,313058112,base_link,1.407522308619925,0.0,0.0,0.0,0.0,-0.0025233822543650037
2024/05/14/15:11:23.335266,28953,1715713883,334075996,base_link,1.4328033642790527,0.0,0.0,0.0,0.0,-0.0025358367255431213
2024/05/14/15:11:23.353431,28954,1715713883,353175602,base_link,1.450440967846832,0.0,0.0,0.0,0.0,-0.002542498253570956
2024/05/14/15:11:23.374027,28955,1715713883,373755893,base_link,1.4634462940382233,0.0,0.0,0.0,0.0,-0.002546626811167371
2024/05/14/15:11:23.393646,28956,1715713883,393423190,base_link,1.5290403908965335,0.0,0.0,0.0,0.0,-0.002748166669246315
2024/05/14/15:11:23.413520,28957,1715713883,413186503,base_link,1.566262536999087,0.0,0.0,0.0,0.0,-0.0027772434606906015
2024/05/14/15:11:23.439572,28958,1715713883,434529637,base_link,1.590283313065386,0.0,0.0,0.0,0.0,-0.0027875160854023196
2024/05/14/15:11:23.453464,28959,1715713883,453226102,base_link,1.6070393495043334,0.0,0.0,0.0,0.0,-0.0027930080236454715
2024/05/14/15:11:23.473520,28960,1715713883,473246582,base_link,1.6193935797720045,0.0,0.0,0.0,0.0,-0.0027964104841497884
2024/05/14/15:11:23.493921,28961,1715713883,493653705,base_link,1.6798764804617696,0.0,0.0,0.0,0.0,-0.0030316979397431508
2024/05/14/15:11:23.513554,28962,1715713883,513269179,base_link,1.7141972058862107,0.0,0.0,0.0,0.0,-0.0030656450851399616
2024/05/14/15:11:23.534205,28963,1715713883,533312891,base_link,1.7363647365360488,0.0,0.0,0.0,0.0,-0.003077870789663476
2024/05/14/15:11:23.553429,28964,1715713883,553071992,base_link,1.7518262354180971,0.0,0.0,0.0,0.0,-0.003084432173174637
2024/05/14/15:11:23.573678,28965,1715713883,573244568,base_link,1.76322475668557,0.0,0.0,0.0,0.0,-0.003088516450468838
2024/05/14/15:11:23.594160,28966,1715713883,593901173,base_link,1.8297897061654949,0.0,0.0,0.0,0.0,-0.0033687344309813834
2024/05/14/15:11:23.613467,28967,1715713883,613220459,base_link,1.8675612032773339,0.0,0.0,0.0,0.0,-0.003409166509867923
2024/05/14/15:11:23.634163,28968,1715713883,633575014,base_link,1.8919479534936834,0.0,0.0,0.0,0.0,-0.0034240284362226842
2024/05/14/15:11:23.654081,28969,1715713883,653767862,base_link,1.9089580406662046,0.0,0.0,0.0,0.0,-0.0034320134148723975
2024/05/14/15:11:23.673407,28970,1715713883,673130546,base_link,1.9214987179182792,0.0,0.0,0.0,0.0,-0.003436990473031579
2024/05/14/15:11:23.693702,28971,1715713883,693377408,base_link,1.986231347527315,0.0,0.0,0.0,0.0,-0.003646730643179161
2024/05/14/15:11:23.713526,28972,1715713883,713190376,base_link,2.022963108758303,0.0,0.0,0.0,0.0,-0.0036769935665530136
2024/05/14/15:11:23.734491,28973,1715713883,733549748,base_link,2.0466846819525424,0.0,0.0,0.0,0.0,-0.003687468380776981
2024/05/14/15:11:23.753572,28974,1715713883,753175494,base_link,2.0632304389321168,0.0,0.0,0.0,0.0,-0.0036931069213138185
2024/05/14/15:11:23.773584,28975,1715713883,773227566,base_link,2.0754284832731433,0.0,0.0,0.0,0.0,-0.0036966303463085238
2024/05/14/15:11:23.793615,28976,1715713883,793332057,base_link,2.1408375353485503,0.0,0.0,0.0,0.0,-0.00390690985033052
2024/05/14/15:11:23.813836,28977,1715713883,813312434,base_link,2.1779529581848363,0.0,0.0,0.0,0.0,-0.003937252330374311
2024/05/14/15:11:23.835078,28978,1715713883,834347453,base_link,2.201937348294735,0.0,0.0,0.0,0.0,-0.003947753204121248
2024/05/14/15:11:23.854012,28979,1715713883,853756703,base_link,2.218665230462457,0.0,0.0,0.0,0.0,-0.003953431693234033
2024/05/14/15:11:23.873801,28980,1715713883,873541333,base_link,2.230996627346139,0.0,0.0,0.0,0.0,-0.0039569989966579885
2024/05/14/15:11:23.893859,28981,1715713883,893582333,base_link,2.2927123473455486,0.0,0.0,0.0,0.0,-0.004148395710564693
2024/05/14/15:11:23.913631,28982,1715713883,913352185,base_link,2.327731427329377,0.0,0.0,0.0,0.0,-0.0041760157068218545
2024/05/14/15:11:23.934038,28983,1715713883,933505401,base_link,2.350320278853271,0.0,0.0,0.0,0.0,-0.004185486731927845
2024/05/14/15:11:23.953454,28984,1715713883,953105797,base_link,2.366078196027156,0.0,0.0,0.0,0.0,-0.0041906308839765915
2024/05/14/15:11:23.973803,28985,1715713883,973160606,base_link,2.3776969808064194,0.0,0.0,0.0,0.0,-0.004193878661818346
2024/05/14/15:11:23.993503,28986,1715713883,993258500,base_link,2.4355290617724683,0.0,0.0,0.0,0.0,-0.004371140351806182
2024/05/14/15:11:24.013474,28987,1715713884,13259044,base_link,2.468422443427804,0.0,0.0,0.0,0.0,-0.004394373479009434
2024/05/14/15:11:24.034577,28988,1715713884,33647446,base_link,2.489599058278078,0.0,0.0,0.0,0.0,-0.0044037343018334335
2024/05/14/15:11:24.053447,28989,1715713884,53132757,base_link,2.5043724539290273,0.0,0.0,0.0,0.0,-0.004408816532082851
2024/05/14/15:11:24.073462,28990,1715713884,73166371,base_link,2.5152652044231254,0.0,0.0,0.0,0.0,-0.004412023693750874
2024/05/14/15:11:24.093410,28991,1715713884,93098995,base_link,2.5782914213664307,0.0,0.0,0.0,0.0,-0.00461680103849744
2024/05/14/15:11:24.113312,28992,1715713884,113086797,base_link,2.6140557122295545,0.0,0.0,0.0,0.0,-0.0046463531861071624
2024/05/14/15:11:24.141297,28993,1715713884,140669130,base_link,2.637277995186993,0.0,0.0,0.0,0.0,-0.004657231270788601
2024/05/14/15:11:24.153416,28994,1715713884,153156528,base_link,2.653351635620669,0.0,0.0,0.0,0.0,-0.004662649646262391
2024/05/14/15:11:24.173639,28995,1715713884,173329769,base_link,2.6652032948320765,0.0,0.0,0.0,0.0,-0.004666083972570143
2024/05/14/15:11:24.193443,28996,1715713884,193177896,base_link,2.722155117526549,0.0,0.0,0.0,0.0,-0.004835652497453547
2024/05/14/15:11:24.213460,28997,1715713884,213183400,base_link,2.7545535118539823,0.0,0.0,0.0,0.0,-0.004858006219804841
2024/05/14/15:11:24.234574,28998,1715713884,233811842,base_link,2.7754115282619285,0.0,0.0,0.0,0.0,-0.004867073170816996
2024/05/14/15:11:24.253344,28999,1715713884,253101529,base_link,2.789962604853359,0.0,0.0,0.0,0.0,-0.004872034883076273
2024/05/14/15:11:24.273548,29000,1715713884,273289407,base_link,2.800691341451203,0.0,0.0,0.0,0.0,-0.004875192548323095
2024/05/14/15:11:24.293779,29001,1715713884,293461728,base_link,2.860798507069953,0.0,0.0,0.0,0.0,-0.005064728700033885
2024/05/14/15:11:24.313450,29002,1715713884,313227718,base_link,2.8949450535671053,0.0,0.0,0.0,0.0,-0.005090407788377291
2024/05/14/15:11:24.341391,29003,1715713884,341002123,base_link,2.917079809339269,0.0,0.0,0.0,0.0,-0.005101312453245426
2024/05/14/15:11:24.353399,29004,1715713884,353145748,base_link,2.9323938620681647,0.0,0.0,0.0,0.0,-0.005106889372904396
2024/05/14/15:11:24.373479,29005,1715713884,373266892,base_link,2.94368734749512,0.0,0.0,0.0,0.0,-0.005110443507221285
2024/05/14/15:11:24.394094,29006,1715713884,393485781,base_link,3.0022429127145585,0.0,0.0,0.0,0.0,-0.005287628945516054
2024/05/14/15:11:24.413899,29007,1715713884,413656462,base_link,3.035470633322599,0.0,0.0,0.0,0.0,-0.0053132034359560315
2024/05/14/15:11:24.434645,29008,1715713884,433874052,base_link,3.0568800519036725,0.0,0.0,0.0,0.0,-0.005322515271813006
2024/05/14/15:11:24.453883,29009,1715713884,453472618,base_link,3.0718192160884725,0.0,0.0,0.0,0.0,-0.005327623622556619
2024/05/14/15:11:24.473392,29010,1715713884,473132777,base_link,3.0828369964207387,0.0,0.0,0.0,0.0,-0.005330882004445282
2024/05/14/15:11:24.493481,29011,1715713884,493222448,base_link,3.1369847214133912,0.0,0.0,0.0,0.0,-0.005488639387635209
2024/05/14/15:11:24.513469,29012,1715713884,513237699,base_link,3.167742456698532,0.0,0.0,0.0,0.0,-0.005510072019901435
2024/05/14/15:11:24.534973,29013,1715713884,533651860,base_link,3.187549913379917,0.0,0.0,0.0,0.0,-0.005518791920706259
2024/05/14/15:11:24.553901,29014,1715713884,553206705,base_link,3.2013718729397693,0.0,0.0,0.0,0.0,-0.005523578938241893
2024/05/14/15:11:24.573433,29015,1715713884,573227442,base_link,3.2115657052623376,0.0,0.0,0.0,0.0,-0.005526634345581773
2024/05/14/15:11:24.593457,29016,1715713884,593234042,base_link,3.2733457514356767,0.0,0.0,0.0,0.0,-0.005720875167264912
2024/05/14/15:11:24.613609,29017,1715713884,613363032,base_link,3.308403678178916,0.0,0.0,0.0,0.0,-0.0057489099971057556
2024/05/14/15:11:24.640115,29018,1715713884,633626630,base_link,3.3310031458104814,0.0,0.0,0.0,0.0,-0.005759360657695103
2024/05/14/15:11:24.653383,29019,1715713884,653146623,base_link,3.346772407847702,0.0,0.0,0.0,0.0,-0.00576509743574975
2024/05/14/15:11:24.673404,29020,1715713884,673162118,base_link,3.358402061051291,0.0,0.0,0.0,0.0,-0.005768758360871618
2024/05/14/15:11:24.694361,29021,1715713884,693894276,base_link,3.412353142734107,0.0,0.0,0.0,0.0,-0.0059191758101669895
2024/05/14/15:11:24.713793,29022,1715713884,713535237,base_link,3.4430180991649997,0.0,0.0,0.0,0.0,-0.00593997866349788
2024/05/14/15:11:24.735478,29023,1715713884,734403746,base_link,3.4627646276052255,0.0,0.0,0.0,0.0,-0.005948458462159415
2024/05/14/15:11:24.753628,29024,1715713884,753261190,base_link,3.476543059683285,0.0,0.0,0.0,0.0,-0.005953123037138625
2024/05/14/15:11:24.773516,29025,1715713884,773132748,base_link,3.486703964341335,0.0,0.0,0.0,0.0,-0.005956105893176782
2024/05/14/15:11:24.793483,29026,1715713884,793016277,base_link,3.541871307363473,0.0,0.0,0.0,0.0,-0.006118789660641538
2024/05/14/15:11:24.813807,29027,1715713884,813150532,base_link,3.573176214827415,0.0,0.0,0.0,0.0,-0.006142271221410525
2024/05/14/15:11:24.842858,29028,1715713884,834345209,base_link,3.593355677759828,0.0,0.0,0.0,0.0,-0.006151262095404376
2024/05/14/15:11:24.853357,29029,1715713884,853086453,base_link,3.607436420449114,0.0,0.0,0.0,0.0,-0.006156213512985631
2024/05/14/15:11:24.874038,29030,1715713884,873814803,base_link,3.6178207835681992,0.0,0.0,0.0,0.0,-0.006159383330912205
2024/05/14/15:11:24.893893,29031,1715713884,893643779,base_link,3.6681833878334364,0.0,0.0,0.0,0.0,-0.006407308025339952
2024/05/14/15:11:24.913813,29032,1715713884,913596834,base_link,3.69676163651202,0.0,0.0,0.0,0.0,-0.006443090084481574
2024/05/14/15:11:24.943542,29033,1715713884,934173475,base_link,3.715187817416266,0.0,0.0,0.0,0.0,-0.0064571591902554334
2024/05/14/15:11:24.953488,29034,1715713884,953083937,base_link,3.728045332512311,0.0,0.0,0.0,0.0,-0.006464869911909055
2024/05/14/15:11:24.973634,29035,1715713884,973431998,base_link,3.7375277053288007,0.0,0.0,0.0,0.0,-0.006469780117170687
2024/05/14/15:11:24.993275,29036,1715713884,992891930,base_link,3.7914704620313464,0.0,0.0,0.0,0.0,-0.006638569402867888
2024/05/14/15:11:25.013152,29037,1715713885,12927240,base_link,3.822080202432236,0.0,0.0,0.0,0.0,-0.006662934113530087
2024/05/14/15:11:25.043405,29038,1715713885,34077434,base_link,3.8418435963614956,0.0,0.0,0.0,0.0,-0.006672702028800263
2024/05/14/15:11:25.053215,29039,1715713885,52951263,base_link,3.855631956522469,0.0,0.0,0.0,0.0,-0.006678068351971204
2024/05/14/15:11:25.073388,29040,1715713885,73145509,base_link,3.8657991315639184,0.0,0.0,0.0,0.0,-0.006681493991486331
2024/05/14/15:11:25.093713,29041,1715713885,93409720,base_link,3.915739819404467,0.0,0.0,0.0,0.0,-0.006821831460368016
2024/05/14/15:11:25.113340,29042,1715713885,113095305,base_link,3.9440908354218447,0.0,0.0,0.0,0.0,-0.00684208235423699
2024/05/14/15:11:25.139455,29043,1715713885,133738343,base_link,3.96235023635942,0.0,0.0,0.0,0.0,-0.006850354776719607
2024/05/14/15:11:25.153555,29044,1715713885,153225316,base_link,3.975092838722705,0.0,0.0,0.0,0.0,-0.006854914213477121
2024/05/14/15:11:25.173800,29045,1715713885,173276353,base_link,3.984491125328038,0.0,0.0,0.0,0.0,-0.006857834125000204
2024/05/14/15:11:25.193363,29046,1715713885,193126263,base_link,4.027819750149116,0.0,0.0,0.0,0.0,-0.0069736199247590995
2024/05/14/15:11:25.213814,29047,1715713885,213582919,base_link,4.052407036979662,0.0,0.0,0.0,0.0,-0.006990334244155036
2024/05/14/15:11:25.234803,29048,1715713885,233194725,base_link,4.068271406765695,0.0,0.0,0.0,0.0,-0.006997270395509289
2024/05/14/15:11:25.253502,29049,1715713885,253217565,base_link,4.079340887876297,0.0,0.0,0.0,0.0,-0.007001113965554067
2024/05/14/15:11:25.273237,29050,1715713885,273053628,base_link,4.087504119063734,0.0,0.0,0.0,0.0,-0.00700358893117377
2024/05/14/15:11:25.293604,29051,1715713885,293136002,base_link,4.128564263665332,0.0,0.0,0.0,0.0,-0.007116854579211228
2024/05/14/15:11:25.313278,29052,1715713885,313081642,base_link,4.151863482003725,0.0,0.0,0.0,0.0,-0.007133205455183494
2024/05/14/15:11:25.333402,29053,1715713885,333102271,base_link,4.166961295140618,0.0,0.0,0.0,0.0,-0.007140295027251595
2024/05/14/15:11:25.353823,29054,1715713885,353517932,base_link,4.177490683578019,0.0,0.0,0.0,0.0,-0.007144191906170965
2024/05/14/15:11:25.373509,29055,1715713885,373217726,base_link,4.185251713586237,0.0,0.0,0.0,0.0,-0.007146679796389951
2024/05/14/15:11:25.394171,29056,1715713885,393492195,base_link,4.226825348041483,0.0,0.0,0.0,0.0,-0.00726384219569069
2024/05/14/15:11:25.413554,29057,1715713885,413247145,base_link,4.2504248379041725,0.0,0.0,0.0,0.0,-0.00728174724051554
2024/05/14/15:11:25.433576,29058,1715713885,433305896,base_link,4.265623326575877,0.0,0.0,0.0,0.0,-0.007289052870243165
2024/05/14/15:11:25.454141,29059,1715713885,453678700,base_link,4.276229147629774,0.0,0.0,0.0,0.0,-0.007293072049426396
2024/05/14/15:11:25.473868,29060,1715713885,473577115,base_link,4.284050873565382,0.0,0.0,0.0,0.0,-0.0072956394998991096
2024/05/14/15:11:25.493904,29061,1715713885,493665228,base_link,4.324485643156571,0.0,0.0,0.0,0.0,-0.007529834410060763
2024/05/14/15:11:25.514151,29062,1715713885,513877631,base_link,4.34743040530056,0.0,0.0,0.0,0.0,-0.007563632676897423
2024/05/14/15:11:25.534030,29063,1715713885,533315118,base_link,4.362212240367814,0.0,0.0,0.0,0.0,-0.007578065185214903
2024/05/14/15:11:25.553807,29064,1715713885,553553921,base_link,4.372528055009991,0.0,0.0,0.0,0.0,-0.007585930587299238
2024/05/14/15:11:25.574184,29065,1715713885,573860404,base_link,4.38013668651731,0.0,0.0,0.0,0.0,-0.007590906662584696
2024/05/14/15:11:25.594019,29066,1715713885,593698330,base_link,4.41758600214409,0.0,0.0,0.0,0.0,-0.007699887530828039
2024/05/14/15:11:25.614215,29067,1715713885,613869389,base_link,4.438836766807767,0.0,0.0,0.0,0.0,-0.007715618371842267
2024/05/14/15:11:25.633926,29068,1715713885,633574534,base_link,4.452557351305978,0.0,0.0,0.0,0.0,-0.007722941295648175
2024/05/14/15:11:25.653466,29069,1715713885,653227823,base_link,4.4621305711060515,0.0,0.0,0.0,0.0,-0.00772695454920391
2024/05/14/15:11:25.673670,29070,1715713885,673398616,base_link,4.469190011049605,0.0,0.0,0.0,0.0,-0.007729507502620421
2024/05/14/15:11:25.693367,29071,1715713885,693120643,base_link,4.504305072172896,0.0,0.0,0.0,0.0,-0.007824445979106167
2024/05/14/15:11:25.713978,29072,1715713885,713652037,base_link,4.524230555434434,0.0,0.0,0.0,0.0,-0.00783814904936905
2024/05/14/15:11:25.734200,29073,1715713885,733356681,base_link,4.537069586256165,0.0,0.0,0.0,0.0,-0.00784364204499022
2024/05/14/15:11:25.753353,29074,1715713885,753146238,base_link,4.546081222291059,0.0,0.0,0.0,0.0,-0.007847424268359472
2024/05/14/15:11:25.773431,29075,1715713885,773113658,base_link,4.5527237768771265,0.0,0.0,0.0,0.0,-0.007849856594860502
2024/05/14/15:11:25.793391,29076,1715713885,793060741,base_link,4.585728981027378,0.0,0.0,0.0,0.0,-0.007938527490312312
2024/05/14/15:11:25.813540,29077,1715713885,813291219,base_link,4.604518239427576,0.0,0.0,0.0,0.0,-0.007952833169110593
2024/05/14/15:11:25.833910,29078,1715713885,833650882,base_link,4.6166151252420775,0.0,0.0,0.0,0.0,-0.007958671554610346
2024/05/14/15:11:25.854051,29079,1715713885,853716482,base_link,4.62505378382494,0.0,0.0,0.0,0.0,-0.007961882831328565
2024/05/14/15:11:25.873724,29080,1715713885,873494443,base_link,4.63127508487722,0.0,0.0,0.0,0.0,-0.00796393252484823
2024/05/14/15:11:25.894091,29081,1715713885,893802293,base_link,4.656982539668845,0.0,0.0,0.0,0.0,-0.008024532519297738
2024/05/14/15:11:25.914038,29082,1715713885,913774142,base_link,4.6715691596609235,0.0,0.0,0.0,0.0,-0.008033280457545753
2024/05/14/15:11:25.934735,29083,1715713885,933251667,base_link,4.68098586470591,0.0,0.0,0.0,0.0,-0.008038077165757983
2024/05/14/15:11:25.953366,29084,1715713885,953040590,base_link,4.687555426779613,0.0,0.0,0.0,0.0,-0.008040702079162394
2024/05/14/15:11:25.973413,29085,1715713885,973162353,base_link,4.692399308232879,0.0,0.0,0.0,0.0,-0.008042367922410927
2024/05/14/15:11:25.993634,29086,1715713885,993397144,base_link,4.722149941795438,0.0,0.0,0.0,0.0,-0.008127052694370543
2024/05/14/15:11:26.013511,29087,1715713886,13134407,base_link,4.739031219566497,0.0,0.0,0.0,0.0,-0.008139274123666293
2024/05/14/15:11:26.033386,29088,1715713886,33097665,base_link,4.749917107496783,0.0,0.0,0.0,0.0,-0.008145436445618819
2024/05/14/15:11:26.053883,29089,1715713886,53152006,base_link,4.757513418894047,0.0,0.0,0.0,0.0,-0.00814884135433672
2024/05/14/15:11:26.073509,29090,1715713886,73252516,base_link,4.7631156768371365,0.0,0.0,0.0,0.0,-0.008151024471438058
2024/05/14/15:11:26.093448,29091,1715713886,93145752,base_link,4.794267401246459,0.0,0.0,0.0,0.0,-0.008370948996579633
2024/05/14/15:11:26.113725,29092,1715713886,113341043,base_link,4.811944173920803,0.0,0.0,0.0,0.0,-0.008402687729117758
2024/05/14/15:11:26.133538,29093,1715713886,133148207,base_link,4.8233934422233,0.0,0.0,0.0,0.0,-0.008416807052499382
2024/05/14/15:11:26.153624,29094,1715713886,153318410,base_link,4.831379575639498,0.0,0.0,0.0,0.0,-0.008424497018775136
2024/05/14/15:11:26.173601,29095,1715713886,173316054,base_link,4.837266811557147,0.0,0.0,0.0,0.0,-0.008429357492637762
2024/05/14/15:11:26.193542,29096,1715713886,193126862,base_link,4.864975274297013,0.0,0.0,0.0,0.0,-0.008644677217428098
2024/05/14/15:11:26.214546,29097,1715713886,213329437,base_link,4.880697009777216,0.0,0.0,0.0,0.0,-0.008675751259095794
2024/05/14/15:11:26.233475,29098,1715713886,233240204,base_link,4.89088147445308,0.0,0.0,0.0,0.0,-0.008689732196834136
2024/05/14/15:11:26.253956,29099,1715713886,253285799,base_link,4.897984380459707,0.0,0.0,0.0,0.0,-0.0086973217128949
2024/05/14/15:11:26.273427,29100,1715713886,273207214,base_link,4.903219752629409,0.0,0.0,0.0,0.0,-0.008702101729710192
2024/05/14/15:11:26.293601,29101,1715713886,293293980,base_link,4.921885144238235,0.0,0.0,0.0,0.0,-0.008750547585467597
2024/05/14/15:11:26.314094,29102,1715713886,313231588,base_link,4.932475260572434,0.0,0.0,0.0,0.0,-0.008757540787631699
2024/05/14/15:11:26.333472,29103,1715713886,333128274,base_link,4.939330783490814,0.0,0.0,0.0,0.0,-0.008761945062342789
2024/05/14/15:11:26.353586,29104,1715713886,353345977,base_link,4.944112049168557,0.0,0.0,0.0,0.0,-0.008764360149079872
2024/05/14/15:11:26.373650,29105,1715713886,373297559,base_link,4.94763620530993,0.0,0.0,0.0,0.0,-0.008765895079193675
2024/05/14/15:11:26.393728,29106,1715713886,393484585,base_link,4.968420154163263,0.0,0.0,0.0,0.0,-0.00854914158102901
2024/05/14/15:11:26.413375,29107,1715713886,413076971,base_link,4.980275345373031,0.0,0.0,0.0,0.0,-0.008520295396604767
2024/05/14/15:11:26.434118,29108,1715713886,433748790,base_link,4.987906889723707,0.0,0.0,0.0,0.0,-0.008508799089296274
2024/05/14/15:11:26.453444,29109,1715713886,453131590,base_link,4.9932296138226,0.0,0.0,0.0,0.0,-0.00850263913690605
2024/05/14/15:11:26.473845,29110,1715713886,473511432,base_link,4.997152915853982,0.0,0.0,0.0,0.0,-0.008498807590451952
2024/05/14/15:11:26.493455,29111,1715713886,493119916,base_link,5.018659365176586,0.0,0.0,0.0,0.0,-0.008398158033777768
2024/05/14/15:11:26.513497,29112,1715713886,513238650,base_link,5.030912355069728,0.0,0.0,0.0,0.0,-0.008386081156610645
2024/05/14/15:11:26.533634,29113,1715713886,533371359,base_link,5.03880115359667,0.0,0.0,0.0,0.0,-0.008381323304099266
2024/05/14/15:11:26.553484,29114,1715713886,553135781,base_link,5.044304106449479,0.0,0.0,0.0,0.0,-0.008378806550114108
2024/05/14/15:11:26.573575,29115,1715713886,573331464,base_link,5.0483608338393635,0.0,0.0,0.0,0.0,-0.008377261018131115
2024/05/14/15:11:26.593621,29116,1715713886,593137769,base_link,5.0753474416164215,0.0,0.0,0.0,0.0,-0.008440848533490804
2024/05/14/15:11:26.613621,29117,1715713886,613429677,base_link,5.090660131320495,0.0,0.0,0.0,0.0,-0.008450025857861148
2024/05/14/15:11:26.633869,29118,1715713886,633617547,base_link,5.100584990571401,0.0,0.0,0.0,0.0,-0.008455569985813396
2024/05/14/15:11:26.653515,29119,1715713886,653264962,base_link,5.107506598691048,0.0,0.0,0.0,0.0,-0.008458569288252248
2024/05/14/15:11:26.673440,29120,1715713886,673146941,base_link,5.112608122519744,0.0,0.0,0.0,0.0,-0.008460449163085495
2024/05/14/15:11:26.693708,29121,1715713886,693262354,base_link,5.1362580321690015,0.0,0.0,0.0,0.0,-0.008515265106296667
2024/05/14/15:11:26.713514,29122,1715713886,713223483,base_link,5.149676504153465,0.0,0.0,0.0,0.0,-0.00852317435970978
2024/05/14/15:11:26.733423,29123,1715713886,733233271,base_link,5.1583873382672145,0.0,0.0,0.0,0.0,-0.00852843742906321
2024/05/14/15:11:26.754109,29124,1715713886,753769459,base_link,5.164460811124783,0.0,0.0,0.0,0.0,-0.008531266576756045
2024/05/14/15:11:26.773415,29125,1715713886,773177660,base_link,5.168936117031433,0.0,0.0,0.0,0.0,-0.008533027124166082
2024/05/14/15:11:26.793704,29126,1715713886,793377127,base_link,5.195353364516274,0.0,0.0,0.0,0.0,-0.008601197555725103
2024/05/14/15:11:26.813418,29127,1715713886,813166647,base_link,5.210341807217559,0.0,0.0,0.0,0.0,-0.008611032419468489
2024/05/14/15:11:26.833360,29128,1715713886,833148316,base_link,5.21999849861602,0.0,0.0,0.0,0.0,-0.008614971885556821
2024/05/14/15:11:26.853473,29129,1715713886,853228401,base_link,5.226744685241818,0.0,0.0,0.0,0.0,-0.00861864204440965
2024/05/14/15:11:26.873508,29130,1715713886,873261581,base_link,5.231718893967254,0.0,0.0,0.0,0.0,-0.008620959023950023
2024/05/14/15:11:26.893553,29131,1715713886,893220798,base_link,5.252558101807864,0.0,0.0,0.0,0.0,-0.007656868138672536
2024/05/14/15:11:26.913920,29132,1715713886,913644385,base_link,5.264382481491389,0.0,0.0,0.0,0.0,-0.007517756388938212
2024/05/14/15:11:26.933990,29133,1715713886,933573606,base_link,5.272001273409386,0.0,0.0,0.0,0.0,-0.007462013994287231
2024/05/14/15:11:26.954066,29134,1715713886,953729793,base_link,5.277347345922149,0.0,0.0,0.0,0.0,-0.007433436915895921
2024/05/14/15:11:26.973534,29135,1715713886,973286833,base_link,5.281288448348053,0.0,0.0,0.0,0.0,-0.007415619929150782
2024/05/14/15:11:26.993714,29136,1715713886,993391445,base_link,5.301532235543234,0.0,0.0,0.0,0.0,-0.004486772395926831
2024/05/14/15:11:27.014210,29137,1715713887,13797148,base_link,5.313018413318449,0.0,0.0,0.0,0.0,-0.0040641600240287155
2024/05/14/15:11:27.033532,29138,1715713887,33270184,base_link,5.320468875198178,0.0,0.0,0.0,0.0,-0.003896634568112798
2024/05/14/15:11:27.054063,29139,1715713887,53311762,base_link,5.325664545390094,0.0,0.0,0.0,0.0,-0.0038063920922309534
2024/05/14/15:11:27.073276,29140,1715713887,72999947,base_link,5.329493739690384,0.0,0.0,0.0,0.0,-0.0037499835106881616
2024/05/14/15:11:27.093508,29141,1715713887,93281010,base_link,5.344287611955843,0.0,0.0,0.0,0.0,-0.000946062315756945
2024/05/14/15:11:27.113301,29142,1715713887,113023492,base_link,5.352681015566994,0.0,0.0,0.0,0.0,-0.0005414725426663071
2024/05/14/15:11:27.133170,29143,1715713887,133015938,base_link,5.358105647364539,0.0,0.0,0.0,0.0,-0.000381368402113679
2024/05/14/15:11:27.153253,29144,1715713887,152946727,base_link,5.361889530970999,0.0,0.0,0.0,0.0,-0.0002951054793263301
2024/05/14/15:11:27.173930,29145,1715713887,173706572,base_link,5.3646789459230515,0.0,0.0,0.0,0.0,-0.0002411716076930924
2024/05/14/15:11:27.193459,29146,1715713887,193017187,base_link,5.3815198701062235,0.0,0.0,0.0,0.0,-6.116475173364953e-05
2024/05/14/15:11:27.214363,29147,1715713887,213201607,base_link,5.39107552482868,0.0,0.0,0.0,0.0,-3.519007455986548e-05
2024/05/14/15:11:27.233333,29148,1715713887,233080988,base_link,5.397265133338348,0.0,0.0,0.0,0.0,-2.701636817739747e-05
2024/05/14/15:11:27.253414,29149,1715713887,253143127,base_link,5.4015819917784125,0.0,0.0,0.0,0.0,-2.2590914748524973e-05
2024/05/14/15:11:27.273545,29150,1715713887,273035370,base_link,5.4047638642994835,0.0,0.0,0.0,0.0,-1.9805463198361338e-05
