time,.header.seq,.header.stamp.secs,.header.stamp.nsecs,.header.frame_id,.pose.position.x,.pose.position.y,.pose.position.z,.pose.orientation.x,.pose.orientation.y,.pose.orientation.z,.pose.orientation.w
2024/05/14/15:11:17.458828,28658,1715713877,432981440,map,34.365248816776706,-3.69617892195702,-1.1089998483657837,0.001924387368693292,0.01624100226992677,-0.14223152657323265,0.9896982971730178
2024/05/14/15:11:17.461005,28659,1715713877,453116251,map,34.3655211632545,-3.696332782822784,-1.1089998483657837,0.0019243118031926894,0.01624101122346284,-0.14222692174340643,0.9896989589314108
2024/05/14/15:11:17.473273,28660,1715713877,473065481,map,34.3657642828753,-3.696476797443107,-1.1089998483657837,0.001924236689306003,0.016241020123135167,-0.14222234443360918,0.9896996167132386
2024/05/14/15:11:17.493832,28661,1715713877,493624191,map,34.36598323048922,-3.696612622559049,-1.1089998483657837,0.0019241620480234202,0.01624102896646327,-0.14221779592295622,0.9897002703350847
2024/05/14/15:11:17.513404,28662,1715713877,513212850,map,34.36583032894333,-3.696623342136675,-1.109017252922058,0.0017122285867080236,0.01625505033221382,-0.1422113707189303,0.9897013527575919
2024/05/14/15:11:17.533847,28663,1715713877,533653732,map,34.36569254704078,-3.6966390454000377,-1.109017252922058,0.0017121785629077538,0.016255055601401797,-0.1422083249808546,0.9897017903985542
2024/05/14/15:11:17.554051,28664,1715713877,553801116,map,34.36556725199588,-3.6966588647330494,-1.109017252922058,0.001712128316474982,0.016255060893883764,-0.14220526568726355,0.989702229977673
2024/05/14/15:11:17.573644,28665,1715713877,573384538,map,34.36545246990342,-3.6966821453746954,-1.109017252922058,0.0017120778613133286,0.016255066208193232,-0.14220219368468537,0.9897026713731895
2024/05/14/15:11:17.593678,28666,1715713877,593448586,map,34.365348286157115,-3.696708853926315,-1.109017252922058,0.0017120271822796368,0.01625507154592315,-0.1421991080511122,0.9897031147174552
2024/05/14/15:11:17.613477,28667,1715713877,613254364,map,34.365709475885204,-3.696895066666228,-1.106613278388977,0.0018829767589895441,0.016222604773533374,-0.142197770635016,0.9897035291031946
2024/05/14/15:11:17.636100,28668,1715713877,633602662,map,34.366027892731886,-3.6970669095674054,-1.106613278388977,0.001882908392188705,0.016222612708802122,-0.14219359973466159,0.9897041283572509
2024/05/14/15:11:17.655112,28669,1715713877,653226327,map,34.366310520262125,-3.697226708513934,-1.106613278388977,0.0018828402271837334,0.016222620620357904,-0.14218944114492307,0.9897047258247185
2024/05/14/15:11:17.676758,28670,1715713877,673895155,map,34.36656280855941,-3.697376283928922,-1.106613278388977,0.0018827722565574957,0.016222628509064127,-0.14218529441330247,0.9897053215707641
2024/05/14/15:11:17.694251,28671,1715713877,694043886,map,34.36678981785828,-3.697517300926962,-1.106613278388977,0.0018827044851449663,0.016222636374362144,-0.1421811598347747,0.9897059155531632
2024/05/14/15:11:17.713582,28672,1715713877,713060094,map,34.36699414083744,-3.6976506675614482,-1.106613278388977,0.0018826368878647488,0.016222644219165187,-0.14217703587918504,0.9897065079918873
2024/05/14/15:11:17.734010,28673,1715713877,733700525,map,34.366934862805905,-3.69769323413584,-1.1090854406356812,0.001758541373681588,0.016346648711379093,-0.14217046391813407,0.9897056399745564
2024/05/14/15:11:17.753747,28674,1715713877,753133142,map,34.36687999585086,-3.6977372067404266,-1.1090854406356812,0.0017584757120376348,0.016346655775000447,-0.14216648844247504,0.9897062110404679
2024/05/14/15:11:17.773786,28675,1715713877,773530829,map,34.36682874358614,-3.697782325719207,-1.1090854406356812,0.001758410233600004,0.016346662818647495,-0.1421625240584453,0.9897067804968679
2024/05/14/15:11:17.793834,28676,1715713877,793551327,map,34.36678168659332,-3.697828742449941,-1.1090854406356812,0.0017583449428584888,0.01634666984183952,-0.14215857103788368,0.9897073483048464
2024/05/14/15:11:17.813417,28677,1715713877,813141314,map,34.36673690392553,-3.6978758779240444,-1.1090854406356812,0.0017582798164574595,0.01634667684709097,-0.1421546279667308,0.9897079146676477
2024/05/14/15:11:17.835105,28678,1715713877,833712739,map,34.366694195174034,-3.697923659304893,-1.1090854406356812,0.001758214856740905,0.01634668383415172,-0.14215069498690758,0.9897084795650094
2024/05/14/15:11:17.853567,28679,1715713877,853352993,map,34.366650638717815,-3.6979760481489303,-1.110215187072754,0.0018278122016547472,0.01633050333226245,-0.14214791491827178,0.9897090198880972
2024/05/14/15:11:17.873853,28680,1715713877,873487255,map,34.36660947094224,-3.698029168421655,-1.110215187072754,0.0018277468880168563,0.01633051064244158,-0.14214395658953416,0.9897095883988106
2024/05/14/15:11:17.893724,28681,1715713877,893303470,map,34.36657151513937,-3.6980832493482527,-1.110215187072754,0.0018276816362806669,0.016330517945428287,-0.14214000201184396,0.9897101563546488
2024/05/14/15:11:17.913338,28682,1715713877,913067271,map,34.36658241149535,-3.6981538600979653,-1.110295057296753,0.0017990477387907521,0.01634495143053603,-0.14213482577667366,0.9897107139419082
2024/05/14/15:11:17.934351,28683,1715713877,933651198,map,34.36658969743433,-3.6982231894243096,-1.110295057296753,0.0017989713083132147,0.016344959842865804,-0.14213019779911468,0.9897113785662726
2024/05/14/15:11:17.953357,28684,1715713877,953032133,map,34.36659386920795,-3.6982914089433616,-1.110295057296753,0.0017988952454127483,0.016344968214379044,-0.14212559207816597,0.9897120399724345
2024/05/14/15:11:17.974000,28685,1715713877,973734455,map,34.36659536673988,-3.6983586687232926,-1.110295057296753,0.0017988195352644301,0.016344976546712475,-0.14212100771616676,0.989712698289614
2024/05/14/15:11:17.993528,28686,1715713877,993228995,map,34.36659601658573,-3.6984255237311805,-1.110295057296753,0.0017987441940576624,0.016344984838089438,-0.14211644569341964,0.9897133533773484
2024/05/14/15:11:18.013734,28687,1715713878,13544833,map,34.36642653184084,-3.698435636872852,-1.1131813526153564,0.0017419749804114815,0.016349747809831807,-0.14211217051497665,0.9897139901311109
2024/05/14/15:11:18.033831,28688,1715713878,33556788,map,34.36627409019788,-3.698451378649724,-1.1131813526153564,0.0017419193176134028,0.016349753740298505,-0.14210880102854156,0.9897144739468817
2024/05/14/15:11:18.053710,28689,1715713878,53421036,map,34.366135736511595,-3.6984717714076027,-1.1131813526153564,0.0017418634544747163,0.01634975969191734,-0.14210541941428023,0.9897149594922844
2024/05/14/15:11:18.073957,28690,1715713878,73614643,map,34.36600923252886,-3.6984960708121815,-1.1131813526153564,0.0017418074038989626,0.01634976566331158,-0.14210202645329,0.9897154466550429
2024/05/14/15:11:18.093679,28691,1715713878,93449466,map,34.365894774955635,-3.698524266795091,-1.1131813526153564,0.0017417511514629534,0.016349771656015782,-0.1420986212724743,0.9897159355603933
2024/05/14/15:11:18.113759,28692,1715713878,113523285,map,34.36573913095315,-3.698534772203269,-1.1078085899353027,0.0017756840016130762,0.016271313149354958,-0.1420971417080265,0.9897173806865933
2024/05/14/15:11:18.133539,28693,1715713878,133265337,map,34.36559880613472,-3.698550342052677,-1.1078085899353027,0.0017756436511533354,0.016271317552739088,-0.14209468735460937,0.9897177330634821
2024/05/14/15:11:18.153287,28694,1715713878,153034142,map,34.36547122515633,-3.698570121342594,-1.1078085899353027,0.0017756028000404135,0.016271322010655585,-0.1420922025482935,0.989718089806232
2024/05/14/15:11:18.173299,28695,1715713878,173051319,map,34.36535440653255,-3.6985934496194104,-1.1078085899353027,0.0017755614744430187,0.01627132652024505,-0.1420896888808069,0.9897184506860917
2024/05/14/15:11:18.193723,28696,1715713878,193505387,map,34.36524881227542,-3.69862040140546,-1.1078085899353027,0.0017755196390706,0.016271331085354723,-0.14208714420556134,0.9897188160110074
2024/05/14/15:11:18.213634,28697,1715713878,213549498,map,34.36512917738635,-3.6986429000776346,-1.1086009740829468,0.0017075363339115672,0.016290660814240528,-0.14208185367521547,0.9897193771701747
2024/05/14/15:11:18.233638,28698,1715713878,233302702,map,34.36502070122645,-3.6986690728474434,-1.1086009740829468,0.0017074687240599574,0.016290667900752783,-0.14207774612019558,0.989719966832694
2024/05/14/15:11:18.253745,28699,1715713878,253421737,map,34.36492151799639,-3.698698300306659,-1.1086009740829468,0.0017074013597610954,0.016290674961245345,-0.14207365348277995,0.9897205543364039
2024/05/14/15:11:18.273852,28700,1715713878,273608544,map,34.36483019037932,-3.698730103401116,-1.1086009740829468,0.001707334230861026,0.01629068199678547,-0.1420695751460843,0.989721139770044
2024/05/14/15:11:18.293637,28701,1715713878,293381717,map,34.36474755217156,-3.6987646830835583,-1.1086009740829468,0.0017072673427750893,0.01629068900680857,-0.14206551143911803,0.9897217230865681
2024/05/14/15:11:18.313753,28702,1715713878,313505469,map,34.364515700670324,-3.6987490245027117,-1.1065696477890015,0.0016899614053978206,0.016331297763045104,-0.14205990440595903,0.9897218883625809
2024/05/14/15:11:18.333623,28703,1715713878,333365953,map,34.36430764230969,-3.6987412647566873,-1.1065696477890015,0.001689877610723456,0.016331306433894133,-0.14205482621602755,0.9897226172481648
2024/05/14/15:11:18.353393,28704,1715713878,353127599,map,34.36411942017734,-3.698740089421753,-1.1065696477890015,0.0016897945109109495,0.01633131503241155,-0.14204979013562322,0.989723340063398
2024/05/14/15:11:18.373486,28705,1715713878,373190474,map,34.36394797757698,-3.6987444792636874,-1.1065696477890015,0.0016897120755158114,0.01633132356175801,-0.1420447943197504,0.9897240570737296
2024/05/14/15:11:18.393536,28706,1715713878,393311889,map,34.36379310253482,-3.698754275960553,-1.1065696477890015,0.0016896303411134943,0.0163313320181596,-0.14203984098500894,0.9897247679616674
2024/05/14/15:11:18.413816,28707,1715713878,413576866,map,34.36380264905491,-3.698823258770739,-1.1090638637542725,0.001787897455427275,0.016214686876077945,-0.14203928728317136,0.9897265926609673
2024/05/14/15:11:18.433550,28708,1715713878,433156303,map,34.363808642140754,-3.6988909940614714,-1.1090638637542725,0.0017878526777956039,0.016214691813379516,-0.14203655410582453,0.9897269849054043
2024/05/14/15:11:18.453593,28709,1715713878,453179554,map,34.363811662532996,-3.698957675527335,-1.1090638637542725,0.0017878074412939363,0.01621469680115023,-0.14203379291930338,0.9897273811616792
2024/05/14/15:11:18.473816,28710,1715713878,473515574,map,34.36381216511752,-3.6990234552766075,-1.1090638637542725,0.0017877617717119163,0.016214701836542757,-0.14203100529777196,0.9897277812036518
2024/05/14/15:11:18.493660,28711,1715713878,493363718,map,34.3638122931221,-3.699088979458149,-1.1090638637542725,0.001787715642031152,0.016214706922532234,-0.14202818959204946,0.9897281852677553
2024/05/14/15:11:18.513418,28712,1715713878,513205629,map,34.36391733321588,-3.699185228784171,-1.1082353591918945,0.0018985908490919102,0.01628102072355195,-0.142025029897912,0.9897273435646226
2024/05/14/15:11:18.534765,28713,1715713878,533877250,map,34.364008352396006,-3.699276730792712,-1.1082353591918945,0.0018985162900577383,0.016281029417987338,-0.14202049743519818,0.9897279939585655
2024/05/14/15:11:18.553876,28714,1715713878,553541392,map,34.36408762890189,-3.6993642451778923,-1.1082353591918945,0.001898442203410878,0.016281038056994157,-0.1420159936884768,0.989728640210872
2024/05/14/15:11:18.573514,28715,1715713878,573291641,map,34.36415694832923,-3.699448368820128,-1.1082353591918945,0.0018983685682320691,0.01628104664301814,-0.1420115173860709,0.9897292825044094
2024/05/14/15:11:18.593276,28716,1715713878,593049498,map,34.36421906154137,-3.699529969550045,-1.1082353591918945,0.0018982954037808756,0.01628105517381991,-0.1420070696987848,0.9897299206715697
2024/05/14/15:11:18.613879,28717,1715713878,613576396,map,34.364233894307084,-3.6995961709506555,-1.1101261377334595,0.0018676553186253394,0.01628949085717698,-0.14200180677224208,0.9897305952756252
2024/05/14/15:11:18.634151,28718,1715713878,633605359,map,34.36424495394858,-3.699661045139109,-1.1101261377334595,0.001867577888108323,0.016289499734709185,-0.14199710218339884,0.9897312702560944
2024/05/14/15:11:18.653437,28719,1715713878,653182475,map,34.3642527747188,-3.699724774749906,-1.1101261377334595,0.0018675009998897864,0.016289508549697025,-0.14199243054334756,0.9897319404867246
2024/05/14/15:11:18.673397,28720,1715713878,673164597,map,34.364257814202624,-3.699787514947204,-1.1101261377334595,0.0018674246311965845,0.01628951730475898,-0.1419877904684312,0.9897326061664926
2024/05/14/15:11:18.693937,28721,1715713878,693269080,map,34.364261837997084,-3.6998498023848585,-1.1101261377334595,0.0018673488114645475,0.016289525996528068,-0.14198318374715044,0.9897332670392806
2024/05/14/15:11:18.713372,28722,1715713878,713157927,map,34.364075819463146,-3.6998539558578107,-1.1096621751785278,0.0017640799811062318,0.01625738389068485,-0.14197804560528657,0.9897347220629144
2024/05/14/15:11:18.734875,28723,1715713878,733538623,map,34.36390839596181,-3.6998642551439036,-1.1096621751785278,0.0017640194473631037,0.01625739045905473,-0.14197436036590672,0.9897352507057343
2024/05/14/15:11:18.753305,28724,1715713878,752994451,map,34.36375639706512,-3.6998796519738053,-1.1096621751785278,0.0017639588623479092,0.016257397032759684,-0.14197067200464986,0.9897357797823616
2024/05/14/15:11:18.773895,28725,1715713878,773642027,map,34.363617413762185,-3.6998993455057962,-1.1096621751785278,0.0017638982321529482,0.01625740361113812,-0.14196698089240864,0.9897363092395599
2024/05/14/15:11:18.794131,28726,1715713878,793799740,map,34.36349152343843,-3.699923284613809,-1.1096621751785278,0.0017638375523269614,0.016257410194672466,-0.14196328675819322,0.9897368391161674
2024/05/14/15:11:18.813612,28727,1715713878,813437924,map,34.36385138021263,-3.700109001011404,-1.1070088148117065,0.001839174053212364,0.016305116926920413,-0.14196055229191556,0.989736309424776
2024/05/14/15:11:18.834167,28728,1715713878,833578928,map,34.364168478649944,-3.7002803584780595,-1.1070088148117065,0.0018391134954525161,0.01630512375756163,-0.1419568763773289,0.9897368366641677
2024/05/14/15:11:18.853491,28729,1715713878,853195388,map,34.3644498424255,-3.700439693939387,-1.1070088148117065,0.0018390529194532669,0.016305130590032284,-0.14195319935517456,0.9897373640484791
2024/05/14/15:11:18.873511,28730,1715713878,873158540,map,34.36470093489337,-3.7005888310576465,-1.1070088148117065,0.0018389923286345154,0.016305137423946466,-0.1419495214330433,0.9897378915479247
2024/05/14/15:11:18.893690,28731,1715713878,893307158,map,34.36492695261252,-3.7007294741617267,-1.1070088148117065,0.0018389317163026732,0.01630514426005892,-0.14194584220462736,0.9897384192207659
2024/05/14/15:11:18.913432,28732,1715713878,913130845,map,34.36476128629733,-3.700738030204583,-1.1109321117401123,0.0015398143938642763,0.016276338712637797,-0.14193582012657713,0.9897408411977047
2024/05/14/15:11:18.933510,28733,1715713878,933171206,map,34.364612141412955,-3.700752034076122,-1.1109321117401123,0.0015397251915933124,0.016276347151324724,-0.14193039586353703,0.9897416190601281
2024/05/14/15:11:18.953489,28734,1715713878,953091125,map,34.36447663874515,-3.700770537177444,-1.1109321117401123,0.0015396367837092625,0.016276355514374615,-0.14192501990460218,0.9897423899656022
2024/05/14/15:11:18.973429,28735,1715713878,973144050,map,34.36435261938721,-3.700792823515372,-1.1109321117401123,0.0015395491346978322,0.016276363805159757,-0.14191969009023594,0.9897431542245874
2024/05/14/15:11:18.994963,28736,1715713878,993546639,map,34.36424009304366,-3.7008188309770507,-1.1109321117401123,0.0015394622852049852,0.016276372019848124,-0.14191440889210016,0.9897439114834451
2024/05/14/15:11:19.013878,28737,1715713879,13267856,map,34.36454263533818,-3.700981881069703,-1.1056265830993652,0.0019169638006513922,0.016280151868943375,-0.141918460030068,0.9897426092715242
2024/05/14/15:11:19.033693,28738,1715713879,33099751,map,34.364809027463984,-3.7011327830387852,-1.1056265830993652,0.0019169324616882543,0.016280155559029345,-0.14191655479551227,0.9897428824598252
2024/05/14/15:11:19.053155,28739,1715713879,52909757,map,34.36504518434452,-3.7012735060618325,-1.1056265830993652,0.001916900395862425,0.016280159334638306,-0.14191460537165257,0.9897431619804803
2024/05/14/15:11:19.073543,28740,1715713879,73226506,map,34.36525571779795,-3.701405590114127,-1.1056265830993652,0.0019168676417585936,0.016280163191222843,-0.1419126141042169,0.9897434474968848
2024/05/14/15:11:19.093375,28741,1715713879,93057653,map,34.365445139173595,-3.7015305110185945,-1.1056265830993652,0.0019168341575383089,0.01628016713370482,-0.1419105784496534,0.9897437393734784
2024/05/14/15:11:19.113653,28742,1715713879,113372446,map,34.3655422761679,-3.701626756767512,-1.1047594547271729,0.0018073277925543551,0.01623752483630645,-0.14190435624730294,0.989745538020495
2024/05/14/15:11:19.133423,28743,1715713879,133150609,map,34.36562647327904,-3.7017186000143734,-1.1047594547271729,0.0018072508721775139,0.01623753339779235,-0.14189966762595752,0.9897462102383032
2024/05/14/15:11:19.153420,28744,1715713879,153151777,map,34.36569971177965,-3.7018067079347383,-1.1047594547271729,0.0018071744279626947,0.016237541905914393,-0.14189500802798968,0.9897468782725095
2024/05/14/15:11:19.173605,28745,1715713879,173318580,map,34.365763602221996,-3.7018916220460514,-1.1047594547271729,0.001807098438480623,0.01623755036306429,-0.14189037614720737,0.9897475423107879
2024/05/14/15:11:19.193597,28746,1715713879,193322832,map,34.36582051165025,-3.701974093860313,-1.1047594547271729,0.0018070229213427063,0.016237558767288586,-0.14188577305711322,0.9897482021996433
2024/05/14/15:11:19.213495,28747,1715713879,213204527,map,34.36562358187604,-3.7019714672547894,-1.1043951511383057,0.0018246660517363643,0.01624771745981237,-0.1418828618595579,0.9897484204492005
2024/05/14/15:11:19.233761,28748,1715713879,233516320,map,34.36544664105112,-3.701975451412348,-1.1043951511383057,0.0018246143268365852,0.016247723268586076,-0.14187971097756408,0.9897488721307383
2024/05/14/15:11:19.253654,28749,1715713879,253091297,map,34.36528626458471,-3.7019849150925936,-1.1043951511383057,0.001824562395069067,0.01624772910042356,-0.14187654749366976,0.9897493256084705
2024/05/14/15:11:19.273616,28750,1715713879,273395444,map,34.365139858089194,-3.7019989963754645,-1.1043951511383057,0.0018245102695907515,0.016247734953845374,-0.1418733722093417,0.9897497807673893
2024/05/14/15:11:19.293515,28751,1715713879,293042641,map,34.36500722233118,-3.7020175570428653,-1.1043951511383057,0.0018244579362221714,0.016247740830441837,-0.14187018426081743,0.9897502377311902
2024/05/14/15:11:19.313284,28752,1715713879,313078904,map,34.36532697702696,-3.702187149314844,-1.1087887287139893,0.0018827528275358742,0.016231252564389367,-0.1418666357511221,0.9897509077250902
2024/05/14/15:11:19.333739,28753,1715713879,333323081,map,34.36560859444361,-3.702343930462971,-1.1087887287139893,0.0018826787167365983,0.01623126116073972,-0.14186211661526715,0.9897515554680466
2024/05/14/15:11:19.353090,28754,1715713879,352988166,map,34.365858329303904,-3.7024899818229002,-1.1087887287139893,0.0018826050384913272,0.016231269706576804,-0.14185762385517514,0.9897521994096022
2024/05/14/15:11:19.373646,28755,1715713879,373420293,map,34.36608105118337,-3.702626928945244,-1.1087887287139893,0.0018825317742352115,0.01623127820405976,-0.14185315633880619,0.9897528397123696
2024/05/14/15:11:19.393258,28756,1715713879,393041866,map,34.366281496624985,-3.7027563217055217,-1.1087887287139893,0.001882458942710385,0.016231286651020624,-0.1418487152090299,0.9897534762129048
2024/05/14/15:11:19.413307,28757,1715713879,413085770,map,34.36598849563894,-3.702719037884069,-1.1064050197601318,0.001859416009696456,0.01630232701894289,-0.14184500641296452,0.989752883734913
2024/05/14/15:11:19.435284,28758,1715713879,433551758,map,34.36572638288006,-3.70269200911896,-1.1064050197601318,0.00185936655283694,0.016302332659833135,-0.14184200376975645,0.9897533140497438
2024/05/14/15:11:19.453222,28759,1715713879,452959381,map,34.36548992219569,-3.702673502787399,-1.1064050197601318,0.0018593168864324161,0.016302338324470454,-0.14183898840430598,0.9897537461784691
2024/05/14/15:11:19.473302,28760,1715713879,473084513,map,34.365275120624084,-3.7026621908193884,-1.1064050197601318,0.00185926702366141,0.016302344011349904,-0.1418359611167093,0.9897541800063132
2024/05/14/15:11:19.493603,28761,1715713879,493481081,map,34.36508079096343,-3.7026575998918574,-1.1064050197601318,0.0018592169503525297,0.01630234972208585,-0.14183292104658424,0.9897546156564584
2024/05/14/15:11:19.513323,28762,1715713879,513070278,map,34.365195842137325,-3.7027603061061063,-1.1110050678253174,0.0018466326669846823,0.016295442786861545,-0.14182841144943314,0.9897553991759296
2024/05/14/15:11:19.535477,28763,1715713879,533576127,map,34.36529563154324,-3.7028578488605848,-1.1110050678253174,0.0018465614101866134,0.016295450861668802,-0.14182408344152558,0.989756019354338
2024/05/14/15:11:19.553515,28764,1715713879,553214587,map,34.36538264710118,-3.702951056990122,-1.1110050678253174,0.0018464904590118883,0.016295458901529312,-0.14181977399605866,0.9897566368536662
2024/05/14/15:11:19.573367,28765,1715713879,573108888,map,34.3654588338492,-3.70304058026621,-1.1110050678253174,0.0018464198010610072,0.016295466907852094,-0.14181548235991648,0.9897572517820709
2024/05/14/15:11:19.594067,28766,1715713879,593823645,map,34.365527165759616,-3.7031273564721254,-1.1110050678253174,0.001846349447604155,0.016295474879364048,-0.1418112092176367,0.9897578640417085
2024/05/14/15:11:19.613515,28767,1715713879,613226342,map,34.36542484951048,-3.7031529178251805,-1.1075835227966309,0.001808118304351211,0.016328997341447903,-0.14180762790698898,0.9897578952559124
2024/05/14/15:11:19.634252,28768,1715713879,633713235,map,34.365331917519065,-3.703181553861245,-1.1075835227966309,0.001808071681109196,0.016329002503996184,-0.14180480190836423,0.989758300146935
2024/05/14/15:11:19.653446,28769,1715713879,653300532,map,34.36524674755969,-3.703212729638604,-1.1075835227966309,0.0018080247963798742,0.01632900769536282,-0.1418019600598096,0.9897587073005304
2024/05/14/15:11:19.673371,28770,1715713879,673148243,map,34.3651681179686,-3.703246039777404,-1.1075835227966309,0.0018079776655554251,0.016329012913841284,-0.141799103294295,0.9897591165828958
2024/05/14/15:11:19.693536,28771,1715713879,693290833,map,34.36509675648951,-3.703281661126794,-1.1075835227966309,0.0018079302705779694,0.016329018161428767,-0.14179623051726434,0.9897595281507097
2024/05/14/15:11:19.713452,28772,1715713879,713191275,map,34.36499778600991,-3.7033083541292364,-1.1079869270324707,0.0018263805539910712,0.016432259918610415,-0.14179295239359324,0.9897582552419291
2024/05/14/15:11:19.733684,28773,1715713879,733264778,map,34.364907753295725,-3.7033379762169276,-1.1079869270324707,0.001826329925726128,0.01643226554566242,-0.14178990291982008,0.9897586921053168
2024/05/14/15:11:19.753355,28774,1715713879,753096394,map,34.36482513938524,-3.7033700251728816,-1.1079869270324707,0.001826279136988545,0.016432271190391406,-0.14178684378005396,0.9897591303438074
2024/05/14/15:11:19.773402,28775,1715713879,773150840,map,34.36474878870805,-3.70340411687979,-1.1079869270324707,0.0018262281974383496,0.016432276851722286,-0.14178377555614097,0.9897595698739594
2024/05/14/15:11:19.793531,28776,1715713879,793323214,map,34.36467956268035,-3.703440468906119,-1.1079869270324707,0.001826177091069857,0.01643228253143241,-0.14178069728401355,0.9897600108337871
2024/05/14/15:11:19.813397,28777,1715713879,813076253,map,34.3646219612818,-3.7034817119813397,-1.1046926975250244,0.0019254794803467553,0.016561027089350262,-0.1417780653733848,0.989758053813909
2024/05/14/15:11:19.833629,28778,1715713879,833396471,map,34.364568615973695,-3.703524319149189,-1.1046926975250244,0.0019254200839075699,0.016561033995011153,-0.14177451558709567,0.9897585622971701
2024/05/14/15:11:19.853416,28779,1715713879,853124718,map,34.36451878685469,-3.703568046779217,-1.1046926975250244,0.0019253607361286165,0.016561040894798974,-0.1417709687086079,0.9897590703509312
2024/05/14/15:11:19.873474,28780,1715713879,873180190,map,34.36447191937575,-3.7036127110586774,-1.1046926975250244,0.001925301436819102,0.016561047788736436,-0.14176742472651976,0.9897595779768577
2024/05/14/15:11:19.893330,28781,1715713879,893029854,map,34.364429293564804,-3.7036586716773683,-1.1046926975250244,0.0019252421825188895,0.016561054677226315,-0.1417638834340393,0.9897600852045999
2024/05/14/15:11:19.913458,28782,1715713879,913168725,map,34.36446858027563,-3.703732222386791,-1.105670690536499,0.001945778896043365,0.01638467734648184,-0.1417605091811741,0.9897634638283197
2024/05/14/15:11:19.933267,28783,1715713879,933001279,map,34.36450127786674,-3.7038035107560536,-1.105670690536499,0.001945703332938688,0.016384686319877908,-0.14175594457469082,0.9897641175908917
2024/05/14/15:11:19.953330,28784,1715713879,953033580,map,34.36452842944562,-3.703872886116631,-1.105670690536499,0.0019456282797865687,0.016384695232365406,-0.14175141077284725,0.9897647669202247
2024/05/14/15:11:19.973456,28785,1715713879,973124776,map,34.36455086612658,-3.7039406270226527,-1.105670690536499,0.001945553714647406,0.016384704086556602,-0.14174690645032878,0.9897654120065528
2024/05/14/15:11:19.993450,28786,1715713879,993198282,map,34.36457071516421,-3.7040073867080623,-1.105670690536499,0.001945479662489554,0.01638471287949357,-0.14174243311543105,0.9897660526342863
2024/05/14/15:11:20.013669,28787,1715713880,13421865,map,34.36452491891919,-3.704056344572938,-1.1108449697494507,0.0015561470397440257,0.01621426709045366,-0.1417359351509644,0.9897704787656538
2024/05/14/15:11:20.033811,28788,1715713880,33579758,map,34.364482030991056,-3.7041062062243113,-1.1108449697494507,0.001556125303665608,0.016214269176535966,-0.1417346083115024,0.989770668769233
2024/05/14/15:11:20.053800,28789,1715713880,53532065,map,34.36444148408077,-3.7041567881364657,-1.1108449697494507,0.0015561025229113563,0.016214271362847657,-0.14173321770160976,0.989770867902798
2024/05/14/15:11:20.073790,28790,1715713880,73545610,map,34.364402881093284,-3.704207960363273,-1.1108449697494507,0.0015560787509013947,0.016214273644257576,-0.14173176658220887,0.9897710756991215
2024/05/14/15:11:20.093242,28791,1715713880,93142036,map,34.36436755854715,-3.704260105245246,-1.1108449697494507,0.001556053925148035,0.01621427602675815,-0.1417302511388387,0.9897712927041435
2024/05/14/15:11:20.113432,28792,1715713880,113105763,map,34.36418182459628,-3.704260737583561,-1.1114273071289062,0.00178004296969412,0.016172809049462295,-0.1417317510180613,0.9897713788788954
2024/05/14/15:11:20.135300,28793,1715713880,133850320,map,34.3640146863403,-3.704267522685072,-1.1114273071289062,0.0017800061590790008,0.01617281310094097,-0.14172949821865297,0.9897717014691643
2024/05/14/15:11:20.153375,28794,1715713880,153074121,map,34.36386301383077,-3.7042794239124497,-1.1114273071289062,0.0017799687607849275,0.01617281721701438,-0.1417272094532821,0.9897720292042309
2024/05/14/15:11:20.173414,28795,1715713880,173181431,map,34.36372441058068,-3.704295643739046,-1.1114273071289062,0.0017799308036954432,0.01617282139449957,-0.14172488648960554,0.9897723618307313
2024/05/14/15:11:20.193244,28796,1715713880,192912920,map,34.36359899560611,-3.7043161418965638,-1.1114273071289062,0.0017798922412685292,0.01617282563851472,-0.141722526479256,0.9897726997562684
2024/05/14/15:11:20.213305,28797,1715713880,212907341,map,34.363482535382026,-3.7043396179862103,-1.1114273071289062,0.0017798532288229637,0.016172829931962292,-0.14172013892769406,0.9897730416195375
2024/05/14/15:11:20.233487,28798,1715713880,233185358,map,34.3637437968262,-3.7044894268152637,-1.11072838306427,0.0017692439677952805,0.016223904052326384,-0.14171495632267098,0.9897729668300437
2024/05/14/15:11:20.253500,28799,1715713880,253262665,map,34.36397459134387,-3.7046289835310966,-1.11072838306427,0.001769166544247309,0.016223912495307306,-0.14171023293791896,0.9897736431092536
2024/05/14/15:11:20.273369,28800,1715713880,273120310,map,34.36417969463676,-3.704759881155025,-1.11072838306427,0.0017690896432518604,0.01622392088093416,-0.1417055414318102,0.9897743148014102
2024/05/14/15:11:20.294255,28801,1715713880,293291722,map,34.36436391858487,-3.7048836864371775,-1.11072838306427,0.0017690132751633355,0.016223929208085457,-0.1417008824360521,0.9897749818165378
2024/05/14/15:11:20.313446,28802,1715713880,313195992,map,34.364152006818394,-3.704875761111199,-1.107193946838379,0.0019462289936809105,0.016321604486869114,-0.14169868983459513,0.9897733572484346
2024/05/14/15:11:20.334701,28803,1715713880,333637520,map,34.363962077859874,-3.7048751124497636,-1.107193946838379,0.0019461554563632026,0.016321613255475025,-0.14169423039056125,0.9897739956645178
2024/05/14/15:11:20.353443,28804,1715713880,353152785,map,34.36379032965021,-3.7048804838723823,-1.107193946838379,0.001946082309813322,0.01632162197715233,-0.1416897946429613,0.9897746306678676
2024/05/14/15:11:20.373348,28805,1715713880,373084255,map,34.363633884826626,-3.7048909191577506,-1.107193946838379,0.0019460095385222917,0.01632163065375548,-0.14168538165130865,0.9897752623934393
2024/05/14/15:11:20.393557,28806,1715713880,393312806,map,34.3634923509502,-3.7049062137683286,-1.107193946838379,0.0019459371628122015,0.016321639282866677,-0.14168099264798142,0.9897758906651349
2024/05/14/15:11:20.413480,28807,1715713880,413309103,map,34.363361446800894,-3.7049250421204847,-1.107193946838379,0.001945865108520858,0.016321647873332866,-0.1416766231356475,0.9897765161270285
2024/05/14/15:11:20.433714,28808,1715713880,433207825,map,34.36366834407529,-3.705088542522429,-1.1100493669509888,0.0016729184696945296,0.016145131418238326,-0.14167028785729457,0.9897808169558111
2024/05/14/15:11:20.453235,28809,1715713880,452923106,map,34.36393963822917,-3.705240072738973,-1.1100493669509888,0.0016728700121081803,0.016145136439219724,-0.1416673171541763,0.9897812421568816
2024/05/14/15:11:20.473335,28810,1715713880,472974979,map,34.36418094811419,-3.7053815071949208,-1.1100493669509888,0.0016728213436618697,0.016145141481901628,-0.14166433352388655,0.9897816691990788
2024/05/14/15:11:20.493347,28811,1715713880,493130663,map,34.364397590716834,-3.705514587785089,-1.1100493669509888,0.0016727724562206302,0.01614514654712496,-0.14166133646770454,0.9897820981536619
2024/05/14/15:11:20.513154,28812,1715713880,512936056,map,34.364143260516435,-3.705487369804266,-1.10699462890625,0.0019232320205927423,0.0162801363416752,-0.14165993098297394,0.9897796331978096
2024/05/14/15:11:20.533580,28813,1715713880,533182525,map,34.363916047743174,-3.705469150184548,-1.10699462890625,0.0019231563386502642,0.016280145282081365,-0.14165532976538922,0.9897802917255679
2024/05/14/15:11:20.553324,28814,1715713880,553035456,map,34.36371127775723,-3.7054583820026337,-1.10699462890625,0.0019230812431796735,0.016280154152854248,-0.1416507642028722,0.9897809451287866
2024/05/14/15:11:20.573383,28815,1715713880,573092823,map,34.36352539964187,-3.7054538842097466,-1.10699462890625,0.0019230067081546305,0.01628016295707629,-0.14164623271311724,0.9897815936344103
2024/05/14/15:11:20.593326,28816,1715713880,593062525,map,34.36335745228579,-3.705455263389477,-1.10699462890625,0.0019229327617314145,0.016280171691429635,-0.14164173700794766,0.9897822369979483
2024/05/14/15:11:20.613448,28817,1715713880,613182774,map,34.36336938499423,-3.705522640043169,-1.1084697246551514,0.0018151549926534918,0.01628777566499307,-0.1416364817093146,0.9897830674573326
2024/05/14/15:11:20.633765,28818,1715713880,633467699,map,34.36337763951548,-3.705588724767631,-1.1084697246551514,0.001815096977153023,0.01628778213029709,-0.1416329561964126,0.9897835719465669
2024/05/14/15:11:20.653223,28819,1715713880,652958133,map,34.36338278520475,-3.7056537094455573,-1.1084697246551514,0.0018150389245134954,0.01628778859953051,-0.14162942842622914,0.9897840767459837
2024/05/14/15:11:20.673322,28820,1715713880,673097870,map,34.3633852846597,-3.705717749716739,-1.1084697246551514,0.0018149808400295432,0.016287795072102942,-0.14162589872051032,0.9897845818095204
2024/05/14/15:11:20.693561,28821,1715713880,693335975,map,34.36338713250592,-3.705781447581636,-1.1084697246551514,0.0018149227205055106,0.01628780154837012,-0.14162236688506027,0.9897850871649425
2024/05/14/15:11:20.713262,28822,1715713880,713047887,map,34.36342954572428,-3.7058541228601656,-1.108740210533142,0.0018277691451130747,0.01620647518370452,-0.14162009983759846,0.9897867228570308
2024/05/14/15:11:20.733749,28823,1715713880,733205280,map,34.36346505843395,-3.705924432615332,-1.108740210533142,0.0018277217352541722,0.016206480530526583,-0.14161720434981215,0.9897871371432424
2024/05/14/15:11:20.753296,28824,1715713880,753109100,map,34.36349476659615,-3.705992744034407,-1.108740210533142,0.0018276741333525667,0.01620648589886567,-0.14161429713304038,0.9897875530989402
2024/05/14/15:11:20.773707,28825,1715713880,773356735,map,34.36351954358228,-3.7060593499068837,-1.108740210533142,0.0018276263509113464,0.016206491287422835,-0.14161137888981454,0.9897879706235055
2024/05/14/15:11:20.793544,28826,1715713880,793351183,map,34.363541484653354,-3.706124895097738,-1.108740210533142,0.0018275783720325266,0.016206496697989257,-0.14160844864918515,0.9897883898557526
2024/05/14/15:11:20.813682,28827,1715713880,813478069,map,34.36344874951396,-3.7061515397390634,-1.105799913406372,0.0019835484918746733,0.016204692647994904,-0.1416067388994067,0.9897883637272361
2024/05/14/15:11:20.833434,28828,1715713880,833171814,map,34.363364423155,-3.7061809349268002,-1.105799913406372,0.001983480757658887,0.016204700938912613,-0.14160260166934854,0.9897889556223772
2024/05/14/15:11:20.853403,28829,1715713880,853178587,map,34.36328704399129,-3.7062125989662738,-1.105799913406372,0.0019834134070497375,0.016204709182590527,-0.14159848786976628,0.9897895441479264
2024/05/14/15:11:20.873863,28830,1715713880,873658237,map,34.363215513691024,-3.7062461675452774,-1.105799913406372,0.0019833464236306275,0.01620471738104278,-0.14159439649793415,0.9897901294476269
2024/05/14/15:11:20.893333,28831,1715713880,893069604,map,34.36315059765785,-3.7062818317819977,-1.105799913406372,0.00198327982354062,0.016204725532298753,-0.1415903285396379,0.9897907113807453
2024/05/14/15:11:20.913377,28832,1715713880,913180824,map,34.363276956375806,-3.706387417215782,-1.1066467761993408,0.0018279249730905921,0.016230763011706017,-0.1415847790618383,0.9897913776955026
2024/05/14/15:11:20.935325,28833,1715713880,933170565,map,34.363386259376,-3.7064872312541555,-1.1066467761993408,0.0018278757070523224,0.01623076856002144,-0.14158177469894365,0.9897918074501568
2024/05/14/15:11:20.953388,28834,1715713880,953100124,map,34.36348132599037,-3.706582216891979,-1.1066467761993408,0.001827826169072378,0.016230774138810095,-0.14157875375210419,0.9897922395676538
2024/05/14/15:11:20.973493,28835,1715713880,973176757,map,34.36356437186783,-3.706673116107117,-1.1066467761993408,0.001827776376818432,0.01623077974607988,-0.14157571729873333,0.98979267389373
2024/05/14/15:11:20.993180,28836,1715713880,992953433,map,34.36363861978532,-3.7067609492409432,-1.1066467761993408,0.0018277262962176448,0.01623078538566532,-0.14157266326098122,0.9897931107254403
2024/05/14/15:11:21.013505,28837,1715713881,13300985,map,34.3641529710566,-3.706993802752565,-1.1088242530822754,0.001817887988324523,0.016319959692152025,-0.1415689622684855,0.9897921918873337
2024/05/14/15:11:21.033415,28838,1715713881,33146481,map,34.36460599461557,-3.707206094260112,-1.1088242530822754,0.001817836815314747,0.016319965392256438,-0.14156585866719118,0.989792635787279
2024/05/14/15:11:21.053665,28839,1715713881,53455557,map,34.36500799210979,-3.707401250386395,-1.1088242530822754,0.0018177854888558772,0.016319971109290187,-0.1415627457590252,0.9897930810083863
2024/05/14/15:11:21.073870,28840,1715713881,73524695,map,34.36536692777227,-3.707581928976193,-1.1088242530822754,0.0018177340189242425,0.016319976842140645,-0.1415596241490412,0.9897935274640315
2024/05/14/15:11:21.093712,28841,1715713881,93409228,map,34.36568931988362,-3.70775030146875,-1.1088242530822754,0.0018176823781732225,0.016319982593852235,-0.1415564921786857,0.9897939753913306
2024/05/14/15:11:21.113333,28842,1715713881,113025036,map,34.36534196248724,-3.707694213000553,-1.1097880601882935,0.0018001858716885579,0.016251892633326357,-0.1415526878709953,0.9897956717793621
2024/05/14/15:11:21.133893,28843,1715713881,133627198,map,34.3650325069969,-3.7076506995500993,-1.1097880601882935,0.0018001224163257776,0.016251899662009857,-0.14154882322280923,0.9897962244628435
2024/05/14/15:11:21.153431,28844,1715713881,153134794,map,34.36475428392669,-3.7076175627319836,-1.1097880601882935,0.001800059163638229,0.01625190666799427,-0.14154497091775242,0.9897967753658096
2024/05/14/15:11:21.173582,28845,1715713881,173258012,map,34.364502299538906,-3.7075931458985516,-1.1097880601882935,0.001799996105228982,0.01625191365221201,-0.14154113044442757,0.9897973245615365
2024/05/14/15:11:21.194108,28846,1715713881,193803280,map,34.3642749404108,-3.7075768227224786,-1.1097880601882935,0.0017999332522840193,0.016251920613426493,-0.14153730248410393,0.9897978719527465
2024/05/14/15:11:21.213595,28847,1715713881,213253665,map,34.364076154212555,-3.7075720016361857,-1.112276554107666,0.0016577112925370155,0.016248362578599965,-0.14153143258302664,0.989799018133369
2024/05/14/15:11:21.233524,28848,1715713881,233268447,map,34.36389760864355,-3.7075738815027774,-1.112276554107666,0.0016576512876263767,0.016248368700385988,-0.141527777272786,0.9897995407995548
2024/05/14/15:11:21.253251,28849,1715713881,253000904,map,34.36373585649267,-3.707581321347807,-1.112276554107666,0.0016575913503173675,0.01624837481505167,-0.14152412608007184,0.9898000628632314
2024/05/14/15:11:21.273121,28850,1715713881,272882999,map,34.36358827137457,-3.707593447496148,-1.112276554107666,0.0016575314802431034,0.0162483809226352,-0.14152047898253636,0.9898005843276404
2024/05/14/15:11:21.293226,28851,1715713881,292935690,map,34.36345539458827,-3.7076103369102493,-1.112276554107666,0.0016574716782054239,0.01624838702305553,-0.14151683602902712,0.9898011051858441
2024/05/14/15:11:21.313448,28852,1715713881,313222748,map,34.363332079143234,-3.707630418797232,-1.112276554107666,0.00165741194111336,0.01624839311662871,-0.14151319703125376,0.9898016254648092
2024/05/14/15:11:21.333810,28853,1715713881,333596978,map,34.3634202117097,-3.707717903489547,-1.1067794561386108,0.0018214507875190262,0.016273474980386237,-0.14151325465646036,0.9898009168947194
2024/05/14/15:11:21.353293,28854,1715713881,353023855,map,34.36349660959493,-3.7078014103126247,-1.1067794561386108,0.00182141111300439,0.016273479421009956,-0.14151084153495452,0.9898012618991554
2024/05/14/15:11:21.373350,28855,1715713881,373123157,map,34.363563129544424,-3.70788155817319,-1.1067794561386108,0.001821371045528894,0.01627348390551696,-0.14150840451221977,0.9898016103146617
2024/05/14/15:11:21.394020,28856,1715713881,393769931,map,34.36362293954093,-3.707959336732521,-1.1067794561386108,0.0018213305502287132,0.01627348843780626,-0.1415059414677291,0.9898019624442169
2024/05/14/15:11:21.413610,28857,1715713881,413373884,map,34.36362436429689,-3.7080178257164467,-1.1061925888061523,0.0018727747427302098,0.016293645912169957,-0.14150225112401854,0.9898020624066647
2024/05/14/15:11:21.433955,28858,1715713881,433734647,map,34.363623563148565,-3.708075507258919,-1.1061925888061523,0.00187270287191867,0.016293654172765806,-0.14149788513483058,0.9898026865593071
2024/05/14/15:11:21.453731,28859,1715713881,453334508,map,34.36362081814368,-3.70813248016936,-1.1061925888061523,0.001872631490774981,0.0162936623767629,-0.14149354889132248,0.9898033064401182
2024/05/14/15:11:21.473369,28860,1715713881,473108482,map,34.36361639135018,-3.708188834386746,-1.1061925888061523,0.0018725605754519466,0.01629367052690842,-0.14148924094484158,0.9898039222565771
2024/05/14/15:11:21.494095,28861,1715713881,493920114,map,34.36361224761237,-3.7082451577925437,-1.1061925888061523,0.0018724901663068605,0.016293678618570614,-0.14148496374701355,0.98980453365862
2024/05/14/15:11:21.513466,28862,1715713881,513220550,map,34.36347925426222,-3.7082626513629764,-1.1167469024658203,0.0015769335635035999,0.01607957495182429,-0.14147808897671507,0.9898095326321128
2024/05/14/15:11:21.533976,28863,1715713881,533612337,map,34.36335920119312,-3.708284398617501,-1.1167469024658203,0.0015768788814193332,0.01607958031443523,-0.1414747229143308,0.9898100137532547
2024/05/14/15:11:21.553284,28864,1715713881,552981593,map,34.36324980071664,-3.708309646671645,-1.1167469024658203,0.0015768241247805627,0.016079585684169517,-0.141471352262084,0.9898104955187342
2024/05/14/15:11:21.574096,28865,1715713881,573813794,map,34.36314934812764,-3.708337830614724,-1.1167469024658203,0.001576769301340351,0.016079591060266112,-0.14146797749722756,0.9898109778602927
2024/05/14/15:11:21.593974,28866,1715713881,593780389,map,34.36305874715971,-3.70836916434733,-1.1167469024658203,0.00157671439968679,0.016079596443843346,-0.1414645979172771,0.9898114608782865
2024/05/14/15:11:21.613411,28867,1715713881,613086948,map,34.36360309935897,-3.708613038839639,-1.1179481744766235,0.001370443729882288,0.015641736439604467,-0.14146108844034205,0.9898192857397813
2024/05/14/15:11:21.633266,28868,1715713881,633010299,map,34.364083580020655,-3.708835513574404,-1.1179481744766235,0.0013704013751609778,0.015641740150436616,-0.1414584082057469,0.98981966878469
2024/05/14/15:11:21.653255,28869,1715713881,653027296,map,34.36451084716676,-3.7090401272768294,-1.1179481744766235,0.0013703586632262128,0.015641743892448337,-0.14145570536604313,0.9898200550527011
2024/05/14/15:11:21.673652,28870,1715713881,673366307,map,34.364893121285114,-3.709229620206649,-1.1179481744766235,0.001370315615148695,0.015641747663790756,-0.14145298125458894,0.9898204443530786
2024/05/14/15:11:21.693948,28871,1715713881,693686191,map,34.365237298619384,-3.7094062814879543,-1.1179481744766235,0.0013702721839610695,0.015641751468575587,-0.14145023289924788,0.989820837110376
2024/05/14/15:11:21.713569,28872,1715713881,713367224,map,34.36635658135442,-3.7098401189558783,-1.1202627420425415,0.0013656560962153521,0.015308993244845354,-0.14144919435635114,0.989826194402429
2024/05/14/15:11:21.734384,28873,1715713881,733810396,map,34.36734780293332,-3.7102310913085947,-1.1202627420425415,0.0013656141264835556,0.015308996988744867,-0.14144648073944,0.9898265821828001
2024/05/14/15:11:21.753634,28874,1715713881,753409299,map,34.368232150113734,-3.7105862399214327,-1.1202627420425415,0.0013655718887855101,0.015309000756431155,-0.14144374979635974,0.9898269724314452
2024/05/14/15:11:21.773825,28875,1715713881,773537960,map,34.36902603457103,-3.7109110388977813,-1.1202627420425415,0.0013655293985309024,0.015309004546527467,-0.14144100252343972,0.9898273650058481
2024/05/14/15:11:21.793693,28876,1715713881,793458930,map,34.36974045477938,-3.7112092478390117,-1.1202627420425415,0.0013654866150949463,0.015309008362655217,-0.14143823629401392,0.989827760281199
2024/05/14/15:11:21.813688,28877,1715713881,813495556,map,34.3703888128419,-3.711485229293343,-1.1202627420425415,0.0013654436477217543,0.01530901219506821,-0.14143545817142306,0.9898281572480628
2024/05/14/15:11:21.838202,28878,1715713881,833650053,map,34.37230052547816,-3.712184430111083,-1.1172233819961548,0.0013016323882324818,0.015172132757793035,-0.14143205918486176,0.9898308364440035
2024/05/14/15:11:21.853362,28879,1715713881,853119852,map,34.374003181714826,-3.7128136359079495,-1.1172233819961548,0.0013015838219437082,0.015172136924265042,-0.1414288907170267,0.9898312891656119
2024/05/14/15:11:21.873401,28880,1715713881,873172508,map,34.37552975756569,-3.7133838354232385,-1.1172233819961548,0.0013015351934273873,0.015172141095918605,-0.1414257181888822,0.989831742457002
2024/05/14/15:11:21.893382,28881,1715713881,893102397,map,34.383016478095286,-3.71566960613887,-1.1172233819961548,0.0013016065103183246,0.015172134977862847,-0.14143037090813287,0.9898310776720913
2024/05/14/15:11:21.913277,28882,1715713881,913091008,map,34.39081123325163,-3.7181239526964918,-1.1121647357940674,0.0013887950904919847,0.015275691298161047,-0.1414320204667423,0.9898291307545232
2024/05/14/15:11:21.934566,28883,1715713881,934209575,map,34.39750984917876,-3.7202410467349933,-1.1121647357940674,0.001388800364033197,0.015275690818714192,-0.14143236217989721,0.9898290819286805
2024/05/14/15:11:21.953401,28884,1715713881,953218494,map,34.40353086028525,-3.7221474467542985,-1.1121647357940674,0.001388802571749718,0.015275690617997903,-0.14143250523477013,0.9898290614881827
2024/05/14/15:11:21.973517,28885,1715713881,973273756,map,34.409086617614996,-3.723907816441418,-1.1121647357940674,0.0013888031251138894,0.015275690567688311,-0.14143254109147554,0.9898290563647684
2024/05/14/15:11:21.993602,28886,1715713881,993333240,map,34.41947710002292,-3.7270582741984892,-1.1121647357940674,0.0013888958152784674,0.015275682140395229,-0.14143854719661794,0.9898281981588876
2024/05/14/15:11:22.013613,28887,1715713882,13388879,map,34.4282371867816,-3.7297312014134194,-1.1121647357940674,0.001388926187090462,0.01527567937889841,-0.14144051521834763,0.9898279169422977
2024/05/14/15:11:22.033453,28888,1715713882,33141782,map,34.4378036585706,-3.7327022789930897,-1.1189289093017578,0.0012350479872709637,0.015249731657724535,-0.1414430500905705,0.9898281587840957
2024/05/14/15:11:22.053869,28889,1715713882,53303312,map,34.44658430562723,-3.735427828929831,-1.1189289093017578,0.0012351167924106992,0.015249726085165368,-0.14144751608753336,0.9898275205981614
2024/05/14/15:11:22.073492,28890,1715713882,73264059,map,34.454824035496,-3.7379828812059315,-1.1189289093017578,0.0012351837542520637,0.015249720661595731,-0.14145186243867655,0.9898268994897371
2024/05/14/15:11:22.094057,28891,1715713882,93342533,map,34.46774005172067,-3.7418816698850175,-1.1189289093017578,0.001235337942409618,0.015249708172011394,-0.14146187046056433,0.9898254692351752
2024/05/14/15:11:22.113416,28892,1715713882,113204453,map,34.478977758687826,-3.7452868106821495,-1.1189289093017578,0.001235432838067296,0.015249700484471588,-0.1414680299306169,0.989824588928961
2024/05/14/15:11:22.133492,28893,1715713882,133230610,map,34.490542539388045,-3.7488364743477867,-1.1197912693023682,0.001238646902220318,0.015228970623128465,-0.1414882240201074,0.9898220176735045
2024/05/14/15:11:22.153468,28894,1715713882,153258075,map,34.50133549364705,-3.7521456535468687,-1.1197912693023682,0.0012389504194337624,0.015228945933539675,-0.14150795140967315,0.9898191975787543
2024/05/14/15:11:22.173323,28895,1715713882,173165199,map,34.51160105736251,-3.7552892621398155,-1.1197912693023682,0.0012392503215617374,0.015228921532038928,-0.14152744380953347,0.9898164106824815
2024/05/14/15:11:22.193748,28896,1715713882,193416240,map,34.52457732548011,-3.7592098986928955,-1.1197912693023682,0.001239618396973026,0.015228891575501344,-0.1415513671589607,0.9898129897425275
2024/05/14/15:11:22.213118,28897,1715713882,212893990,map,34.536331127993805,-3.7627693263538533,-1.1197912693023682,0.0012399368029661732,0.015228865654182511,-0.14157206217694554,0.9898100299646284
2024/05/14/15:11:22.235559,28898,1715713882,233385394,map,34.54808858798256,-3.766354882984591,-1.1163970232009888,0.000989848783548703,0.015349634975862624,-0.1416093198986822,0.9898031164950565
2024/05/14/15:11:22.253538,28899,1715713882,253343288,map,34.55928030119723,-3.769764477431359,-1.1163970232009888,0.0009904874661356173,0.015349593775926002,-0.1416505045250574,0.9897972234115886
2024/05/14/15:11:22.273479,28900,1715713882,273220972,map,34.570081550904845,-3.773051971105627,-1.1163970232009888,0.0009911210923238183,0.015349552875796379,-0.14169136296298798,0.989791375274196
2024/05/14/15:11:22.293555,28901,1715713882,293338559,map,34.58364264548364,-3.777133601727641,-1.1163970232009888,0.000991806170416795,0.015349508624931325,-0.1417355390509941,0.9897850503394249
2024/05/14/15:11:22.313499,28902,1715713882,313268565,map,34.59712889847472,-3.7812505055592305,-1.1210651397705078,0.0011049228174497808,0.015394951872338195,-0.14181524481295132,0.9897728077397654
2024/05/14/15:11:22.333488,28903,1715713882,333232237,map,34.609837569201396,-3.785129749252958,-1.1210651397705078,0.0011061281552706699,0.015394865315690422,-0.14189273821919599,0.9897617013418303
2024/05/14/15:11:22.353188,28904,1715713882,352927529,map,34.622057174681615,-3.7888589267869808,-1.1210651397705078,0.0011073241059341857,0.015394779339391245,-0.1419696276788472,0.9897506753820102
2024/05/14/15:11:22.373334,28905,1715713882,372965552,map,34.63393583455719,-3.792483357589292,-1.1210651397705078,0.0011085117844196423,0.015394693865352868,-0.1420459848850517,0.9897397197144568
2024/05/14/15:11:22.393281,28906,1715713882,393114818,map,34.64781939517149,-3.7966865821047246,-1.1210651397705078,0.0011097460741938245,0.015394604939229258,-0.1421253383378486,0.9897283277772583
2024/05/14/15:11:22.413306,28907,1715713882,413124682,map,34.661874233362,-3.801003913354276,-1.1226729154586792,0.0012697323489578912,0.015247186545435719,-0.14224638188140648,0.989713028066146
2024/05/14/15:11:22.433521,28908,1715713882,433302723,map,34.67527895606594,-3.805123808316045,-1.1226729154586792,0.0012715325108038674,0.015247036527249317,-0.14236323211266444,0.9896962267406331
2024/05/14/15:11:22.453427,28909,1715713882,453201246,map,34.68826339021818,-3.8091162089914405,-1.1226729154586792,0.0012733192671294784,0.015246887414592625,-0.14247921135406613,0.9896795367259718
2024/05/14/15:11:22.473477,28910,1715713882,473296088,map,34.70094779141523,-3.813018048325358,-1.1226729154586792,0.001275093874875274,0.01524673910708653,-0.14259440121185338,0.9896629465758754
2024/05/14/15:11:22.493412,28911,1715713882,493208644,map,34.71680654341647,-3.8178420390530565,-1.1226729154586792,0.0012769574143115339,0.015246583143489591,-0.14271536275667437,0.9896455104305996
2024/05/14/15:11:22.513185,28912,1715713882,513014056,map,34.73271495704075,-3.82276583837071,-1.1268391609191895,0.001479029637598908,0.015345385571793038,-0.14288692772244713,0.9896189456043291
2024/05/14/15:11:22.534502,28913,1715713882,533316471,map,34.747853162216074,-3.827459201029531,-1.1268391609191895,0.0014816256657890535,0.015345135137963596,-0.1430543440598577,0.9895947586050503
2024/05/14/15:11:22.553276,28914,1715713882,552891122,map,34.76250608462425,-3.8320086121191452,-1.1268391609191895,0.001484200662319466,0.015344886295110183,-0.14322040273469563,0.9895707391861865
2024/05/14/15:11:22.573271,28915,1715713882,572968348,map,34.77681987120223,-3.8364587618124584,-1.1268391609191895,0.0014867566882407492,0.015344638854201204,-0.14338523669294742,0.9895468687795901
2024/05/14/15:11:22.593423,28916,1715713882,593225491,map,34.793499731475656,-3.841603608242692,-1.1268391609191895,0.0014894351123532399,0.015344379103175832,-0.14355796249728,0.9895218254372228
2024/05/14/15:11:22.613590,28917,1715713882,613390128,map,34.80918989882487,-3.8464950968030602,-1.1296125650405884,0.0018911964085981921,0.01539282635468501,-0.1437751666073088,0.9894888507406231
2024/05/14/15:11:22.639802,28918,1715713882,633688179,map,34.82430768846996,-3.85122198150695,-1.1296125650405884,0.0018944519027592674,0.015392426028066918,-0.1439844373063698,0.9894584205950882
2024/05/14/15:11:22.653373,28919,1715713882,653076534,map,34.839082569104434,-3.855853622625192,-1.1296125650405884,0.0018976796906940683,0.015392028418402409,-0.14419192600445205,0.9894282049487395
2024/05/14/15:11:22.673449,28920,1715713882,673243155,map,34.853628381073655,-3.8604245566424114,-1.1296125650405884,0.0019008823536902527,0.015391633224541477,-0.14439779865582048,0.9893981807221557
2024/05/14/15:11:22.695398,28921,1715713882,693400222,map,34.87127832416827,-3.865917433699625,-1.1296125650405884,0.0019042203576118825,0.015391220610173728,-0.14461237022994855,0.9893668412926697
2024/05/14/15:11:22.713948,28922,1715713882,713682737,map,34.88795243177846,-3.871133781080645,-1.1296125650405884,0.0019074318953426312,0.015390822934658488,-0.14481881139404196,0.989336644494368
2024/05/14/15:11:22.734158,28923,1715713882,733803305,map,34.90491184196605,-3.8765383697543605,-1.127937912940979,0.0017957960514591736,0.015474098176906221,-0.1450823033538935,0.9892969486739974
2024/05/14/15:11:22.753392,28924,1715713882,753179945,map,34.92144279623959,-3.8818238249925203,-1.127937912940979,0.0017999110867268242,0.015473620065351438,-0.14534538655415655,0.9892583312813573
2024/05/14/15:11:22.773489,28925,1715713882,773214239,map,34.93768648354676,-3.8870334576043604,-1.127937912940979,0.0018039896861274086,0.01547314509268606,-0.14560613821708818,0.9892199856026257
2024/05/14/15:11:22.793467,28926,1715713882,793178572,map,34.95688949129144,-3.8931331647978973,-1.127937912940979,0.0018081201081811661,0.01547266297446434,-0.14587020084491867,0.9891810814545615
2024/05/14/15:11:22.813344,28927,1715713882,813081569,map,34.975080750066574,-3.8989464188176197,-1.127937912940979,0.0018121596976473212,0.015472190377486685,-0.14612845435420901,0.9891429634942579
2024/05/14/15:11:22.834410,28928,1715713882,833653807,map,34.99334763040446,-3.9048931423882958,-1.1394215822219849,0.0016585221656931462,0.015532374025388644,-0.1464441489356062,0.9890955999820681
2024/05/14/15:11:22.853774,28929,1715713882,853233574,map,35.01118145169358,-3.910722459680462,-1.1394215822219849,0.001663468892198996,0.015531845025087958,-0.1467591525049102,0.9890489097195354
2024/05/14/15:11:22.873420,28930,1715713882,873092770,map,35.028725440589604,-3.9164785172687973,-1.1394215822219849,0.0016683656993570395,0.015531319793625788,-0.14707097317097997,0.9890025902452946
2024/05/14/15:11:22.893376,28931,1715713882,893023621,map,35.05102522669837,-3.923675327234,-1.1394215822219849,0.0016733527945820004,0.015530783272698384,-0.1473885390614379,0.9889553140636316
2024/05/14/15:11:22.913322,28932,1715713882,913116910,map,35.07254717341167,-3.930745628640832,-1.1411664485931396,0.0017400978139574693,0.015503089641045128,-0.14774402843272316,0.988902587889045
2024/05/14/15:11:22.934068,28933,1715713882,933754626,map,35.093173558838636,-3.9375609232843214,-1.1411664485931396,0.0017455786703972106,0.015502473477670415,-0.1480936360037884,0.9888502926360274
2024/05/14/15:11:22.953704,28934,1715713882,953463342,map,35.113280172124334,-3.9442364881354397,-1.1411664485931396,0.0017509925894770824,0.015501862912953933,-0.14843896932959894,0.9887985126685547
2024/05/14/15:11:22.973409,28935,1715713882,973139612,map,35.133050111340914,-3.950828507516493,-1.1411664485931396,0.0017563433655994388,0.015501257587774457,-0.14878027060171214,0.9887472161027109
2024/05/14/15:11:22.993654,28936,1715713882,993421374,map,35.15754790643591,-3.9588742381305453,-1.1411664485931396,0.0017617158233354598,0.015500647927690951,-0.14912295043801987,0.9886955911319921
2024/05/14/15:11:23.013690,28937,1715713883,13389121,map,35.1805597544619,-3.966494726433803,-1.1411664485931396,0.0017669744293089685,0.015500049360779098,-0.14945836401432414,0.9886449431911041
2024/05/14/15:11:23.034203,28938,1715713883,33488765,map,35.20363430507898,-3.9743473681690986,-1.155361533164978,0.001986120861990752,0.0150406582423782,-0.14989374931678112,0.9885857058643502
2024/05/14/15:11:23.053449,28939,1715713883,53150271,map,35.22611287806949,-3.9820404331442343,-1.155361533164978,0.0019925669317388396,0.015039805632553735,-0.15031743194942074,0.9885213723413819
2024/05/14/15:11:23.073429,28940,1715713883,73126683,map,35.24820347150023,-3.989638520896625,-1.155361533164978,0.001998921644653582,0.015038962354530633,-0.15073510646616553,0.9884577692558196
2024/05/14/15:11:23.093456,28941,1715713883,93248670,map,35.27594676343731,-3.9989998205701203,-1.155361533164978,0.0020053081469952583,0.015038112104850416,-0.15115486691664243,0.9883936665777305
2024/05/14/15:11:23.113410,28942,1715713883,113128055,map,35.3028482145776,-4.0083036689621165,-1.165305256843567,0.0019799494296997458,0.014056825037751455,-0.15164418213378936,0.9883332067147639
2024/05/14/15:11:23.133764,28943,1715713883,133501268,map,35.328635621631044,-4.017289533392425,-1.165305256843567,0.0019867192869407664,0.014055869818727766,-0.15212016831319547,0.9882600567980471
2024/05/14/15:11:23.153542,28944,1715713883,153293682,map,35.35377627638962,-4.026103122890695,-1.165305256843567,0.0019933680034762485,0.014054928455486412,-0.15258763432635358,0.9881879878448235
2024/05/14/15:11:23.173942,28945,1715713883,173323345,map,35.37849772213878,-4.034815244262004,-1.165305256843567,0.0019999015748049936,0.014054000269575104,-0.1530470018598732,0.9881169468700647
2024/05/14/15:11:23.193411,28946,1715713883,193191485,map,35.40947238682466,-4.045509558993266,-1.165305256843567,0.0020064755945444993,0.01405306320965724,-0.15350921055957115,0.9880452457977273
2024/05/14/15:11:23.214020,28947,1715713883,213721338,map,35.4387866217621,-4.055773902806293,-1.1682807207107544,0.002086080001970598,0.013759796757218426,-0.15397753789127502,0.9879763327572004
2024/05/14/15:11:23.233748,28948,1715713883,233490255,map,35.46696578010885,-4.065710935108366,-1.1682807207107544,0.0020924210304167053,0.013758833918833755,-0.15443283385335135,0.9879052667596466
2024/05/14/15:11:23.253903,28949,1715713883,253676666,map,35.49450946335931,-4.075477535224004,-1.1682807207107544,0.0020986255366113836,0.013757888916242307,-0.15487832643769253,0.987835522879839
2024/05/14/15:11:23.274553,28950,1715713883,273588036,map,35.52165662012743,-4.085148428747546,-1.1682807207107544,0.0021047010800030494,0.013756960781306834,-0.15531455847829753,0.9877670293080837
2024/05/14/15:11:23.293420,28951,1715713883,293233845,map,35.55606275711047,-4.097153418817543,-1.1682807207107544,0.0021108234985273695,0.013756022707623198,-0.15575415538777596,0.9876978077037865
2024/05/14/15:11:23.313256,28952,1715713883,313054337,map,35.58874745491294,-4.108712649134588,-1.1821173429489136,0.0023228155839515536,0.0130425343766549,-0.15620067166093793,0.9876364953754335
2024/05/14/15:11:23.335195,28953,1715713883,334070296,map,35.62018406306302,-4.119901363878092,-1.1821173429489136,0.0023284759250428847,0.013041525028529781,-0.15662929875645584,0.9875686100701347
2024/05/14/15:11:23.353410,28954,1715713883,353171387,map,35.650934338174196,-4.130898250408454,-1.1821173429489136,0.0023339895634757113,0.013040539402987111,-0.1570468204180311,0.9875023002613126
2024/05/14/15:11:23.374001,28955,1715713883,373751347,map,35.68126488938311,-4.141787741100706,-1.1821173429489136,0.002339365678003413,0.013039576044789671,-0.15745393143750328,0.9874374695643622
2024/05/14/15:11:23.393608,28956,1715713883,393419423,map,35.71808989669009,-4.15480077831618,-1.1821173429489136,0.002344750128122411,0.013038608899723273,-0.15786167703302437,0.987372365295443
2024/05/14/15:11:23.413408,28957,1715713883,413183621,map,35.75288640294517,-4.167194645781877,-1.1821173429489136,0.002349914346890206,0.013037679155645479,-0.15825274843383505,0.9873097611377769
2024/05/14/15:11:23.439547,28958,1715713883,434522976,map,35.787039641138804,-4.179475146569316,-1.1807225942611694,0.0027094489101323,0.012651755023454551,-0.15865678729313648,0.9872490140928226
2024/05/14/15:11:23.453427,28959,1715713883,453222566,map,35.820516405746005,-4.19155700856761,-1.1807225942611694,0.002714393612726814,0.012650695075185096,-0.15904263919632056,0.9871869280429614
2024/05/14/15:11:23.473510,28960,1715713883,473243456,map,35.85358308391461,-4.203526190860565,-1.1807225942611694,0.002719190443666676,0.012649664892841882,-0.15941695987738655,0.9871265495795772
