time,.header.seq,.header.stamp.secs,.header.stamp.nsecs,.header.frame_id,.orientation.x,.orientation.y,.orientation.z,.orientation.w,.orientation_covariance,.angular_velocity.x,.angular_velocity.y,.angular_velocity.z,.angular_velocity_covariance,.linear_acceleration.x,.linear_acceleration.y,.linear_acceleration.z,.linear_acceleration_covariance
2024/05/14/15:11:17.638150,59419,1715713877,635543099,gps,0.01661803532786938,-0.010423628018823666,-0.9446482001462573,0.3274980409730772,"(0.00017580797532057782, 0.0, 0.0, 0.0, 0.00017772223423043274, 0.0, 0.0, 0.0, 0.001426820501442952)",-0.0007461460417128295,-0.0003444551458312715,-3.0250699441131725e-05,"(0.001, 0.0, 0.0, 0.0, 0.001, 0.0, 0.0, 0.0, 0.001)",0.009581358054935565,0.001899277923837978,0.0004609269533134,"(0.001, 0.0, 0.0, 0.0, 0.001, 0.0, 0.0, 0.0, 0.001)"
2024/05/14/15:11:17.647035,59420,1715713877,642311775,gps,0.01661803532786938,-0.010423628018823666,-0.9446482001462573,0.3274980409730772,"(0.00017580797532057782, 0.0, 0.0, 0.0, 0.00017772223423043274, 0.0, 0.0, 0.0, 0.001426820501442952)",0.0003912805241638526,0.0008026121017406728,0.0010087987324806677,"(0.001, 0.0, 0.0, 0.0, 0.001, 0.0, 0.0, 0.0, 0.001)",-0.01771158019339643,0.008686985314768077,-0.004040121241796766,"(0.001, 0.0, 0.0, 0.0, 0.001, 0.0, 0.0, 0.0, 0.001)"
2024/05/14/15:11:17.660342,59421,1715713877,658953748,gps,0.016612360650590307,-0.010436913553825873,-0.9446497800157946,0.32749334867321456,"(0.00017580797532057782, 0.0, 0.0, 0.0, 0.00017772223423043274, 0.0, 0.0, 0.0, 0.001426820501442952)",0.00048525720924004343,0.0007600707156798467,-0.0003059619578796331,"(0.001, 0.0, 0.0, 0.0, 0.001, 0.0, 0.0, 0.0, 0.001)",0.02460811966988185,-0.038091929340787416,0.006769367548723705,"(0.001, 0.0, 0.0, 0.0, 0.001, 0.0, 0.0, 0.0, 0.001)"
2024/05/14/15:11:17.663586,59422,1715713877,663482315,gps,0.016612360650590307,-0.010436913553825873,-0.9446497800157946,0.32749334867321456,"(0.00017580797532057782, 0.0, 0.0, 0.0, 0.00017772223423043274, 0.0, 0.0, 0.0, 0.001426820501442952)",-0.00017328842639066736,-0.00033296382910019174,-0.001105702754047435,"(0.001, 0.0, 0.0, 0.0, 0.001, 0.0, 0.0, 0.0, 0.001)",0.0054212206955863524,-0.007932256714789334,-0.02040868966973369,"(0.001, 0.0, 0.0, 0.0, 0.001, 0.0, 0.0, 0.0, 0.001)"
2024/05/14/15:11:17.676735,59423,1715713877,673251952,gps,0.016622708424259038,-0.010433358442092856,-0.9446498605087165,0.32749270470824743,"(0.00017580797532057782, 0.0, 0.0, 0.0, 0.00017772223423043274, 0.0, 0.0, 0.0, 0.001426820501442952)",-0.0006829555582306106,0.0002363913154920617,-0.00024242863714596724,"(0.001, 0.0, 0.0, 0.0, 0.001, 0.0, 0.0, 0.0, 0.001)",0.004078595873275355,0.0005233688708014794,0.018264497230526762,"(0.001, 0.0, 0.0, 0.0, 0.001, 0.0, 0.0, 0.0, 0.001)"
2024/05/14/15:11:17.685104,59424,1715713877,682532656,gps,0.016622708424259038,-0.010433358442092856,-0.9446498605087165,0.32749270470824743,"(0.00017580797532057782, 0.0, 0.0, 0.0, 0.00017772223423043274, 0.0, 0.0, 0.0, 0.001426820501442952)",0.00017684783759747667,0.0005623341411046636,2.7994926061696883e-05,"(0.001, 0.0, 0.0, 0.0, 0.001, 0.0, 0.0, 0.0, 0.001)",0.006120250134529228,0.004051556805148243,0.011318380524872771,"(0.001, 0.0, 0.0, 0.0, 0.001, 0.0, 0.0, 0.0, 0.001)"
2024/05/14/15:11:17.693632,59425,1715713877,693562718,gps,0.016613423164637323,-0.010432247335683587,-0.9446487178631117,0.32749650719642653,"(0.00017580797532057782, 0.0, 0.0, 0.0, 0.00017772223423043274, 0.0, 0.0, 0.0, 0.001426820501442952)",0.0003215825494672479,-0.0009208302438039117,4.7668941284409546e-05,"(0.001, 0.0, 0.0, 0.0, 0.001, 0.0, 0.0, 0.0, 0.001)",0.003407061880313479,-0.011674113963516326,-0.026714368274353275,"(0.001, 0.0, 0.0, 0.0, 0.001, 0.0, 0.0, 0.0, 0.001)"
2024/05/14/15:11:17.701367,59426,1715713877,701251552,gps,0.016613423164637323,-0.010432247335683587,-0.9446487178631117,0.32749650719642653,"(0.00017580797532057782, 0.0, 0.0, 0.0, 0.00017772223423043274, 0.0, 0.0, 0.0, 0.001426820501442952)",0.0005300922893131765,-0.00015327705658438887,0.0005542798309001341,"(0.001, 0.0, 0.0, 0.0, 0.001, 0.0, 0.0, 0.0, 0.001)",-0.004326816614984866,-0.002808076752318984,0.020080049349546554,"(0.001, 0.0, 0.0, 0.0, 0.001, 0.0, 0.0, 0.0, 0.001)"
2024/05/14/15:11:17.712517,59427,1715713877,712423520,gps,0.016605912536374785,-0.010439050363572054,-0.9446490743347645,0.32749564310813906,"(0.00017580797532057782, 0.0, 0.0, 0.0, 0.00017772223423043274, 0.0, 0.0, 0.0, 0.001426820501442952)",0.0005777442095292713,0.0003795132916433953,-7.3934381144313e-05,"(0.001, 0.0, 0.0, 0.0, 0.001, 0.0, 0.0, 0.0, 0.001)",-0.00707642379492063,-0.01754855131127569,-0.029742638915807914,"(0.001, 0.0, 0.0, 0.0, 0.001, 0.0, 0.0, 0.0, 0.001)"
2024/05/14/15:11:17.727448,59428,1715713877,722772543,gps,0.016605912536374785,-0.010439050363572054,-0.9446490743347645,0.32749564310813906,"(0.00017580797532057782, 0.0, 0.0, 0.0, 0.00017772223423043274, 0.0, 0.0, 0.0, 0.001426820501442952)",0.0007887772682096184,0.00035159815045055577,9.75921820439836e-05,"(0.001, 0.0, 0.0, 0.0, 0.001, 0.0, 0.0, 0.0, 0.001)",0.009764112397048396,-0.019305395926463582,0.03157274130957319,"(0.001, 0.0, 0.0, 0.0, 0.001, 0.0, 0.0, 0.0, 0.001)"
2024/05/14/15:11:17.732734,59429,1715713877,732404876,gps,0.016609843918953014,-0.010431539445036237,-0.9446497849766096,0.32749363324107533,"(0.00017580797532057782, 0.0, 0.0, 0.0, 0.00017772223423043274, 0.0, 0.0, 0.0, 0.001426820501442952)",-0.00017225274683821976,-0.0002055122109898363,-0.00024554942320508655,"(0.001, 0.0, 0.0, 0.0, 0.001, 0.0, 0.0, 0.0, 0.001)",0.015226198477608624,-0.01054151807290144,0.0024875641587888894,"(0.001, 0.0, 0.0, 0.0, 0.001, 0.0, 0.0, 0.0, 0.001)"
2024/05/14/15:11:17.741546,59430,1715713877,741399561,gps,0.016609843918953014,-0.010431539445036237,-0.9446497849766096,0.32749363324107533,"(0.00017580797532057782, 0.0, 0.0, 0.0, 0.00017772223423043274, 0.0, 0.0, 0.0, 0.001426820501442952)",-0.00043640937654674004,-0.0002107355196749657,-0.0003911619276235188,"(0.001, 0.0, 0.0, 0.0, 0.001, 0.0, 0.0, 0.0, 0.001)",0.022649084128961647,0.003427866183343951,0.007407516126788093,"(0.001, 0.0, 0.0, 0.0, 0.001, 0.0, 0.0, 0.0, 0.001)"
2024/05/14/15:11:17.755476,59431,1715713877,755375088,gps,0.016613923459235014,-0.010430405845014125,-0.9446492032752729,0.32749514031904514,"(0.00017580797532057782, 0.0, 0.0, 0.0, 0.00017772223423043274, 0.0, 0.0, 0.0, 0.001426820501442952)",-0.00022197669329148087,-1.3289302943846203e-05,9.143962929166582e-05,"(0.001, 0.0, 0.0, 0.0, 0.001, 0.0, 0.0, 0.0, 0.001)",-0.005925408269811668,0.009358299282161201,0.0014447021570283447,"(0.001, 0.0, 0.0, 0.0, 0.001, 0.0, 0.0, 0.0, 0.001)"
2024/05/14/15:11:17.762263,59432,1715713877,762108437,gps,0.016613923459235014,-0.010430405845014125,-0.9446492032752729,0.32749514031904514,"(0.00017580797532057782, 0.0, 0.0, 0.0, 0.00017772223423043274, 0.0, 0.0, 0.0, 0.001426820501442952)",0.00029494129414569533,0.000182067323264238,0.000822622516628676,"(0.001, 0.0, 0.0, 0.0, 0.001, 0.0, 0.0, 0.0, 0.001)",0.007204783597905972,0.0070791582746203945,0.00046065399891603804,"(0.001, 0.0, 0.0, 0.0, 0.001, 0.0, 0.0, 0.0, 0.001)"
2024/05/14/15:11:17.772529,59433,1715713877,772413400,gps,0.016596113817452244,-0.010432441867472827,-0.9446493091697603,0.3274956730216973,"(0.00017580797532057782, 0.0, 0.0, 0.0, 0.00017772223423043274, 0.0, 0.0, 0.0, 0.001426820501442952)",0.0014766204331547695,-0.00027521503071891394,8.635493485301875e-07,"(0.001, 0.0, 0.0, 0.0, 0.001, 0.0, 0.0, 0.0, 0.001)",0.006057116042155116,-0.02735142451024695,0.01973113165353476,"(0.001, 0.0, 0.0, 0.0, 0.001, 0.0, 0.0, 0.0, 0.001)"
2024/05/14/15:11:17.781720,59434,1715713877,781564053,gps,0.016596113817452244,-0.010432441867472827,-0.9446493091697603,0.3274956730216973,"(0.00017580797532057782, 0.0, 0.0, 0.0, 0.00017772223423043274, 0.0, 0.0, 0.0, 0.001426820501442952)",0.0008843730786536659,0.0003763784106058208,-0.0002954742330883742,"(0.001, 0.0, 0.0, 0.0, 0.001, 0.0, 0.0, 0.0, 0.001)",0.0009589450458355248,-0.003994865524736327,-0.010843922119159466,"(0.001, 0.0, 0.0, 0.0, 0.001, 0.0, 0.0, 0.0, 0.001)"
2024/05/14/15:11:17.793809,59435,1715713877,793664340,gps,0.016611070891517275,-0.010432240044204615,-0.9446475686428967,0.32749994160085144,"(0.00017580797532057782, 0.0, 0.0, 0.0, 0.00017772223423043274, 0.0, 0.0, 0.0, 0.001426820501442952)",-0.0005431077662610264,4.1033497874324563e-05,0.0003223386105771907,"(0.001, 0.0, 0.0, 0.0, 0.001, 0.0, 0.0, 0.0, 0.001)",0.005652665282619216,-0.0014941097435761256,0.005734897524903358,"(0.001, 0.0, 0.0, 0.0, 0.001, 0.0, 0.0, 0.0, 0.001)"
2024/05/14/15:11:17.802451,59436,1715713877,802322722,gps,0.016611070891517275,-0.010432240044204615,-0.9446475686428967,0.32749994160085144,"(0.00017580797532057782, 0.0, 0.0, 0.0, 0.00017772223423043274, 0.0, 0.0, 0.0, 0.001426820501442952)",0.000542523669867437,-9.89545707628901e-05,-0.00023202878654651619,"(0.001, 0.0, 0.0, 0.0, 0.001, 0.0, 0.0, 0.0, 0.001)",0.006368222795507123,-0.008708103294902538,0.014559138792962964,"(0.001, 0.0, 0.0, 0.0, 0.001, 0.0, 0.0, 0.0, 0.001)"
2024/05/14/15:11:17.821618,59437,1715713877,820582001,gps,0.016602756435936505,-0.010442573700136064,-0.9446497485075194,0.3274937461661318,"(0.00017580797532057782, 0.0, 0.0, 0.0, 0.00017772223423043274, 0.0, 0.0, 0.0, 0.001426820501442952)",0.000891332284150444,0.0005981424037241219,-0.00017491355060451325,"(0.001, 0.0, 0.0, 0.0, 0.001, 0.0, 0.0, 0.0, 0.001)",-0.0025427419052417924,0.0060493099847957485,-0.012983983995689771,"(0.001, 0.0, 0.0, 0.0, 0.001, 0.0, 0.0, 0.0, 0.001)"
2024/05/14/15:11:17.826456,59438,1715713877,823197688,gps,0.016602756435936505,-0.010442573700136064,-0.9446497485075194,0.3274937461661318,"(0.00017580797532057782, 0.0, 0.0, 0.0, 0.00017772223423043274, 0.0, 0.0, 0.0, 0.001426820501442952)",0.0005280209623577529,0.0007044098805362189,-0.00028195347271218796,"(0.001, 0.0, 0.0, 0.0, 0.001, 0.0, 0.0, 0.0, 0.001)",0.00890114695991675,0.007984942299950623,0.00045657312452165746,"(0.001, 0.0, 0.0, 0.0, 0.001, 0.0, 0.0, 0.0, 0.001)"
2024/05/14/15:11:17.832424,59439,1715713877,832352079,gps,0.016585751733713957,-0.010438998105532147,-0.9446533068145294,0.3274844577722044,"(0.00017580797532057782, 0.0, 0.0, 0.0, 0.00017772223423043274, 0.0, 0.0, 0.0, 0.001426820501442952)",0.0010231849697965303,-0.0003444565667802596,-0.000647024818130426,"(0.001, 0.0, 0.0, 0.0, 0.001, 0.0, 0.0, 0.0, 0.001)",0.004183036141985592,0.0019052519938487062,0.009279305808353878,"(0.001, 0.0, 0.0, 0.0, 0.001, 0.0, 0.0, 0.0, 0.001)"
2024/05/14/15:11:17.843594,59440,1715713877,843539231,gps,0.016585751733713957,-0.010438998105532147,-0.9446533068145294,0.3274844577722044,"(0.00017580797532057782, 0.0, 0.0, 0.0, 0.00017772223423043274, 0.0, 0.0, 0.0, 0.001426820501442952)",0.0012228224810463476,0.000303539725383126,0.00016415436448728068,"(0.001, 0.0, 0.0, 0.0, 0.001, 0.0, 0.0, 0.0, 0.001)",0.007890418308311284,-0.014452281962715958,0.01461989937192933,"(0.001, 0.0, 0.0, 0.0, 0.001, 0.0, 0.0, 0.0, 0.001)"
2024/05/14/15:11:17.894102,59441,1715713877,894035418,gps,0.016589769873472944,-0.010441350344878617,-0.944655200481995,0.3274787167753694,"(0.00017365151627147472, 0.0, 0.0, 0.0, 0.00017550568697973033, 0.0, 0.0, 0.0, 0.0014302354785305504)",0.0003198034238388746,-4.149771628058212e-05,-0.0010495402680341223,"(0.001, 0.0, 0.0, 0.0, 0.001, 0.0, 0.0, 0.0, 0.001)",-0.00034328123375894213,-0.013699240625988544,0.0075774426114350625,"(0.001, 0.0, 0.0, 0.0, 0.001, 0.0, 0.0, 0.0, 0.001)"
2024/05/14/15:11:17.904064,59442,1715713877,904001120,gps,0.016589769873472944,-0.010441350344878617,-0.944655200481995,0.3274787167753694,"(0.00017365151627147472, 0.0, 0.0, 0.0, 0.00017550568697973033, 0.0, 0.0, 0.0, 0.0014302354785305504)",0.0004337528577753723,-0.00022431782833342507,-0.0007728766391014088,"(0.001, 0.0, 0.0, 0.0, 0.001, 0.0, 0.0, 0.0, 0.001)",0.011015009014312276,-0.0004118253908249169,0.030295833178990306,"(0.001, 0.0, 0.0, 0.0, 0.001, 0.0, 0.0, 0.0, 0.001)"
2024/05/14/15:11:17.915365,59443,1715713877,915278082,gps,0.016584277873802063,-0.010440132250248901,-0.9446580331127303,0.3274708625841231,"(0.00017365151627147472, 0.0, 0.0, 0.0, 0.00017550568697973033, 0.0, 0.0, 0.0, 0.0014302354785305504)",0.0004596501835618933,-0.0001282064672056775,-0.000955932598302454,"(0.001, 0.0, 0.0, 0.0, 0.001, 0.0, 0.0, 0.0, 0.001)",-0.0006057881096854963,-0.010984087617709862,-0.0004456315335242265,"(0.001, 0.0, 0.0, 0.0, 0.001, 0.0, 0.0, 0.0, 0.001)"
2024/05/14/15:11:17.918905,59444,1715713877,918748288,gps,0.016584277873802063,-0.010440132250248901,-0.9446580331127303,0.3274708625841231,"(0.00017365151627147472, 0.0, 0.0, 0.0, 0.00017550568697973033, 0.0, 0.0, 0.0, 0.0014302354785305504)",3.850375536871566e-06,-3.88849248375647e-06,0.0005074728874864733,"(0.001, 0.0, 0.0, 0.0, 0.001, 0.0, 0.0, 0.0, 0.001)",-0.00046037726523432093,-0.010663599901272663,-0.00843633795316119,"(0.001, 0.0, 0.0, 0.0, 0.001, 0.0, 0.0, 0.0, 0.001)"
2024/05/14/15:11:17.928231,59445,1715713877,928152147,gps,0.016578755292472644,-0.01045149336433758,-0.9446534896203651,0.3274838861798765,"(0.00017365151627147472, 0.0, 0.0, 0.0, 0.00017550568697973033, 0.0, 0.0, 0.0, 0.0014302354785305504)",0.0015323431615180245,0.0009973976486021374,0.0006018876368402423,"(0.001, 0.0, 0.0, 0.0, 0.001, 0.0, 0.0, 0.0, 0.001)",0.028155906298357673,-0.022937951561253056,-0.0033373702554548583,"(0.001, 0.0, 0.0, 0.0, 0.001, 0.0, 0.0, 0.0, 0.001)"
2024/05/14/15:11:17.930244,59446,1715713877,930167880,gps,0.016578755292472644,-0.01045149336433758,-0.9446534896203651,0.3274838861798765,"(0.00017365151627147472, 0.0, 0.0, 0.0, 0.00017550568697973033, 0.0, 0.0, 0.0, 0.0014302354785305504)",0.00046316852111250934,9.074774806434486e-05,-0.0001270532815132123,"(0.001, 0.0, 0.0, 0.0, 0.001, 0.0, 0.0, 0.0, 0.001)",0.012583752921042024,0.002918551732124529,-0.005918467118907616,"(0.001, 0.0, 0.0, 0.0, 0.001, 0.0, 0.0, 0.0, 0.001)"
2024/05/14/15:11:17.934697,59447,1715713877,934309210,gps,0.016585297451241432,-0.010442401526681161,-0.9446521836697608,0.32748761205084037,"(0.00017365151627147472, 0.0, 0.0, 0.0, 0.00017550568697973033, 0.0, 0.0, 0.0, 0.0014302354785305504)",-0.0001790951230029165,-0.00016729025119602292,0.0002817017589090045,"(0.001, 0.0, 0.0, 0.0, 0.001, 0.0, 0.0, 0.0, 0.001)",0.0031045477154778584,-0.006464954516778752,0.001177597492168967,"(0.001, 0.0, 0.0, 0.0, 0.001, 0.0, 0.0, 0.0, 0.001)"
2024/05/14/15:11:17.946419,59448,1715713877,946341108,gps,0.016585297451241432,-0.010442401526681161,-0.9446521836697608,0.32748761205084037,"(0.00017365151627147472, 0.0, 0.0, 0.0, 0.00017550568697973033, 0.0, 0.0, 0.0, 0.0014302354785305504)",-0.00021328006674621757,-0.00025922280966561237,8.200458413285897e-05,"(0.001, 0.0, 0.0, 0.0, 0.001, 0.0, 0.0, 0.0, 0.001)",-0.00232924407501707,0.001777454012621696,-1.5245966997502616e-05,"(0.001, 0.0, 0.0, 0.0, 0.001, 0.0, 0.0, 0.0, 0.001)"
2024/05/14/15:11:17.948623,59449,1715713877,948560724,gps,0.016586712279485542,-0.01044033881777063,-0.9446529450683429,0.327485409865591,"(0.00017365151627147472, 0.0, 0.0, 0.0, 0.00017550568697973033, 0.0, 0.0, 0.0, 0.0014302354785305504)",-1.2196502170392834e-05,9.060737898004413e-05,2.5677258258478413e-05,"(0.001, 0.0, 0.0, 0.0, 0.001, 0.0, 0.0, 0.0, 0.001)",-0.011081985943043566,0.005144575766199877,0.016308984072357202,"(0.001, 0.0, 0.0, 0.0, 0.001, 0.0, 0.0, 0.0, 0.001)"
2024/05/14/15:11:17.967685,59450,1715713877,967537634,gps,0.016586712279485542,-0.01044033881777063,-0.9446529450683429,0.327485409865591,"(0.00017365151627147472, 0.0, 0.0, 0.0, 0.00017550568697973033, 0.0, 0.0, 0.0, 0.0014302354785305504)",-0.0003199787127024187,0.000445941509398859,0.0004221138997650837,"(0.001, 0.0, 0.0, 0.0, 0.001, 0.0, 0.0, 0.0, 0.001)",-0.004110196965501665,0.015326835597887833,-0.0001623863533005318,"(0.001, 0.0, 0.0, 0.0, 0.001, 0.0, 0.0, 0.0, 0.001)"
2024/05/14/15:11:17.972519,59451,1715713877,972431843,gps,0.01658027663849834,-0.01044435723536295,-0.9446533218150801,0.3274845208742933,"(0.00017365151627147472, 0.0, 0.0, 0.0, 0.00017550568697973033, 0.0, 0.0, 0.0, 0.0014302354785305504)",0.00046213293810284776,-0.00011401119288188427,-0.00016033598498964462,"(0.001, 0.0, 0.0, 0.0, 0.001, 0.0, 0.0, 0.0, 0.001)",-0.002642975170543822,0.023312021485599663,0.011852178088528184,"(0.001, 0.0, 0.0, 0.0, 0.001, 0.0, 0.0, 0.0, 0.001)"
2024/05/14/15:11:17.979149,59452,1715713877,979058725,gps,0.01658027663849834,-0.01044435723536295,-0.9446533218150801,0.3274845208742933,"(0.00017365151627147472, 0.0, 0.0, 0.0, 0.00017550568697973033, 0.0, 0.0, 0.0, 0.0014302354785305504)",-0.0007394046445887062,-0.00015280482869691985,-0.001079937834214932,"(0.001, 0.0, 0.0, 0.0, 0.001, 0.0, 0.0, 0.0, 0.001)",0.011919358632306604,0.01885228690509894,-0.0021159862579774565,"(0.001, 0.0, 0.0, 0.0, 0.001, 0.0, 0.0, 0.0, 0.001)"
2024/05/14/15:11:17.989117,59453,1715713877,988992346,gps,0.01658349180431188,-0.010453782613431137,-0.9446558124621209,0.3274768727867325,"(0.00017365151627147472, 0.0, 0.0, 0.0, 0.00017550568697973033, 0.0, 0.0, 0.0, 0.0014302354785305504)",0.0006838169189001705,0.0008094933105996293,-0.00042035834605746476,"(0.001, 0.0, 0.0, 0.0, 0.001, 0.0, 0.0, 0.0, 0.001)",-0.011858394225519797,0.011054280895905242,0.018741295026774674,"(0.001, 0.0, 0.0, 0.0, 0.001, 0.0, 0.0, 0.0, 0.001)"
2024/05/14/15:11:17.990856,59454,1715713877,990741287,gps,0.01658349180431188,-0.010453782613431137,-0.9446558124621209,0.3274768727867325,"(0.00017365151627147472, 0.0, 0.0, 0.0, 0.00017550568697973033, 0.0, 0.0, 0.0, 0.0014302354785305504)",0.00041655247178511287,-9.625111902761452e-05,0.00030354396142006783,"(0.001, 0.0, 0.0, 0.0, 0.001, 0.0, 0.0, 0.0, 0.001)",-0.026050816941260397,0.012396792440056387,0.021692030417097663,"(0.001, 0.0, 0.0, 0.0, 0.001, 0.0, 0.0, 0.0, 0.001)"
2024/05/14/15:11:17.996240,59455,1715713877,996176358,gps,0.016577401970448484,-0.010452688539423676,-0.9446579648320997,0.3274710071525161,"(0.00017365151627147472, 0.0, 0.0, 0.0, 0.00017550568697973033, 0.0, 0.0, 0.0, 0.0014302354785305504)",0.0006900325527836908,0.00032162378653032556,-0.000757347562289344,"(0.001, 0.0, 0.0, 0.0, 0.001, 0.0, 0.0, 0.0, 0.001)",-0.016155118592562145,0.008509719185572074,-0.007140247962252409,"(0.001, 0.0, 0.0, 0.0, 0.001, 0.0, 0.0, 0.0, 0.001)"
2024/05/14/15:11:18.003611,59456,1715713878,3515351,gps,0.016577401970448484,-0.010452688539423676,-0.9446579648320997,0.3274710071525161,"(0.00017365151627147472, 0.0, 0.0, 0.0, 0.00017550568697973033, 0.0, 0.0, 0.0, 0.0014302354785305504)",0.00036061327853474147,-0.0002195244912791478,0.0002328175164468417,"(0.001, 0.0, 0.0, 0.0, 0.001, 0.0, 0.0, 0.0, 0.001)",0.006553871899030828,0.0042362518959698165,-0.009437255542576767,"(0.001, 0.0, 0.0, 0.0, 0.001, 0.0, 0.0, 0.0, 0.001)"
2024/05/14/15:11:18.013429,59457,1715713878,13367718,gps,0.016579444946920076,-0.010447861501858422,-0.9446570276589118,0.3274737612235827,"(0.00017365151627147472, 0.0, 0.0, 0.0, 0.00017550568697973033, 0.0, 0.0, 0.0, 0.0014302354785305504)",0.000280965080217156,-0.00048501572012755263,-0.0003123526421989754,"(0.001, 0.0, 0.0, 0.0, 0.001, 0.0, 0.0, 0.0, 0.001)",-0.0004852678637652259,0.035375537973938914,0.005451252845409129,"(0.001, 0.0, 0.0, 0.0, 0.001, 0.0, 0.0, 0.0, 0.001)"
2024/05/14/15:11:18.022491,59458,1715713878,22282060,gps,0.016579444946920076,-0.010447861501858422,-0.9446570276589118,0.3274737612235827,"(0.00017365151627147472, 0.0, 0.0, 0.0, 0.00017550568697973033, 0.0, 0.0, 0.0, 0.0014302354785305504)",-0.0008534724045112287,0.0005086227445498185,9.968559262679626e-05,"(0.001, 0.0, 0.0, 0.0, 0.001, 0.0, 0.0, 0.0, 0.001)",0.004065635458411366,0.015551961855359071,0.00168516474842405,"(0.001, 0.0, 0.0, 0.0, 0.001, 0.0, 0.0, 0.0, 0.001)"
2024/05/14/15:11:18.034388,59459,1715713878,34309720,gps,0.016589856981523737,-0.010446121837145892,-0.9446558469982208,0.32747669522573686,"(0.00017365151627147472, 0.0, 0.0, 0.0, 0.00017550568697973033, 0.0, 0.0, 0.0, 0.0014302354785305504)",-0.0003500203978681242,0.0002014847622260599,-0.0001436948768691934,"(0.001, 0.0, 0.0, 0.0, 0.001, 0.0, 0.0, 0.0, 0.001)",-0.0003481981595682288,0.004924091794787913,-0.003531415040740673,"(0.001, 0.0, 0.0, 0.0, 0.001, 0.0, 0.0, 0.0, 0.001)"
2024/05/14/15:11:18.042166,59460,1715713878,42101521,gps,0.016589856981523737,-0.010446121837145892,-0.9446558469982208,0.32747669522573686,"(0.00017365151627147472, 0.0, 0.0, 0.0, 0.00017550568697973033, 0.0, 0.0, 0.0, 0.0014302354785305504)",0.0003730441416779866,0.00033624964561845057,0.0003680293746321642,"(0.001, 0.0, 0.0, 0.0, 0.001, 0.0, 0.0, 0.0, 0.001)",-0.0011607075032106847,0.00351813608996001,-0.02634030858888302,"(0.001, 0.0, 0.0, 0.0, 0.001, 0.0, 0.0, 0.0, 0.001)"
2024/05/14/15:11:18.064331,59461,1715713878,64248072,gps,0.0165937284951234,-0.01045337420839734,-0.9446526230400729,0.3274855675076374,"(0.00017365151627147472, 0.0, 0.0, 0.0, 0.00017550568697973033, 0.0, 0.0, 0.0, 0.0014302354785305504)",-0.0005622638870934052,0.0015542152953753315,0.0007412595230772865,"(0.001, 0.0, 0.0, 0.0, 0.001, 0.0, 0.0, 0.0, 0.001)",0.02209715200825244,-0.01870331087406851,-0.00019718365410870714,"(0.001, 0.0, 0.0, 0.0, 0.001, 0.0, 0.0, 0.0, 0.001)"
2024/05/14/15:11:18.068586,59462,1715713878,68498476,gps,0.0165937284951234,-0.01045337420839734,-0.9446526230400729,0.3274855675076374,"(0.00017365151627147472, 0.0, 0.0, 0.0, 0.00017550568697973033, 0.0, 0.0, 0.0, 0.0014302354785305504)",-0.0011704593530151,0.00022760183162444516,-0.0003205092512556648,"(0.001, 0.0, 0.0, 0.0, 0.001, 0.0, 0.0, 0.0, 0.001)",0.0013535059061655043,0.005116507152443211,-0.02093609787511035,"(0.001, 0.0, 0.0, 0.0, 0.001, 0.0, 0.0, 0.0, 0.001)"
2024/05/14/15:11:18.073472,59463,1715713878,73386166,gps,0.01660521770550509,-0.010448202170765242,-0.9446548026152757,0.32747886300072254,"(0.00017365151627147472, 0.0, 0.0, 0.0, 0.00017550568697973033, 0.0, 0.0, 0.0, 0.0014302354785305504)",-0.0007737062304557471,0.00010850788601496354,-0.00016033494225282247,"(0.001, 0.0, 0.0, 0.0, 0.001, 0.0, 0.0, 0.0, 0.001)",-0.014068657390976758,0.0011962720658324575,-0.0169390480094851,"(0.001, 0.0, 0.0, 0.0, 0.001, 0.0, 0.0, 0.0, 0.001)"
2024/05/14/15:11:18.082935,59464,1715713878,82858290,gps,0.01660521770550509,-0.010448202170765242,-0.9446548026152757,0.32747886300072254,"(0.00017365151627147472, 0.0, 0.0, 0.0, 0.00017550568697973033, 0.0, 0.0, 0.0, 0.0014302354785305504)",0.00018554554158008255,0.00036027794403384675,-9.584906012229028e-05,"(0.001, 0.0, 0.0, 0.0, 0.001, 0.0, 0.0, 0.0, 0.001)",0.010045743097609638,-0.013396304112960784,0.02050994702515606,"(0.001, 0.0, 0.0, 0.0, 0.001, 0.0, 0.0, 0.0, 0.001)"
2024/05/14/15:11:18.093075,59465,1715713878,92962247,gps,0.016600179378384802,-0.010448167126344277,-0.9446553668634413,0.32747749190502023,"(0.00017365151627147472, 0.0, 0.0, 0.0, 0.00017550568697973033, 0.0, 0.0, 0.0, 0.0014302354785305504)",0.0001494066998795287,-0.0003575622981992403,-5.522368141434517e-06,"(0.001, 0.0, 0.0, 0.0, 0.001, 0.0, 0.0, 0.0, 0.001)",0.0007261224987732215,-0.007153534337630475,-0.01676612958898176,"(0.001, 0.0, 0.0, 0.0, 0.001, 0.0, 0.0, 0.0, 0.001)"
2024/05/14/15:11:18.101479,59466,1715713878,101345077,gps,0.016600179378384802,-0.010448167126344277,-0.9446553668634413,0.32747749190502023,"(0.00017365151627147472, 0.0, 0.0, 0.0, 0.00017550568697973033, 0.0, 0.0, 0.0, 0.0014302354785305504)",-0.00045671812035969644,-3.9837566812345586e-05,0.0005666878511581728,"(0.001, 0.0, 0.0, 0.0, 0.001, 0.0, 0.0, 0.0, 0.001)",0.006889094049240096,-0.010153486668138013,0.011743759198026758,"(0.001, 0.0, 0.0, 0.0, 0.001, 0.0, 0.0, 0.0, 0.001)"
2024/05/14/15:11:18.113881,59467,1715713878,113734635,gps,0.016608660400308773,-0.010456570454276845,-0.9446560210181622,0.32747490665419776,"(0.00017365151627147472, 0.0, 0.0, 0.0, 0.00017550568697973033, 0.0, 0.0, 0.0, 0.0014302354785305504)",-0.0004929747326838682,0.000785465784111636,-0.000519165468863978,"(0.001, 0.0, 0.0, 0.0, 0.001, 0.0, 0.0, 0.0, 0.001)",0.012073754848349525,-0.010611301298671574,0.00587289227931911,"(0.001, 0.0, 0.0, 0.0, 0.001, 0.0, 0.0, 0.0, 0.001)"
2024/05/14/15:11:18.122581,59468,1715713878,122481205,gps,0.016608660400308773,-0.010456570454276845,-0.9446560210181622,0.32747490665419776,"(0.00017365151627147472, 0.0, 0.0, 0.0, 0.00017550568697973033, 0.0, 0.0, 0.0, 0.0014302354785305504)",0.000250808027711758,-0.0005580024433362433,0.0003513899089093652,"(0.001, 0.0, 0.0, 0.0, 0.001, 0.0, 0.0, 0.0, 0.001)",0.0049958859349437355,0.0003458359869770754,-0.009841799629546419,"(0.001, 0.0, 0.0, 0.0, 0.001, 0.0, 0.0, 0.0, 0.001)"
2024/05/14/15:11:18.132478,59469,1715713878,132363993,gps,0.016612056027301543,-0.010447673012155868,-0.9446539815171527,0.32748090162170945,"(0.00017365151627147472, 0.0, 0.0, 0.0, 0.00017550568697973033, 0.0, 0.0, 0.0, 0.0014302354785305504)",-0.0014862933204869066,0.0006129532870842673,6.104448350757977e-05,"(0.001, 0.0, 0.0, 0.0, 0.001, 0.0, 0.0, 0.0, 0.001)",0.0024923285485804105,-0.029575202886371537,-0.0071540475454288455,"(0.001, 0.0, 0.0, 0.0, 0.001, 0.0, 0.0, 0.0, 0.001)"
2024/05/14/15:11:18.141589,59470,1715713878,141424349,gps,0.016612056027301543,-0.010447673012155868,-0.9446539815171527,0.32748090162170945,"(0.00017365151627147472, 0.0, 0.0, 0.0, 0.00017550568697973033, 0.0, 0.0, 0.0, 0.0014302354785305504)",-9.622133527352671e-05,-0.0007261969207633414,2.272210463377992e-05,"(0.001, 0.0, 0.0, 0.0, 0.001, 0.0, 0.0, 0.0, 0.001)",0.005450347124918648,-0.003716567405908069,0.007364590896550217,"(0.001, 0.0, 0.0, 0.0, 0.001, 0.0, 0.0, 0.0, 0.001)"
2024/05/14/15:11:18.159328,59471,1715713878,159197206,gps,0.016614149423943153,-0.010435205443030017,-0.9446530097095166,0.3274839962090248,"(0.00017365151627147472, 0.0, 0.0, 0.0, 0.00017550568697973033, 0.0, 0.0, 0.0, 0.0014302354785305504)",-0.0007778497234794638,-0.0004618908780149751,0.00014441239569964198,"(0.001, 0.0, 0.0, 0.0, 0.001, 0.0, 0.0, 0.0, 0.001)",-0.002025687544395227,-0.00014316497192747973,-0.019320046083410376,"(0.001, 0.0, 0.0, 0.0, 0.001, 0.0, 0.0, 0.0, 0.001)"
2024/05/14/15:11:18.165187,59472,1715713878,165138691,gps,0.016614149423943153,-0.010435205443030017,-0.9446530097095166,0.3274839962090248,"(0.00017365151627147472, 0.0, 0.0, 0.0, 0.00017550568697973033, 0.0, 0.0, 0.0, 0.0014302354785305504)",-0.0003293011856459393,-0.0004483097359064957,8.928780720250201e-05,"(0.001, 0.0, 0.0, 0.0, 0.001, 0.0, 0.0, 0.0, 0.001)",-0.01141148170630798,-0.002635114687605683,-0.001997582237802838,"(0.001, 0.0, 0.0, 0.0, 0.001, 0.0, 0.0, 0.0, 0.001)"
2024/05/14/15:11:18.172622,59473,1715713878,172493276,gps,0.016606208281318192,-0.010443715010116188,-0.9446534772885908,0.3274827789516248,"(0.00017365151627147472, 0.0, 0.0, 0.0, 0.00017550568697973033, 0.0, 0.0, 0.0, 0.0014302354785305504)",-8.781662155629553e-05,0.000671457403588283,-0.00022705890015350908,"(0.001, 0.0, 0.0, 0.0, 0.001, 0.0, 0.0, 0.0, 0.001)",-0.01817678006188746,-0.013088634328935016,0.018728874106866824,"(0.001, 0.0, 0.0, 0.0, 0.001, 0.0, 0.0, 0.0, 0.001)"
2024/05/14/15:11:18.181464,59474,1715713878,181362216,gps,0.016606208281318192,-0.010443715010116188,-0.9446534772885908,0.3274827789516248,"(0.00017365151627147472, 0.0, 0.0, 0.0, 0.00017550568697973033, 0.0, 0.0, 0.0, 0.0014302354785305504)",0.0006952129025647783,-0.00039189642002468396,6.53659762948374e-05,"(0.001, 0.0, 0.0, 0.0, 0.001, 0.0, 0.0, 0.0, 0.001)",-0.0024733036299289766,0.0015916730745368284,-0.0012526774227727062,"(0.001, 0.0, 0.0, 0.0, 0.001, 0.0, 0.0, 0.0, 0.001)"
2024/05/14/15:11:18.192418,59475,1715713878,192342842,gps,0.01660803226168205,-0.010440583917370523,-0.94465440512989,0.3274801098395945,"(0.00017365151627147472, 0.0, 0.0, 0.0, 0.00017550568697973033, 0.0, 0.0, 0.0, 0.0014302354785305504)",-4.856990836449868e-05,-3.2727882052484552e-06,-0.00014577258811597683,"(0.001, 0.0, 0.0, 0.0, 0.001, 0.0, 0.0, 0.0, 0.001)",-0.013851182736357288,-0.0015071823339796423,-0.0055758605090030795,"(0.001, 0.0, 0.0, 0.0, 0.001, 0.0, 0.0, 0.0, 0.001)"
2024/05/14/15:11:18.202121,59476,1715713878,201972500,gps,0.01660803226168205,-0.010440583917370523,-0.94465440512989,0.3274801098395945,"(0.00017365151627147472, 0.0, 0.0, 0.0, 0.00017550568697973033, 0.0, 0.0, 0.0, 0.0014302354785305504)",-0.0001977408715754624,3.8514784682869657e-05,-0.0004016345981250928,"(0.001, 0.0, 0.0, 0.0, 0.001, 0.0, 0.0, 0.0, 0.001)",0.002623593389762861,-0.0014029015963731122,0.0064999672097019,"(0.001, 0.0, 0.0, 0.0, 0.001, 0.0, 0.0, 0.0, 0.001)"
2024/05/14/15:11:18.213477,59477,1715713878,213409872,gps,0.016603224968328646,-0.010432808408035925,-0.9446572559680639,0.3274723777301833,"(0.00017365151627147472, 0.0, 0.0, 0.0, 0.00017550568697973033, 0.0, 0.0, 0.0, 0.0014302354785305504)",0.0005648053994666761,-0.0006082851737039987,-0.0012130644542559397,"(0.001, 0.0, 0.0, 0.0, 0.001, 0.0, 0.0, 0.0, 0.001)",0.013686072843230791,-0.03502542741700871,0.004707926381768533,"(0.001, 0.0, 0.0, 0.0, 0.001, 0.0, 0.0, 0.0, 0.001)"
2024/05/14/15:11:18.228917,59478,1715713878,228831420,gps,0.016603224968328646,-0.010432808408035925,-0.9446572559680639,0.3274723777301833,"(0.00017365151627147472, 0.0, 0.0, 0.0, 0.00017550568697973033, 0.0, 0.0, 0.0, 0.0014302354785305504)",-6.100167370058526e-05,-6.49089306786608e-05,-0.00101216747561649,"(0.001, 0.0, 0.0, 0.0, 0.001, 0.0, 0.0, 0.0, 0.001)",0.008675021623273462,-0.009604399271420415,0.004469884211277292,"(0.001, 0.0, 0.0, 0.0, 0.001, 0.0, 0.0, 0.0, 0.001)"
2024/05/14/15:11:18.234879,59479,1715713878,234806661,gps,0.01660460590579195,-0.010445354727837732,-0.9446596415110621,0.3274650261134988,"(0.00017365151627147472, 0.0, 0.0, 0.0, 0.00017550568697973033, 0.0, 0.0, 0.0, 0.0014302354785305504)",0.00029327881926243313,0.0004887759452376404,-0.0004702808199823927,"(0.001, 0.0, 0.0, 0.0, 0.001, 0.0, 0.0, 0.0, 0.001)",0.0011564453588679606,-0.01963784793664559,0.008257067517577092,"(0.001, 0.0, 0.0, 0.0, 0.001, 0.0, 0.0, 0.0, 0.001)"
2024/05/14/15:11:18.243116,59480,1715713878,243022482,gps,0.01660460590579195,-0.010445354727837732,-0.9446596415110621,0.3274650261134988,"(0.00017365151627147472, 0.0, 0.0, 0.0, 0.00017550568697973033, 0.0, 0.0, 0.0, 0.0014302354785305504)",-5.996620078706508e-05,-9.102574520334782e-05,0.00014337204766196344,"(0.001, 0.0, 0.0, 0.0, 0.001, 0.0, 0.0, 0.0, 0.001)",-0.003945609429374638,-0.008655869541907836,0.013444877959948276,"(0.001, 0.0, 0.0, 0.0, 0.001, 0.0, 0.0, 0.0, 0.001)"
2024/05/14/15:11:18.261515,59481,1715713878,261441389,gps,0.016598535695087603,-0.01044339447156028,-0.9446561387100293,0.327475500949534,"(0.00017365151627147472, 0.0, 0.0, 0.0, 0.00017550568697973033, 0.0, 0.0, 0.0, 0.0014302354785305504)",0.0007201897074398824,0.00011777400021293587,0.0001400914302068028,"(0.001, 0.0, 0.0, 0.0, 0.001, 0.0, 0.0, 0.0, 0.001)",-0.006788099313360419,-0.04517900259884762,-0.004388207831578794,"(0.001, 0.0, 0.0, 0.0, 0.001, 0.0, 0.0, 0.0, 0.001)"
2024/05/14/15:11:18.266831,59482,1715713878,266770765,gps,0.016598535695087603,-0.01044339447156028,-0.9446561387100293,0.327475500949534,"(0.00017365151627147472, 0.0, 0.0, 0.0, 0.00017550568697973033, 0.0, 0.0, 0.0, 0.0014302354785305504)",0.0007159298104931173,-0.00023937171067825227,0.0003014654128267346,"(0.001, 0.0, 0.0, 0.0, 0.001, 0.0, 0.0, 0.0, 0.001)",-0.0007698111920235608,-0.0013046008127578126,0.03461092081369788,"(0.001, 0.0, 0.0, 0.0, 0.001, 0.0, 0.0, 0.0, 0.001)"
2024/05/14/15:11:18.273651,59483,1715713878,273568826,gps,0.016595950666173753,-0.010446714452715703,-0.9446570016815706,0.32747303668029565,"(0.00017365151627147472, 0.0, 0.0, 0.0, 0.00017550568697973033, 0.0, 0.0, 0.0, 0.0014302354785305504)",0.00048285031009735724,0.00036445753401951036,9.552733490056723e-05,"(0.001, 0.0, 0.0, 0.0, 0.001, 0.0, 0.0, 0.0, 0.001)",0.015731478124725827,-0.020165641985384238,-0.0057595478779660135,"(0.001, 0.0, 0.0, 0.0, 0.001, 0.0, 0.0, 0.0, 0.001)"
2024/05/14/15:11:18.282156,59484,1715713878,282076198,gps,0.016595950666173753,-0.010446714452715703,-0.9446570016815706,0.32747303668029565,"(0.00017365151627147472, 0.0, 0.0, 0.0, 0.00017550568697973033, 0.0, 0.0, 0.0, 0.0014302354785305504)",0.0003678645545681215,7.507882567267167e-05,-0.0001353726175563294,"(0.001, 0.0, 0.0, 0.0, 0.001, 0.0, 0.0, 0.0, 0.001)",0.01200253264475185,-0.004825447642243799,0.0008291620882797402,"(0.001, 0.0, 0.0, 0.0, 0.001, 0.0, 0.0, 0.0, 0.001)"
2024/05/14/15:11:18.292423,59485,1715713878,292295954,gps,0.016590510738112265,-0.010446495564229982,-0.9446575039418903,0.3274718704410393,"(0.00017365151627147472, 0.0, 0.0, 0.0, 0.00017550568697973033, 0.0, 0.0, 0.0, 0.0014302354785305504)",0.0008424275933993319,0.00020970475083290603,-0.00016777664648642452,"(0.001, 0.0, 0.0, 0.0, 0.001, 0.0, 0.0, 0.0, 0.001)",0.02463319964676921,-0.02301782178643267,0.019158812136324626,"(0.001, 0.0, 0.0, 0.0, 0.001, 0.0, 0.0, 0.0, 0.001)"
2024/05/14/15:11:18.301498,59486,1715713878,301324709,gps,0.016590510738112265,-0.010446495564229982,-0.9446575039418903,0.3274718704410393,"(0.00017365151627147472, 0.0, 0.0, 0.0, 0.00017550568697973033, 0.0, 0.0, 0.0, 0.0014302354785305504)",1.4619534567137777e-05,0.0008596390936335091,0.0006602955054314834,"(0.001, 0.0, 0.0, 0.0, 0.001, 0.0, 0.0, 0.0, 0.001)",0.004010174784115414,-0.021199221735026103,0.01529062884565295,"(0.001, 0.0, 0.0, 0.0, 0.001, 0.0, 0.0, 0.0, 0.001)"
2024/05/14/15:11:18.312514,59487,1715713878,312422899,gps,0.016607268018385288,-0.010440738875121817,-0.944657236716252,0.32747197550373985,"(0.00017365151627147472, 0.0, 0.0, 0.0, 0.00017550568697973033, 0.0, 0.0, 0.0, 0.0014302354785305504)",-0.0008027121982306837,-0.00012027829205791488,-0.0001145709466392253,"(0.001, 0.0, 0.0, 0.0, 0.001, 0.0, 0.0, 0.0, 0.001)",-0.009316457135613134,0.0019022918333953974,0.01672302061236101,"(0.001, 0.0, 0.0, 0.0, 0.001, 0.0, 0.0, 0.0, 0.001)"
2024/05/14/15:11:18.322979,59488,1715713878,322843319,gps,0.016607268018385288,-0.010440738875121817,-0.944657236716252,0.32747197550373985,"(0.00017365151627147472, 0.0, 0.0, 0.0, 0.00017550568697973033, 0.0, 0.0, 0.0, 0.0014302354785305504)",-0.00014387411108458185,-0.00016833364439622088,0.0005698082443854989,"(0.001, 0.0, 0.0, 0.0, 0.001, 0.0, 0.0, 0.0, 0.001)",-0.004059632884088413,-0.011056053250537354,0.0029480644052591347,"(0.001, 0.0, 0.0, 0.0, 0.001, 0.0, 0.0, 0.0, 0.001)"
2024/05/14/15:11:18.333160,59489,1715713878,332996943,gps,0.016602865951294787,-0.010444901489533686,-0.9446554145437283,0.32747732234201227,"(0.00017365151627147472, 0.0, 0.0, 0.0, 0.00017550568697973033, 0.0, 0.0, 0.0, 0.0014302354785305504)",0.00031825928225736797,0.0004468479066826969,0.0006278922920559276,"(0.001, 0.0, 0.0, 0.0, 0.001, 0.0, 0.0, 0.0, 0.001)",0.01232806778482138,-0.0206714089471891,0.02056545511882402,"(0.001, 0.0, 0.0, 0.0, 0.001, 0.0, 0.0, 0.0, 0.001)"
2024/05/14/15:11:18.341453,59490,1715713878,341325418,gps,0.016602865951294787,-0.010444901489533686,-0.9446554145437283,0.32747732234201227,"(0.00017365151627147472, 0.0, 0.0, 0.0, 0.00017550568697973033, 0.0, 0.0, 0.0, 0.0014302354785305504)",0.0003916914261540776,0.00028088169812987967,-5.8405821462874496e-05,"(0.001, 0.0, 0.0, 0.0, 0.001, 0.0, 0.0, 0.0, 0.001)",0.0018173960743724392,-0.003853160922912105,-0.014583194972250139,"(0.001, 0.0, 0.0, 0.0, 0.001, 0.0, 0.0, 0.0, 0.001)"
2024/05/14/15:11:18.364485,59491,1715713878,364435976,gps,0.016602801959332975,-0.010454156920471584,-0.9446565101511402,0.32747386979612636,"(0.00017365151627147472, 0.0, 0.0, 0.0, 0.00017550568697973033, 0.0, 0.0, 0.0, 0.0014302354785305504)",-7.861122605287702e-05,0.0006005560669443373,-0.00023418101870237572,"(0.001, 0.0, 0.0, 0.0, 0.001, 0.0, 0.0, 0.0, 0.001)",0.002500861789482036,0.009121806497067156,-0.02662713727308229,"(0.001, 0.0, 0.0, 0.0, 0.001, 0.0, 0.0, 0.0, 0.001)"
2024/05/14/15:11:18.368191,59492,1715713878,368100418,gps,0.016602801959332975,-0.010454156920471584,-0.9446565101511402,0.32747386979612636,"(0.00017365151627147472, 0.0, 0.0, 0.0, 0.00017550568697973033, 0.0, 0.0, 0.0, 0.0014302354785305504)",8.9206142331837e-05,0.0002777476258230368,-0.000384993788313903,"(0.001, 0.0, 0.0, 0.0, 0.001, 0.0, 0.0, 0.0, 0.001)",-0.011171483286774713,0.0018266109312497006,0.009718658133072003,"(0.001, 0.0, 0.0, 0.0, 0.001, 0.0, 0.0, 0.0, 0.001)"
2024/05/14/15:11:18.373182,59493,1715713878,373103620,gps,0.01659873749584277,-0.010446869958875293,-0.9446559980788183,0.327475785540424,"(0.00017365151627147472, 0.0, 0.0, 0.0, 0.00017550568697973033, 0.0, 0.0, 0.0, 0.0014302354785305504)",0.0002933979397404279,-0.0004139749495569239,2.672088971624489e-05,"(0.001, 0.0, 0.0, 0.0, 0.001, 0.0, 0.0, 0.0, 0.001)",-0.005464209523055311,0.011156540531930995,-0.02218828763624846,"(0.001, 0.0, 0.0, 0.0, 0.001, 0.0, 0.0, 0.0, 0.001)"
2024/05/14/15:11:18.381505,59494,1715713878,381351558,gps,0.01659873749584277,-0.010446869958875293,-0.9446559980788183,0.327475785540424,"(0.00017365151627147472, 0.0, 0.0, 0.0, 0.00017550568697973033, 0.0, 0.0, 0.0, 0.0014302354785305504)",0.00023216141362428306,0.00038639514893083033,0.0002525809130573541,"(0.001, 0.0, 0.0, 0.0, 0.001, 0.0, 0.0, 0.0, 0.001)",-0.006859560330137607,-0.00810970295072578,-0.009096083635101948,"(0.001, 0.0, 0.0, 0.0, 0.001, 0.0, 0.0, 0.0, 0.001)"
2024/05/14/15:11:18.393998,59495,1715713878,393933715,gps,0.01659718358718962,-0.010453089926450984,-0.9446573139158934,0.3274718700486683,"(0.00017365151627147472, 0.0, 0.0, 0.0, 0.00017550568697973033, 0.0, 0.0, 0.0, 0.0014302354785305504)",0.0001824379967786222,0.0002359599518946148,-0.0002809849934904701,"(0.001, 0.0, 0.0, 0.0, 0.001, 0.0, 0.0, 0.0, 0.001)",-0.009273432807543468,0.01643731481093999,-0.013061352134253561,"(0.001, 0.0, 0.0, 0.0, 0.001, 0.0, 0.0, 0.0, 0.001)"
2024/05/14/15:11:18.402302,59496,1715713878,402139015,gps,0.01659718358718962,-0.010453089926450984,-0.9446573139158934,0.3274718700486683,"(0.00017365151627147472, 0.0, 0.0, 0.0, 0.00017550568697973033, 0.0, 0.0, 0.0, 0.0014302354785305504)",0.0009148256760641171,-0.0007209740660996984,0.0002151377208927684,"(0.001, 0.0, 0.0, 0.0, 0.001, 0.0, 0.0, 0.0, 0.001)",-0.007216130611167932,0.00860764551174697,-0.02591537453141495,"(0.001, 0.0, 0.0, 0.0, 0.001, 0.0, 0.0, 0.0, 0.001)"
2024/05/14/15:11:18.413031,59497,1715713878,412876588,gps,0.016588352318620367,-0.010447888215067707,-0.944657379901304,0.3274722931748607,"(0.00017365151627147472, 0.0, 0.0, 0.0, 0.00017550568697973033, 0.0, 0.0, 0.0, 0.0014302354785305504)",0.0008683272221153154,-0.0006438075452252992,-0.0002634658946921983,"(0.001, 0.0, 0.0, 0.0, 0.001, 0.0, 0.0, 0.0, 0.001)",-0.00982113995414754,0.0017001814968158732,-0.016207160128901242,"(0.001, 0.0, 0.0, 0.0, 0.001, 0.0, 0.0, 0.0, 0.001)"
2024/05/14/15:11:18.421667,59498,1715713878,421564861,gps,0.016588352318620367,-0.010447888215067707,-0.944657379901304,0.3274722931748607,"(0.00017365151627147472, 0.0, 0.0, 0.0, 0.00017550568697973033, 0.0, 0.0, 0.0, 0.0014302354785305504)",-0.0005882788333770159,-5.132971700549804e-05,0.0004013126461049226,"(0.001, 0.0, 0.0, 0.0, 0.001, 0.0, 0.0, 0.0, 0.001)",-0.004751680251128444,0.0016475575640663446,0.004613682932773609,"(0.001, 0.0, 0.0, 0.0, 0.001, 0.0, 0.0, 0.0, 0.001)"
2024/05/14/15:11:18.434392,59499,1715713878,434324787,gps,0.016583538620718548,-0.010443571674161347,-0.9446620942124617,0.32745907502408256,"(0.00017365151627147472, 0.0, 0.0, 0.0, 0.00017550568697973033, 0.0, 0.0, 0.0, 0.0014302354785305504)",0.0005564008277913807,-0.00029160785441646395,-0.0012430687116824852,"(0.001, 0.0, 0.0, 0.0, 0.001, 0.0, 0.0, 0.0, 0.001)",0.004921342173155808,0.012438227526647477,-0.02335517590402609,"(0.001, 0.0, 0.0, 0.0, 0.001, 0.0, 0.0, 0.0, 0.001)"
2024/05/14/15:11:18.442283,59500,1715713878,442175718,gps,0.016583538620718548,-0.010443571674161347,-0.9446620942124617,0.32745907502408256,"(0.00017365151627147472, 0.0, 0.0, 0.0, 0.00017550568697973033, 0.0, 0.0, 0.0, 0.0014302354785305504)",0.0003761520802735533,-8.893821077658803e-05,-0.0008259931078583055,"(0.001, 0.0, 0.0, 0.0, 0.001, 0.0, 0.0, 0.0, 0.001)",-0.011501858902033554,0.0007891085070740551,-0.01939062444584643,"(0.001, 0.0, 0.0, 0.0, 0.001, 0.0, 0.0, 0.0, 0.001)"
2024/05/14/15:11:18.459183,59501,1715713878,459118264,gps,0.016590505205104574,-0.010429384655825436,-0.944660316459395,0.3274643027561571,"(0.00017365151627147472, 0.0, 0.0, 0.0, 0.00017550568697973033, 0.0, 0.0, 0.0, 0.0014302354785305504)",-0.0011993493743045897,-0.0010345197159419067,-0.0006566204654968605,"(0.001, 0.0, 0.0, 0.0, 0.001, 0.0, 0.0, 0.0, 0.001)",-0.004728500220849176,0.02789465530472416,0.004513004478052144,"(0.001, 0.0, 0.0, 0.0, 0.001, 0.0, 0.0, 0.0, 0.001)"
2024/05/14/15:11:18.462453,59502,1715713878,462390859,gps,0.016590505205104574,-0.010429384655825436,-0.944660316459395,0.3274643027561571,"(0.00017365151627147472, 0.0, 0.0, 0.0, 0.00017550568697973033, 0.0, 0.0, 0.0, 0.0014302354785305504)",-0.0002381429215344896,-0.00026862380339764594,-0.0006866211369863993,"(0.001, 0.0, 0.0, 0.0, 0.001, 0.0, 0.0, 0.0, 0.001)",0.0038238541361667057,0.01580522315706488,-0.0070472675406594186,"(0.001, 0.0, 0.0, 0.0, 0.001, 0.0, 0.0, 0.0, 0.001)"
2024/05/14/15:11:18.475383,59503,1715713878,475311705,gps,0.01660126430479208,-0.010441336134607609,-0.9446625164471035,0.3274570300711717,"(0.00017365151627147472, 0.0, 0.0, 0.0, 0.00017550568697973033, 0.0, 0.0, 0.0, 0.0014302354785305504)",-0.00044946872020549134,0.0005002667202273263,-0.0004505208014550381,"(0.001, 0.0, 0.0, 0.0, 0.001, 0.0, 0.0, 0.0, 0.001)",0.0052228179485935035,0.008845092224558588,0.014332634796076086,"(0.001, 0.0, 0.0, 0.0, 0.001, 0.0, 0.0, 0.0, 0.001)"
2024/05/14/15:11:18.483327,59504,1715713878,483252333,gps,0.01660126430479208,-0.010441336134607609,-0.9446625164471035,0.3274570300711717,"(0.00017365151627147472, 0.0, 0.0, 0.0, 0.00017550568697973033, 0.0, 0.0, 0.0, 0.0014302354785305504)",-9.921555260197646e-05,-0.00015906967151750403,0.00029818217857493167,"(0.001, 0.0, 0.0, 0.0, 0.001, 0.0, 0.0, 0.0, 0.001)",-0.005973531454318205,-0.002215305661350879,-0.005892091307292878,"(0.001, 0.0, 0.0, 0.0, 0.001, 0.0, 0.0, 0.0, 0.001)"
2024/05/14/15:11:18.492664,59505,1715713878,492550889,gps,0.016601753365204166,-0.010437619523248988,-0.9446617021805557,0.3274594727859071,"(0.00017365151627147472, 0.0, 0.0, 0.0, 0.00017550568697973033, 0.0, 0.0, 0.0, 0.0014302354785305504)",-0.00043910958070304297,0.00024536311043316946,-0.0002685048160819148,"(0.001, 0.0, 0.0, 0.0, 0.001, 0.0, 0.0, 0.0, 0.001)",-0.002239451503864331,0.0078040469895543476,0.0057767851414101375,"(0.001, 0.0, 0.0, 0.0, 0.001, 0.0, 0.0, 0.0, 0.001)"
2024/05/14/15:11:18.501616,59506,1715713878,501454846,gps,0.016601753365204166,-0.010437619523248988,-0.9446617021805557,0.3274594727859071,"(0.00017365151627147472, 0.0, 0.0, 0.0, 0.00017550568697973033, 0.0, 0.0, 0.0, 0.0014302354785305504)",-0.0008213600537744814,-0.0003490640410082475,6.53641711728702e-05,"(0.001, 0.0, 0.0, 0.0, 0.001, 0.0, 0.0, 0.0, 0.001)",0.006910491629733839,-0.000504063792387827,0.003362466304730948,"(0.001, 0.0, 0.0, 0.0, 0.001, 0.0, 0.0, 0.0, 0.001)"
2024/05/14/15:11:18.513702,59507,1715713878,513541407,gps,0.016606876098125244,-0.010436004486912866,-0.9446605300695261,0.32746264581685147,"(0.00017365151627147472, 0.0, 0.0, 0.0, 0.00017550568697973033, 0.0, 0.0, 0.0, 0.0014302354785305504)",-0.00037902696524940886,0.00027461482816929617,5.600357387057599e-05,"(0.001, 0.0, 0.0, 0.0, 0.001, 0.0, 0.0, 0.0, 0.001)",0.005687257906618945,0.0030675934800316242,-0.009546335807080983,"(0.001, 0.0, 0.0, 0.0, 0.001, 0.0, 0.0, 0.0, 0.001)"
2024/05/14/15:11:18.522544,59508,1715713878,522445568,gps,0.016606876098125244,-0.010436004486912866,-0.9446605300695261,0.32746264581685147,"(0.00017365151627147472, 0.0, 0.0, 0.0, 0.00017550568697973033, 0.0, 0.0, 0.0, 0.0014302354785305504)",-0.0005437363996122152,0.0004835524950036639,0.00023593929459150837,"(0.001, 0.0, 0.0, 0.0, 0.001, 0.0, 0.0, 0.0, 0.001)",-0.0030173199232318153,0.009227811101769587,0.011326833093599118,"(0.001, 0.0, 0.0, 0.0, 0.001, 0.0, 0.0, 0.0, 0.001)"
2024/05/14/15:11:18.533009,59509,1715713878,532856584,gps,0.016608165088600878,-0.010432902997956215,-0.9446630449743656,0.32745542421402163,"(0.00017365151627147472, 0.0, 0.0, 0.0, 0.00017550568697973033, 0.0, 0.0, 0.0, 0.0014302354785305504)",-0.00030328922411280664,-0.00014026385355636543,-0.0007263038617499276,"(0.001, 0.0, 0.0, 0.0, 0.001, 0.0, 0.0, 0.0, 0.001)",-0.003188963547724189,0.003028854742807448,-0.0123796186369781,"(0.001, 0.0, 0.0, 0.0, 0.001, 0.0, 0.0, 0.0, 0.001)"
2024/05/14/15:11:18.541556,59510,1715713878,541426444,gps,0.016608165088600878,-0.010432902997956215,-0.9446630449743656,0.32745542421402163,"(0.00017365151627147472, 0.0, 0.0, 0.0, 0.00017550568697973033, 0.0, 0.0, 0.0, 0.0014302354785305504)",-0.0009280587452551902,-0.00015788541225966995,-0.00019777761444832862,"(0.001, 0.0, 0.0, 0.0, 0.001, 0.0, 0.0, 0.0, 0.001)",-0.0009290913288449866,-0.007300994691650599,0.021137855344367934,"(0.001, 0.0, 0.0, 0.0, 0.001, 0.0, 0.0, 0.0, 0.001)"
2024/05/14/15:11:18.560028,59511,1715713878,559930933,gps,0.01661713548208348,-0.010420711256402218,-0.944662001945138,0.32745836630980246,"(0.00017365151627147472, 0.0, 0.0, 0.0, 0.00017550568697973033, 0.0, 0.0, 0.0, 0.0014302354785305504)",-0.000732272056518497,-0.0005506876815791459,-0.00010208906831580438,"(0.001, 0.0, 0.0, 0.0, 0.001, 0.0, 0.0, 0.0, 0.001)",-0.013594592506650422,-0.010141512181599942,0.009480016579330452,"(0.001, 0.0, 0.0, 0.0, 0.001, 0.0, 0.0, 0.0, 0.001)"
2024/05/14/15:11:18.564683,59512,1715713878,564626969,gps,0.01661713548208348,-0.010420711256402218,-0.944662001945138,0.32745836630980246,"(0.00017365151627147472, 0.0, 0.0, 0.0, 0.00017550568697973033, 0.0, 0.0, 0.0, 0.0014302354785305504)",-0.00011176273556262033,0.0007165189103909272,-2.4082239954187038e-05,"(0.001, 0.0, 0.0, 0.0, 0.001, 0.0, 0.0, 0.0, 0.001)",0.0018339128156395386,-0.009342310000623699,-0.018097538886378817,"(0.001, 0.0, 0.0, 0.0, 0.001, 0.0, 0.0, 0.0, 0.001)"
2024/05/14/15:11:18.572928,59513,1715713878,572826895,gps,0.016618483124002638,-0.010430212373483828,-0.9446607528387695,0.3274615988701435,"(0.00017365151627147472, 0.0, 0.0, 0.0, 0.00017550568697973033, 0.0, 0.0, 0.0, 0.0014302354785305504)",-0.0005042563329332981,0.0006432541103175885,-0.00010848884258616631,"(0.001, 0.0, 0.0, 0.0, 0.001, 0.0, 0.0, 0.0, 0.001)",0.0028813270800016433,-0.020855365528748,-0.014633641649773146,"(0.001, 0.0, 0.0, 0.0, 0.001, 0.0, 0.0, 0.0, 0.001)"
2024/05/14/15:11:18.581436,59514,1715713878,581344917,gps,0.016618483124002638,-0.010430212373483828,-0.9446607528387695,0.3274615988701435,"(0.00017365151627147472, 0.0, 0.0, 0.0, 0.00017550568697973033, 0.0, 0.0, 0.0, 0.0014302354785305504)",-0.00046707917009518595,0.00021611367709183134,-6.4000645392573635e-06,"(0.001, 0.0, 0.0, 0.0, 0.001, 0.0, 0.0, 0.0, 0.001)",0.007893591384517642,-0.00900248818449456,-0.0066742306677930845,"(0.001, 0.0, 0.0, 0.0, 0.001, 0.0, 0.0, 0.0, 0.001)"
2024/05/14/15:11:18.592635,59515,1715713878,592554162,gps,0.01661314198261323,-0.010437233894434466,-0.9446622873728847,0.32745721930891625,"(0.00017365151627147472, 0.0, 0.0, 0.0, 0.00017550568697973033, 0.0, 0.0, 0.0, 0.0014302354785305504)",0.00047249042256798505,0.00022447132854027532,-8.960698237657315e-05,"(0.001, 0.0, 0.0, 0.0, 0.001, 0.0, 0.0, 0.0, 0.001)",-0.004421704903110748,-0.022153886129408162,-0.0027389463825605274,"(0.001, 0.0, 0.0, 0.0, 0.001, 0.0, 0.0, 0.0, 0.001)"
2024/05/14/15:11:18.602474,59516,1715713878,602402838,gps,0.01661314198261323,-0.010437233894434466,-0.9446622873728847,0.32745721930891625,"(0.00017365151627147472, 0.0, 0.0, 0.0, 0.00017550568697973033, 0.0, 0.0, 0.0, 0.0014302354785305504)",0.0013199801788734641,0.0009963588073663762,0.00025034293117433964,"(0.001, 0.0, 0.0, 0.0, 0.001, 0.0, 0.0, 0.0, 0.001)",-0.012899218979912933,-0.05002490479705628,-0.012751699320135357,"(0.001, 0.0, 0.0, 0.0, 0.001, 0.0, 0.0, 0.0, 0.001)"
2024/05/14/15:11:18.618957,59517,1715713878,618840189,gps,0.01660885111306593,-0.010442260850504868,-0.9446631301410409,0.32745484544462755,"(0.00017365151627147472, 0.0, 0.0, 0.0, 0.00017550568697973033, 0.0, 0.0, 0.0, 0.0014302354785305504)",0.00047767041361874914,0.00018581726608397298,-0.0003444292350970436,"(0.001, 0.0, 0.0, 0.0, 0.001, 0.0, 0.0, 0.0, 0.001)",0.014690771070947477,-0.01623476351603051,0.009872422115414583,"(0.001, 0.0, 0.0, 0.0, 0.001, 0.0, 0.0, 0.0, 0.001)"
2024/05/14/15:11:18.621779,59518,1715713878,621370204,gps,0.01660885111306593,-0.010442260850504868,-0.9446631301410409,0.32745484544462755,"(0.00017365151627147472, 0.0, 0.0, 0.0, 0.00017550568697973033, 0.0, 0.0, 0.0, 0.0014302354785305504)",-8.793601287209451e-05,0.0004647488703467228,-0.000896716909189028,"(0.001, 0.0, 0.0, 0.0, 0.001, 0.0, 0.0, 0.0, 0.001)",-0.0007628019873365516,-0.004838279299265133,-0.012428434146813034,"(0.001, 0.0, 0.0, 0.0, 0.001, 0.0, 0.0, 0.0, 0.001)"
2024/05/14/15:11:18.634371,59519,1715713878,633956074,gps,0.01662645661909702,-0.010450450631255282,-0.944664525743782,0.327449664564147,"(0.00017365151627147472, 0.0, 0.0, 0.0, 0.00017550568697973033, 0.0, 0.0, 0.0, 0.0014302354785305504)",-0.0006328243823838747,0.0009473949473373777,-0.00032466748419971196,"(0.001, 0.0, 0.0, 0.0, 0.001, 0.0, 0.0, 0.0, 0.001)",-0.003294746311469934,-0.023025440853783743,-0.0035100621076458527,"(0.001, 0.0, 0.0, 0.0, 0.001, 0.0, 0.0, 0.0, 0.001)"
2024/05/14/15:11:18.643337,59520,1715713878,643235916,gps,0.01662645661909702,-0.010450450631255282,-0.944664525743782,0.327449664564147,"(0.00017365151627147472, 0.0, 0.0, 0.0, 0.00017550568697973033, 0.0, 0.0, 0.0, 0.0014302354785305504)",-0.0007136251166665168,-0.00012967790062646723,-0.00020401656385567394,"(0.001, 0.0, 0.0, 0.0, 0.001, 0.0, 0.0, 0.0, 0.001)",0.023357620055411824,-0.009268978347931915,0.015632647366743718,"(0.001, 0.0, 0.0, 0.0, 0.001, 0.0, 0.0, 0.0, 0.001)"
2024/05/14/15:11:18.659137,59521,1715713878,659036092,gps,0.016620389343076775,-0.010443183794028841,-0.9446607928216603,0.32746097336305724,"(0.00017365151627147472, 0.0, 0.0, 0.0, 0.00017550568697973033, 0.0, 0.0, 0.0, 0.0014302354785305504)",0.00032861550410218164,-6.713298499069462e-05,0.0011136180538332899,"(0.001, 0.0, 0.0, 0.0, 0.001, 0.0, 0.0, 0.0, 0.001)",0.0028857370753928593,-0.00467156302616644,-0.021004159399142193,"(0.001, 0.0, 0.0, 0.0, 0.001, 0.0, 0.0, 0.0, 0.001)"
2024/05/14/15:11:18.662716,59522,1715713878,662579947,gps,0.016620389343076775,-0.010443183794028841,-0.9446607928216603,0.32746097336305724,"(0.00017365151627147472, 0.0, 0.0, 0.0, 0.00017550568697973033, 0.0, 0.0, 0.0, 0.0014302354785305504)",0.00024355515221777846,6.881262835913104e-05,0.00020889907246713165,"(0.001, 0.0, 0.0, 0.0, 0.001, 0.0, 0.0, 0.0, 0.001)",-0.014940538283119574,-0.015230254626509558,-0.005686680650167977,"(0.001, 0.0, 0.0, 0.0, 0.001, 0.0, 0.0, 0.0, 0.001)"
2024/05/14/15:11:18.672674,59523,1715713878,672573726,gps,0.016600792625776312,-0.010443579820675265,-0.9446630881784486,0.32745533307289654,"(0.00017365151627147472, 0.0, 0.0, 0.0, 0.00017550568697973033, 0.0, 0.0, 0.0, 0.0014302354785305504)",0.0011644784179882493,-0.00025086198634506206,-0.00012496974342979334,"(0.001, 0.0, 0.0, 0.0, 0.001, 0.0, 0.0, 0.0, 0.001)",0.001743700403900671,-0.019624365187580203,0.010947620130550275,"(0.001, 0.0, 0.0, 0.0, 0.001, 0.0, 0.0, 0.0, 0.001)"
2024/05/14/15:11:18.682285,59524,1715713878,682192830,gps,0.016600792625776312,-0.010443579820675265,-0.9446630881784486,0.32745533307289654,"(0.00017365151627147472, 0.0, 0.0, 0.0, 0.00017550568697973033, 0.0, 0.0, 0.0, 0.0014302354785305504)",0.0003647564884804327,0.00027774972460372694,-0.0006782979046703304,"(0.001, 0.0, 0.0, 0.0, 0.001, 0.0, 0.0, 0.0, 0.001)",0.006946188333963394,-0.016958131846720903,0.004447755544906725,"(0.001, 0.0, 0.0, 0.0, 0.001, 0.0, 0.0, 0.0, 0.001)"
2024/05/14/15:11:18.694089,59525,1715713878,693553436,gps,0.01660567491168346,-0.010449983739014087,-0.9446616293538104,0.3274590897000511,"(0.00017365151627147472, 0.0, 0.0, 0.0, 0.00017550568697973033, 0.0, 0.0, 0.0, 0.0014302354785305504)",0.001037177495296037,0.00021179723202912243,0.0003377096873708044,"(0.001, 0.0, 0.0, 0.0, 0.001, 0.0, 0.0, 0.0, 0.001)",-0.01960279156111859,-0.02270835537342655,0.0040325553512166445,"(0.001, 0.0, 0.0, 0.0, 0.001, 0.0, 0.0, 0.0, 0.001)"
2024/05/14/15:11:18.701377,59526,1715713878,701261287,gps,0.01660567491168346,-0.010449983739014087,-0.9446616293538104,0.3274590897000511,"(0.00017365151627147472, 0.0, 0.0, 0.0, 0.00017550568697973033, 0.0, 0.0, 0.0, 0.0014302354785305504)",3.015788176166901e-05,-0.000161019498014389,0.0003368291010559533,"(0.001, 0.0, 0.0, 0.0, 0.001, 0.0, 0.0, 0.0, 0.001)",0.0026957969872785045,-0.0034017941006878522,-0.0026205039268843446,"(0.001, 0.0, 0.0, 0.0, 0.001, 0.0, 0.0, 0.0, 0.001)"
2024/05/14/15:11:18.712548,59527,1715713878,712465177,gps,0.016613801270683643,-0.010442083731707588,-0.9446590391738808,0.3274664016380283,"(0.00017365151627147472, 0.0, 0.0, 0.0, 0.00017550568697973033, 0.0, 0.0, 0.0, 0.0014302354785305504)",-0.0003904211222064396,-1.7897378806886874e-05,0.0007216621711844479,"(0.001, 0.0, 0.0, 0.0, 0.001, 0.0, 0.0, 0.0, 0.001)",-0.005699714524873362,-0.011189024349440285,0.010677987400112002,"(0.001, 0.0, 0.0, 0.0, 0.001, 0.0, 0.0, 0.0, 0.001)"
2024/05/14/15:11:18.722885,59528,1715713878,722769599,gps,0.016613801270683643,-0.010442083731707588,-0.9446590391738808,0.3274664016380283,"(0.00017365151627147472, 0.0, 0.0, 0.0, 0.00017550568697973033, 0.0, 0.0, 0.0, 0.0014302354785305504)",-0.00013132686538923927,0.0006672802104106168,-0.00043195664640171015,"(0.001, 0.0, 0.0, 0.0, 0.001, 0.0, 0.0, 0.0, 0.001)",-0.018301830778870806,0.000336938656810357,-0.017133075803066413,"(0.001, 0.0, 0.0, 0.0, 0.001, 0.0, 0.0, 0.0, 0.001)"
2024/05/14/15:11:18.734638,59529,1715713878,732412907,gps,0.016609930347958598,-0.010444785655722785,-0.9446598572139118,0.32746415198466194,"(0.00017365151627147472, 0.0, 0.0, 0.0, 0.00017550568697973033, 0.0, 0.0, 0.0, 0.0014302354785305504)",0.00012753372868016678,-7.74445094241171e-05,0.0005625288704067319,"(0.001, 0.0, 0.0, 0.0, 0.001, 0.0, 0.0, 0.0, 0.001)",0.004942408278797365,0.002364694228944876,0.004865366206230565,"(0.001, 0.0, 0.0, 0.0, 0.001, 0.0, 0.0, 0.0, 0.001)"
2024/05/14/15:11:18.741685,59530,1715713878,741566748,gps,0.016609930347958598,-0.010444785655722785,-0.9446598572139118,0.32746415198466194,"(0.00017365151627147472, 0.0, 0.0, 0.0, 0.00017550568697973033, 0.0, 0.0, 0.0, 0.0014302354785305504)",0.0008215929978051346,-0.0003730913760216714,0.00016937495030551347,"(0.001, 0.0, 0.0, 0.0, 0.001, 0.0, 0.0, 0.0, 0.001)",0.004045022752480316,-0.006716352724230893,-0.009746788160682536,"(0.001, 0.0, 0.0, 0.0, 0.001, 0.0, 0.0, 0.0, 0.001)"
2024/05/14/15:11:18.756303,59531,1715713878,756234816,gps,0.0166005491936873,-0.010454797901951689,-0.9446650392987104,0.32744935867102143,"(0.00017365151627147472, 0.0, 0.0, 0.0, 0.00017550568697973033, 0.0, 0.0, 0.0, 0.0014302354785305504)",0.0007304329473055805,0.0005410101596116571,-0.0007843875908445511,"(0.001, 0.0, 0.0, 0.0, 0.001, 0.0, 0.0, 0.0, 0.001)",-0.01143131976269312,0.007133331177088326,-0.019109021851613697,"(0.001, 0.0, 0.0, 0.0, 0.001, 0.0, 0.0, 0.0, 0.001)"
2024/05/14/15:11:18.764298,59532,1715713878,764219845,gps,0.0166005491936873,-0.010454797901951689,-0.9446650392987104,0.32744935867102143,"(0.00017365151627147472, 0.0, 0.0, 0.0, 0.00017550568697973033, 0.0, 0.0, 0.0, 0.0014302354785305504)",-0.000649398066071903,-7.535564592888758e-05,-0.000502523439452943,"(0.001, 0.0, 0.0, 0.0, 0.001, 0.0, 0.0, 0.0, 0.001)",0.003963191747127442,0.0034383789537759317,0.0020015514142952694,"(0.001, 0.0, 0.0, 0.0, 0.001, 0.0, 0.0, 0.0, 0.001)"
2024/05/14/15:11:18.772580,59533,1715713878,772407058,gps,0.01659627024733267,-0.010456039893623039,-0.9446650154601182,0.3274496046865153,"(0.00017365151627147472, 0.0, 0.0, 0.0, 0.00017550568697973033, 0.0, 0.0, 0.0, 0.0014302354785305504)",0.0018710852128140177,0.0006683244207688879,-0.0005619685739868675,"(0.001, 0.0, 0.0, 0.0, 0.001, 0.0, 0.0, 0.0, 0.001)",-0.008534342261179611,0.015029456244140671,-0.001665137955304322,"(0.001, 0.0, 0.0, 0.0, 0.001, 0.0, 0.0, 0.0, 0.001)"
2024/05/14/15:11:18.782335,59534,1715713878,782254525,gps,0.01659627024733267,-0.010456039893623039,-0.9446650154601182,0.3274496046865153,"(0.00017365151627147472, 0.0, 0.0, 0.0, 0.00017550568697973033, 0.0, 0.0, 0.0, 0.0014302354785305504)",0.000510819870727356,-3.9836318054777254e-05,-6.776629798435216e-05,"(0.001, 0.0, 0.0, 0.0, 0.001, 0.0, 0.0, 0.0, 0.001)",0.0023321115893186876,0.014143173296151102,0.0023264664506398957,"(0.001, 0.0, 0.0, 0.0, 0.001, 0.0, 0.0, 0.0, 0.001)"
2024/05/14/15:11:18.793483,59535,1715713878,793356730,gps,0.01659517304094168,-0.010462180323153068,-0.9446647902206176,0.3274501139594605,"(0.00017365151627147472, 0.0, 0.0, 0.0, 0.00017550568697973033, 0.0, 0.0, 0.0, 0.0014302354785305504)",0.0006299493753010035,0.0006653278231799765,-0.000180096177094575,"(0.001, 0.0, 0.0, 0.0, 0.001, 0.0, 0.0, 0.0, 0.001)",-0.0022481180846135986,0.005370712536670783,-0.007571942300128901,"(0.001, 0.0, 0.0, 0.0, 0.001, 0.0, 0.0, 0.0, 0.001)"
2024/05/14/15:11:18.802178,59536,1715713878,802099262,gps,0.01659517304094168,-0.010462180323153068,-0.9446647902206176,0.3274501139594605,"(0.00017365151627147472, 0.0, 0.0, 0.0, 0.00017550568697973033, 0.0, 0.0, 0.0, 0.0014302354785305504)",-0.0003168713752765783,0.0003863960312420346,-7.608726093290223e-05,"(0.001, 0.0, 0.0, 0.0, 0.001, 0.0, 0.0, 0.0, 0.001)",-0.0036944566256430756,0.0020877893827728,0.02063521938037822,"(0.001, 0.0, 0.0, 0.0, 0.001, 0.0, 0.0, 0.0, 0.001)"
2024/05/14/15:11:18.818197,59537,1715713878,818137945,gps,0.016588383946014064,-0.010461921299144987,-0.944668315367162,0.32744029633225996,"(0.00017365151627147472, 0.0, 0.0, 0.0, 0.00017550568697973033, 0.0, 0.0, 0.0, 0.0014302354785305504)",0.0016328264165728131,-8.489668524750172e-05,-0.00076166693114795,"(0.001, 0.0, 0.0, 0.0, 0.001, 0.0, 0.0, 0.0, 0.001)",-0.0019684288422782054,0.009326338387333218,-0.042934899764848246,"(0.001, 0.0, 0.0, 0.0, 0.001, 0.0, 0.0, 0.0, 0.001)"
2024/05/14/15:11:18.821591,59538,1715713878,821472503,gps,0.016588383946014064,-0.010461921299144987,-0.944668315367162,0.32744029633225996,"(0.00017365151627147472, 0.0, 0.0, 0.0, 0.00017550568697973033, 0.0, 0.0, 0.0, 0.0014302354785305504)",0.00023630384150967235,-0.0006196385004270149,0.00016833336860935932,"(0.001, 0.0, 0.0, 0.0, 0.001, 0.0, 0.0, 0.0, 0.001)",0.014893007854385878,0.011895909329515685,0.01138709254932681,"(0.001, 0.0, 0.0, 0.0, 0.001, 0.0, 0.0, 0.0, 0.001)"
2024/05/14/15:11:18.834382,59539,1715713878,834262158,gps,0.01659207745076043,-0.010447889800769376,-0.9446675303347737,0.3274428220251263,"(0.00017365151627147472, 0.0, 0.0, 0.0, 0.00017550568697973033, 0.0, 0.0, 0.0, 0.0014302354785305504)",-2.4745374538143278e-05,-0.00036369010945855394,-0.000493163861549227,"(0.001, 0.0, 0.0, 0.0, 0.001, 0.0, 0.0, 0.0, 0.001)",0.0048179528278736936,0.006424835025243515,0.01863147034114095,"(0.001, 0.0, 0.0, 0.0, 0.001, 0.0, 0.0, 0.0, 0.001)"
2024/05/14/15:11:18.843465,59540,1715713878,843365700,gps,0.01659207745076043,-0.010447889800769376,-0.9446675303347737,0.3274428220251263,"(0.00017365151627147472, 0.0, 0.0, 0.0, 0.00017550568697973033, 0.0, 0.0, 0.0, 0.0014302354785305504)",0.0006766811509320233,-0.0005905261482114409,0.0004791580524378426,"(0.001, 0.0, 0.0, 0.0, 0.001, 0.0, 0.0, 0.0, 0.001)",0.0030623848733339256,0.01827808899184348,-0.00800073537400007,"(0.001, 0.0, 0.0, 0.0, 0.001, 0.0, 0.0, 0.0, 0.001)"
2024/05/14/15:11:18.919456,59541,1715713878,919339257,gps,0.01658762565785657,-0.010450498082909918,-0.9446657859536901,0.3274479968076622,"(0.00017169187652600008, 0.0, 0.0, 0.0, 0.00017355111571793272, 0.0, 0.0, 0.0, 0.0014630635852219687)",0.00020626204273519797,7.173867271160356e-06,-0.00011769207913736924,"(0.001, 0.0, 0.0, 0.0, 0.001, 0.0, 0.0, 0.0, 0.001)",-0.018618596095040785,0.004744759376328462,-0.002123319457657215,"(0.001, 0.0, 0.0, 0.0, 0.001, 0.0, 0.0, 0.0, 0.001)"
