time,.header.seq,.header.stamp.secs,.header.stamp.nsecs,.header.frame_id,.status.status,.status.service,.latitude,.longitude,.altitude,.position_covariance,.position_covariance_type
2024/05/14/15:11:17.459152,29665,1715713877,459067422,gps,0,0,34.81516552916822,-82.32674519605033,284.12000323086977,"(0.8154687394507256, 0.0, 0.0, 0.0, 1.536277323526761, 0.0, 0.0, 0.0, 5.465431584463886)",2
2024/05/14/15:11:17.472314,29666,1715713877,472158113,gps,0,0,34.81516559435299,-82.32674543759096,284.11560414917767,"(0.8174042481901012, 0.0, 0.0, 0.0, 1.537166056164608, 0.0, 0.0, 0.0, 5.467112775468422)",2
2024/05/14/15:11:17.492105,29667,1715713877,491975126,gps,0,0,34.81516559435299,-82.32674543759096,284.11560414917767,"(0.8174042481901012, 0.0, 0.0, 0.0, 1.537166056164608, 0.0, 0.0, 0.0, 5.467112775468422)",2
2024/05/14/15:11:17.513603,29668,1715713877,513524769,gps,0,0,34.81516559435299,-82.32674543759096,284.11560414917767,"(0.8174042481901012, 0.0, 0.0, 0.0, 1.537166056164608, 0.0, 0.0, 0.0, 5.467112775468422)",2
2024/05/14/15:11:17.533138,29669,1715713877,533018615,gps,0,0,34.81516559435299,-82.32674543759096,284.11560414917767,"(0.8174042481901012, 0.0, 0.0, 0.0, 1.537166056164608, 0.0, 0.0, 0.0, 5.467112775468422)",2
2024/05/14/15:11:17.555660,29670,1715713877,555547649,gps,0,0,34.81516559435299,-82.32674543759096,284.11560414917767,"(0.8174042481901012, 0.0, 0.0, 0.0, 1.537166056164608, 0.0, 0.0, 0.0, 5.467112775468422)",2
2024/05/14/15:11:17.572398,29671,1715713877,572301796,gps,0,0,34.815165835518165,-82.32674564780062,284.14045252557844,"(0.8199645670557096, 0.0, 0.0, 0.0, 1.539265513486555, 0.0, 0.0, 0.0, 5.482516387100077)",2
2024/05/14/15:11:17.592402,29672,1715713877,592302723,gps,0,0,34.815165835518165,-82.32674564780062,284.14045252557844,"(0.8199645670557096, 0.0, 0.0, 0.0, 1.539265513486555, 0.0, 0.0, 0.0, 5.482516387100077)",2
2024/05/14/15:11:17.614762,29673,1715713877,613812721,gps,0,0,34.815165835518165,-82.32674564780062,284.14045252557844,"(0.8199645670557096, 0.0, 0.0, 0.0, 1.539265513486555, 0.0, 0.0, 0.0, 5.482516387100077)",2
2024/05/14/15:11:17.637041,29674,1715713877,634465343,gps,0,0,34.815165835518165,-82.32674564780062,284.14045252557844,"(0.8199645670557096, 0.0, 0.0, 0.0, 1.539265513486555, 0.0, 0.0, 0.0, 5.482516387100077)",2
2024/05/14/15:11:17.658671,29675,1715713877,657761013,gps,0,0,34.815165835518165,-82.32674564780062,284.14045252557844,"(0.8199645670557096, 0.0, 0.0, 0.0, 1.539265513486555, 0.0, 0.0, 0.0, 5.482516387100077)",2
2024/05/14/15:11:17.676680,29676,1715713877,671986879,gps,0,0,34.815165756864104,-82.32674539489321,284.13026435673237,"(0.8166240167990715, 0.0, 0.0, 0.0, 1.5368252513498106, 0.0, 0.0, 0.0, 5.4786695913028325)",2
2024/05/14/15:11:17.693355,29677,1715713877,693052015,gps,0,0,34.815165756864104,-82.32674539489321,284.13026435673237,"(0.8166240167990715, 0.0, 0.0, 0.0, 1.5368252513498106, 0.0, 0.0, 0.0, 5.4786695913028325)",2
2024/05/14/15:11:17.712155,29678,1715713877,712004361,gps,0,0,34.815165756864104,-82.32674539489321,284.13026435673237,"(0.8166240167990715, 0.0, 0.0, 0.0, 1.5368252513498106, 0.0, 0.0, 0.0, 5.4786695913028325)",2
2024/05/14/15:11:17.732123,29679,1715713877,731919918,gps,0,0,34.815165756864104,-82.32674539489321,284.13026435673237,"(0.8166240167990715, 0.0, 0.0, 0.0, 1.5368252513498106, 0.0, 0.0, 0.0, 5.4786695913028325)",2
2024/05/14/15:11:17.754273,29680,1715713877,754157582,gps,0,0,34.815165756864104,-82.32674539489321,284.13026435673237,"(0.8166240167990715, 0.0, 0.0, 0.0, 1.5368252513498106, 0.0, 0.0, 0.0, 5.4786695913028325)",2
2024/05/14/15:11:17.772205,29681,1715713877,772017363,gps,0,0,34.815165672217546,-82.32674546789202,284.11789540946484,"(0.818413357862724, 0.0, 0.0, 0.0, 1.537840091921737, 0.0, 0.0, 0.0, 5.480059238430442)",2
2024/05/14/15:11:17.792523,29682,1715713877,792389472,gps,0,0,34.815165672217546,-82.32674546789202,284.11789540946484,"(0.818413357862724, 0.0, 0.0, 0.0, 1.537840091921737, 0.0, 0.0, 0.0, 5.480059238430442)",2
2024/05/14/15:11:17.819784,29683,1715713877,819546585,gps,0,0,34.815165672217546,-82.32674546789202,284.11789540946484,"(0.818413357862724, 0.0, 0.0, 0.0, 1.537840091921737, 0.0, 0.0, 0.0, 5.480059238430442)",2
2024/05/14/15:11:17.832158,29684,1715713877,832013522,gps,0,0,34.815165672217546,-82.32674546789202,284.11789540946484,"(0.818413357862724, 0.0, 0.0, 0.0, 1.537840091921737, 0.0, 0.0, 0.0, 5.480059238430442)",2
2024/05/14/15:11:17.889939,29685,1715713877,889809589,gps,0,0,34.815165672217546,-82.32674546789202,284.11789540946484,"(0.818413357862724, 0.0, 0.0, 0.0, 1.537840091921737, 0.0, 0.0, 0.0, 5.480059238430442)",2
2024/05/14/15:11:17.914633,29686,1715713877,914544920,gps,0,0,34.81516558635234,-82.32674536270744,284.11104419082403,"(0.8182301409651451, 0.0, 0.0, 0.0, 1.5391217584749484, 0.0, 0.0, 0.0, 5.481425617510979)",2
2024/05/14/15:11:17.927494,29687,1715713877,927350590,gps,0,0,34.81516558635234,-82.32674536270744,284.11104419082403,"(0.8182301409651451, 0.0, 0.0, 0.0, 1.5391217584749484, 0.0, 0.0, 0.0, 5.481425617510979)",2
2024/05/14/15:11:17.931755,29688,1715713877,931641712,gps,0,0,34.81516558635234,-82.32674536270744,284.11104419082403,"(0.8182301409651451, 0.0, 0.0, 0.0, 1.5391217584749484, 0.0, 0.0, 0.0, 5.481425617510979)",2
2024/05/14/15:11:17.948180,29689,1715713877,948053155,gps,0,0,34.81516558635234,-82.32674536270744,284.11104419082403,"(0.8182301409651451, 0.0, 0.0, 0.0, 1.5391217584749484, 0.0, 0.0, 0.0, 5.481425617510979)",2
2024/05/14/15:11:17.970340,29690,1715713877,970209780,gps,0,0,34.81516558635234,-82.32674536270744,284.11104419082403,"(0.8182301409651451, 0.0, 0.0, 0.0, 1.5391217584749484, 0.0, 0.0, 0.0, 5.481425617510979)",2
2024/05/14/15:11:17.988150,29691,1715713877,988019213,gps,0,0,34.81516551744693,-82.326745492183,284.1132023651153,"(0.8202409327914815, 0.0, 0.0, 0.0, 1.5396843935218953, 0.0, 0.0, 0.0, 5.482990911323725)",2
2024/05/14/15:11:17.995414,29692,1715713877,995319370,gps,0,0,34.81516551744693,-82.326745492183,284.1132023651153,"(0.8202409327914815, 0.0, 0.0, 0.0, 1.5396843935218953, 0.0, 0.0, 0.0, 5.482990911323725)",2
2024/05/14/15:11:18.012418,29693,1715713878,12270509,gps,0,0,34.81516551744693,-82.326745492183,284.1132023651153,"(0.8202409327914815, 0.0, 0.0, 0.0, 1.5396843935218953, 0.0, 0.0, 0.0, 5.482990911323725)",2
2024/05/14/15:11:18.032506,29694,1715713878,32351081,gps,0,0,34.81516551744693,-82.326745492183,284.1132023651153,"(0.8202409327914815, 0.0, 0.0, 0.0, 1.5396843935218953, 0.0, 0.0, 0.0, 5.482990911323725)",2
2024/05/14/15:11:18.063244,29695,1715713878,63114326,gps,0,0,34.81516551744693,-82.326745492183,284.1132023651153,"(0.8202409327914815, 0.0, 0.0, 0.0, 1.5396843935218953, 0.0, 0.0, 0.0, 5.482990911323725)",2
2024/05/14/15:11:18.072301,29696,1715713878,72126410,gps,0,0,34.815165361014145,-82.32674516826089,284.0805066889152,"(0.8178429619093208, 0.0, 0.0, 0.0, 1.540532977686837, 0.0, 0.0, 0.0, 5.4828915386688095)",2
2024/05/14/15:11:18.092623,29697,1715713878,92463527,gps,0,0,34.815165361014145,-82.32674516826089,284.0805066889152,"(0.8178429619093208, 0.0, 0.0, 0.0, 1.540532977686837, 0.0, 0.0, 0.0, 5.4828915386688095)",2
2024/05/14/15:11:18.112298,29698,1715713878,112147829,gps,0,0,34.815165361014145,-82.32674516826089,284.0805066889152,"(0.8178429619093208, 0.0, 0.0, 0.0, 1.540532977686837, 0.0, 0.0, 0.0, 5.4828915386688095)",2
2024/05/14/15:11:18.132123,29699,1715713878,131910466,gps,0,0,34.815165361014145,-82.32674516826089,284.0805066889152,"(0.8178429619093208, 0.0, 0.0, 0.0, 1.540532977686837, 0.0, 0.0, 0.0, 5.4828915386688095)",2
2024/05/14/15:11:18.158237,29700,1715713878,158026676,gps,0,0,34.815165361014145,-82.32674516826089,284.0805066889152,"(0.8178429619093208, 0.0, 0.0, 0.0, 1.540532977686837, 0.0, 0.0, 0.0, 5.4828915386688095)",2
2024/05/14/15:11:18.172214,29701,1715713878,172033441,gps,0,0,34.81516554767118,-82.32674632543063,284.11596562340856,"(0.8293278503883563, 0.0, 0.0, 0.0, 1.5433644647560527, 0.0, 0.0, 0.0, 5.485694416267734)",2
2024/05/14/15:11:18.192049,29702,1715713878,191915777,gps,0,0,34.81516554767118,-82.32674632543063,284.11596562340856,"(0.8293278503883563, 0.0, 0.0, 0.0, 1.5433644647560527, 0.0, 0.0, 0.0, 5.485694416267734)",2
2024/05/14/15:11:18.212507,29703,1715713878,212384027,gps,0,0,34.81516554767118,-82.32674632543063,284.11596562340856,"(0.8293278503883563, 0.0, 0.0, 0.0, 1.5433644647560527, 0.0, 0.0, 0.0, 5.485694416267734)",2
2024/05/14/15:11:18.232529,29704,1715713878,232367974,gps,0,0,34.81516554767118,-82.32674632543063,284.11596562340856,"(0.8293278503883563, 0.0, 0.0, 0.0, 1.5433644647560527, 0.0, 0.0, 0.0, 5.485694416267734)",2
2024/05/14/15:11:18.260549,29705,1715713878,260400101,gps,0,0,34.81516554767118,-82.32674632543063,284.11596562340856,"(0.8293278503883563, 0.0, 0.0, 0.0, 1.5433644647560527, 0.0, 0.0, 0.0, 5.485694416267734)",2
2024/05/14/15:11:18.272397,29706,1715713878,272233453,gps,0,0,34.81516524794071,-82.32674534275803,284.06594912242144,"(0.8188143713965133, 0.0, 0.0, 0.0, 1.5368663350964198, 0.0, 0.0, 0.0, 5.4758818990749205)",2
2024/05/14/15:11:18.292079,29707,1715713878,291861424,gps,0,0,34.81516524794071,-82.32674534275803,284.06594912242144,"(0.8188143713965133, 0.0, 0.0, 0.0, 1.5368663350964198, 0.0, 0.0, 0.0, 5.4758818990749205)",2
2024/05/14/15:11:18.312042,29708,1715713878,311909978,gps,0,0,34.81516524794071,-82.32674534275803,284.06594912242144,"(0.8188143713965133, 0.0, 0.0, 0.0, 1.5368663350964198, 0.0, 0.0, 0.0, 5.4758818990749205)",2
2024/05/14/15:11:18.332359,29709,1715713878,332227310,gps,0,0,34.81516524794071,-82.32674534275803,284.06594912242144,"(0.8188143713965133, 0.0, 0.0, 0.0, 1.5368663350964198, 0.0, 0.0, 0.0, 5.4758818990749205)",2
2024/05/14/15:11:18.363011,29710,1715713878,362869292,gps,0,0,34.81516524794071,-82.32674534275803,284.06594912242144,"(0.8188143713965133, 0.0, 0.0, 0.0, 1.5368663350964198, 0.0, 0.0, 0.0, 5.4758818990749205)",2
2024/05/14/15:11:18.372658,29711,1715713878,372486321,gps,0,0,34.815165065399945,-82.32674494651859,284.04480721615255,"(0.8155397899531671, 0.0, 0.0, 0.0, 1.5353870753215801, 0.0, 0.0, 0.0, 5.473862437213256)",2
2024/05/14/15:11:18.392325,29712,1715713878,392193671,gps,0,0,34.815165065399945,-82.32674494651859,284.04480721615255,"(0.8155397899531671, 0.0, 0.0, 0.0, 1.5353870753215801, 0.0, 0.0, 0.0, 5.473862437213256)",2
2024/05/14/15:11:18.412196,29713,1715713878,412043976,gps,0,0,34.815165065399945,-82.32674494651859,284.04480721615255,"(0.8155397899531671, 0.0, 0.0, 0.0, 1.5353870753215801, 0.0, 0.0, 0.0, 5.473862437213256)",2
2024/05/14/15:11:18.432218,29714,1715713878,432046671,gps,0,0,34.815165065399945,-82.32674494651859,284.04480721615255,"(0.8155397899531671, 0.0, 0.0, 0.0, 1.5353870753215801, 0.0, 0.0, 0.0, 5.473862437213256)",2
2024/05/14/15:11:18.458474,29715,1715713878,458369099,gps,0,0,34.815165065399945,-82.32674494651859,284.04480721615255,"(0.8155397899531671, 0.0, 0.0, 0.0, 1.5353870753215801, 0.0, 0.0, 0.0, 5.473862437213256)",2
2024/05/14/15:11:18.474623,29716,1715713878,474503743,gps,0,0,34.81516505758502,-82.3267449851866,284.03202799521387,"(0.8160342148879671, 0.0, 0.0, 0.0, 1.5364484296538308, 0.0, 0.0, 0.0, 5.4750060093807065)",2
2024/05/14/15:11:18.492186,29717,1715713878,492049439,gps,0,0,34.81516505758502,-82.3267449851866,284.03202799521387,"(0.8160342148879671, 0.0, 0.0, 0.0, 1.5364484296538308, 0.0, 0.0, 0.0, 5.4750060093807065)",2
2024/05/14/15:11:18.512337,29718,1715713878,512183793,gps,0,0,34.81516505758502,-82.3267449851866,284.03202799521387,"(0.8160342148879671, 0.0, 0.0, 0.0, 1.5364484296538308, 0.0, 0.0, 0.0, 5.4750060093807065)",2
2024/05/14/15:11:18.532244,29719,1715713878,532077521,gps,0,0,34.81516505758502,-82.3267449851866,284.03202799521387,"(0.8160342148879671, 0.0, 0.0, 0.0, 1.5364484296538308, 0.0, 0.0, 0.0, 5.4750060093807065)",2
2024/05/14/15:11:18.559037,29720,1715713878,558885478,gps,0,0,34.81516505758502,-82.3267449851866,284.03202799521387,"(0.8160342148879671, 0.0, 0.0, 0.0, 1.5364484296538308, 0.0, 0.0, 0.0, 5.4750060093807065)",2
2024/05/14/15:11:18.572448,29721,1715713878,572284956,gps,0,0,34.8151656456297,-82.3267458308407,284.12282160576433,"(0.8197279659008849, 0.0, 0.0, 0.0, 1.5339988860119433, 0.0, 0.0, 0.0, 5.471112774625965)",2
2024/05/14/15:11:18.592120,29722,1715713878,591988388,gps,0,0,34.8151656456297,-82.3267458308407,284.12282160576433,"(0.8197279659008849, 0.0, 0.0, 0.0, 1.5339988860119433, 0.0, 0.0, 0.0, 5.471112774625965)",2
2024/05/14/15:11:18.616428,29723,1715713878,616308453,gps,0,0,34.8151656456297,-82.3267458308407,284.12282160576433,"(0.8197279659008849, 0.0, 0.0, 0.0, 1.5339988860119433, 0.0, 0.0, 0.0, 5.471112774625965)",2
2024/05/14/15:11:18.632392,29724,1715713878,632236643,gps,0,0,34.8151656456297,-82.3267458308407,284.12282160576433,"(0.8197279659008849, 0.0, 0.0, 0.0, 1.5339988860119433, 0.0, 0.0, 0.0, 5.471112774625965)",2
2024/05/14/15:11:18.658124,29725,1715713878,657965124,gps,0,0,34.8151656456297,-82.3267458308407,284.12282160576433,"(0.8197279659008849, 0.0, 0.0, 0.0, 1.5339988860119433, 0.0, 0.0, 0.0, 5.471112774625965)",2
2024/05/14/15:11:18.672064,29726,1715713878,671934420,gps,0,0,34.815165574674495,-82.326745768973,284.1101093739271,"(0.8190505170186988, 0.0, 0.0, 0.0, 1.53474990708618, 0.0, 0.0, 0.0, 5.471300153629329)",2
2024/05/14/15:11:18.693248,29727,1715713878,693067074,gps,0,0,34.815165574674495,-82.326745768973,284.1101093739271,"(0.8190505170186988, 0.0, 0.0, 0.0, 1.53474990708618, 0.0, 0.0, 0.0, 5.471300153629329)",2
2024/05/14/15:11:18.712201,29728,1715713878,712031806,gps,0,0,34.815165574674495,-82.326745768973,284.1101093739271,"(0.8190505170186988, 0.0, 0.0, 0.0, 1.53474990708618, 0.0, 0.0, 0.0, 5.471300153629329)",2
2024/05/14/15:11:18.734632,29729,1715713878,731932617,gps,0,0,34.815165574674495,-82.326745768973,284.1101093739271,"(0.8190505170186988, 0.0, 0.0, 0.0, 1.53474990708618, 0.0, 0.0, 0.0, 5.471300153629329)",2
2024/05/14/15:11:18.754627,29730,1715713878,754539800,gps,0,0,34.815165574674495,-82.326745768973,284.1101093739271,"(0.8190505170186988, 0.0, 0.0, 0.0, 1.53474990708618, 0.0, 0.0, 0.0, 5.471300153629329)",2
2024/05/14/15:11:18.772191,29731,1715713878,772013310,gps,0,0,34.81516531419861,-82.32674538666258,284.06907459069043,"(0.8169514294064015, 0.0, 0.0, 0.0, 1.5336640424366124, 0.0, 0.0, 0.0, 5.4706644164644445)",2
2024/05/14/15:11:18.792504,29732,1715713878,792254100,gps,0,0,34.81516531419861,-82.32674538666258,284.06907459069043,"(0.8169514294064015, 0.0, 0.0, 0.0, 1.5336640424366124, 0.0, 0.0, 0.0, 5.4706644164644445)",2
2024/05/14/15:11:18.817609,29733,1715713878,817520362,gps,0,0,34.81516531419861,-82.32674538666258,284.06907459069043,"(0.8169514294064015, 0.0, 0.0, 0.0, 1.5336640424366124, 0.0, 0.0, 0.0, 5.4706644164644445)",2
2024/05/14/15:11:18.832144,29734,1715713878,832004801,gps,0,0,34.81516531419861,-82.32674538666258,284.06907459069043,"(0.8169514294064015, 0.0, 0.0, 0.0, 1.5336640424366124, 0.0, 0.0, 0.0, 5.4706644164644445)",2
2024/05/14/15:11:18.917188,29735,1715713878,917016917,gps,0,0,34.81516531419861,-82.32674538666258,284.06907459069043,"(0.8169514294064015, 0.0, 0.0, 0.0, 1.5336640424366124, 0.0, 0.0, 0.0, 5.4706644164644445)",2
2024/05/14/15:11:18.943542,29736,1715713878,943302972,gps,0,0,34.81516522463867,-82.32674533685616,284.07314858119935,"(0.8176360942648877, 0.0, 0.0, 0.0, 1.535598312332823, 0.0, 0.0, 0.0, 5.473343685321254)",2
2024/05/14/15:11:18.988633,29737,1715713878,988507497,gps,0,0,34.81516522463867,-82.32674533685616,284.07314858119935,"(0.8176360942648877, 0.0, 0.0, 0.0, 1.535598312332823, 0.0, 0.0, 0.0, 5.473343685321254)",2
2024/05/14/15:11:18.996105,29738,1715713878,996007977,gps,0,0,34.81516522463867,-82.32674533685616,284.07314858119935,"(0.8176360942648877, 0.0, 0.0, 0.0, 1.535598312332823, 0.0, 0.0, 0.0, 5.473343685321254)",2
2024/05/14/15:11:19.006268,29739,1715713879,6184070,gps,0,0,34.81516522463867,-82.32674533685616,284.07314858119935,"(0.8176360942648877, 0.0, 0.0, 0.0, 1.535598312332823, 0.0, 0.0, 0.0, 5.473343685321254)",2
2024/05/14/15:11:19.015159,29740,1715713879,15076129,gps,0,0,34.81516522463867,-82.32674533685616,284.07314858119935,"(0.8176360942648877, 0.0, 0.0, 0.0, 1.535598312332823, 0.0, 0.0, 0.0, 5.473343685321254)",2
2024/05/14/15:11:19.023267,29741,1715713879,23131084,gps,0,0,34.81516522118812,-82.32674521958072,284.06006459798664,"(0.8161834762403011, 0.0, 0.0, 0.0, 1.5334151480129918, 0.0, 0.0, 0.0, 5.469114264909024)",2
2024/05/14/15:11:19.029999,29742,1715713879,29869732,gps,0,0,34.81516522118812,-82.32674521958072,284.06006459798664,"(0.8161834762403011, 0.0, 0.0, 0.0, 1.5334151480129918, 0.0, 0.0, 0.0, 5.469114264909024)",2
2024/05/14/15:11:19.042875,29743,1715713879,42670365,gps,0,0,34.81516522118812,-82.32674521958072,284.06006459798664,"(0.8161834762403011, 0.0, 0.0, 0.0, 1.5334151480129918, 0.0, 0.0, 0.0, 5.469114264909024)",2
2024/05/14/15:11:19.048068,29744,1715713879,47958657,gps,0,0,34.81516522118812,-82.32674521958072,284.06006459798664,"(0.8161834762403011, 0.0, 0.0, 0.0, 1.5334151480129918, 0.0, 0.0, 0.0, 5.469114264909024)",2
2024/05/14/15:11:19.073910,29745,1715713879,73722670,gps,0,0,34.81516522118812,-82.32674521958072,284.06006459798664,"(0.8161834762403011, 0.0, 0.0, 0.0, 1.5334151480129918, 0.0, 0.0, 0.0, 5.469114264909024)",2
2024/05/14/15:11:19.077577,29746,1715713879,77457116,gps,0,0,34.81516551624899,-82.32674587930546,284.0941249728203,"(0.8205199366790374, 0.0, 0.0, 0.0, 1.5334499861115916, 0.0, 0.0, 0.0, 5.469257003495898)",2
2024/05/14/15:11:19.092183,29747,1715713879,92062249,gps,0,0,34.81516551624899,-82.32674587930546,284.0941249728203,"(0.8205199366790374, 0.0, 0.0, 0.0, 1.5334499861115916, 0.0, 0.0, 0.0, 5.469257003495898)",2
2024/05/14/15:11:19.114096,29748,1715713879,113550241,gps,0,0,34.81516551624899,-82.32674587930546,284.0941249728203,"(0.8205199366790374, 0.0, 0.0, 0.0, 1.5334499861115916, 0.0, 0.0, 0.0, 5.469257003495898)",2
2024/05/14/15:11:19.132175,29749,1715713879,132035031,gps,0,0,34.81516551624899,-82.32674587930546,284.0941249728203,"(0.8205199366790374, 0.0, 0.0, 0.0, 1.5334499861115916, 0.0, 0.0, 0.0, 5.469257003495898)",2
2024/05/14/15:11:19.155343,29750,1715713879,155236200,gps,0,0,34.81516551624899,-82.32674587930546,284.0941249728203,"(0.8205199366790374, 0.0, 0.0, 0.0, 1.5334499861115916, 0.0, 0.0, 0.0, 5.469257003495898)",2
2024/05/14/15:11:19.172211,29751,1715713879,172065606,gps,0,0,34.81516539539043,-82.32674545873431,284.07642668206245,"(0.8159239468699333, 0.0, 0.0, 0.0, 1.5305063830894596, 0.0, 0.0, 0.0, 5.464489650801227)",2
2024/05/14/15:11:19.192073,29752,1715713879,191913709,gps,0,0,34.81516539539043,-82.32674545873431,284.07642668206245,"(0.8159239468699333, 0.0, 0.0, 0.0, 1.5305063830894596, 0.0, 0.0, 0.0, 5.464489650801227)",2
2024/05/14/15:11:19.217972,29753,1715713879,217841823,gps,0,0,34.81516539539043,-82.32674545873431,284.07642668206245,"(0.8159239468699333, 0.0, 0.0, 0.0, 1.5305063830894596, 0.0, 0.0, 0.0, 5.464489650801227)",2
2024/05/14/15:11:19.232224,29754,1715713879,232084655,gps,0,0,34.81516539539043,-82.32674545873431,284.07642668206245,"(0.8159239468699333, 0.0, 0.0, 0.0, 1.5305063830894596, 0.0, 0.0, 0.0, 5.464489650801227)",2
2024/05/14/15:11:19.260374,29755,1715713879,260190855,gps,0,0,34.81516539539043,-82.32674545873431,284.07642668206245,"(0.8159239468699333, 0.0, 0.0, 0.0, 1.5305063830894596, 0.0, 0.0, 0.0, 5.464489650801227)",2
2024/05/14/15:11:19.272337,29756,1715713879,272180563,gps,0,0,34.815165357108604,-82.32674539455226,284.06290182471275,"(0.8152340794836768, 0.0, 0.0, 0.0, 1.530461255109131, 0.0, 0.0, 0.0, 5.463616901890646)",2
2024/05/14/15:11:19.292031,29757,1715713879,291875965,gps,0,0,34.815165357108604,-82.32674539455226,284.06290182471275,"(0.8152340794836768, 0.0, 0.0, 0.0, 1.530461255109131, 0.0, 0.0, 0.0, 5.463616901890646)",2
2024/05/14/15:11:19.312198,29758,1715713879,312018639,gps,0,0,34.815165357108604,-82.32674539455226,284.06290182471275,"(0.8152340794836768, 0.0, 0.0, 0.0, 1.530461255109131, 0.0, 0.0, 0.0, 5.463616901890646)",2
2024/05/14/15:11:19.332752,29759,1715713879,332556260,gps,0,0,34.815165357108604,-82.32674539455226,284.06290182471275,"(0.8152340794836768, 0.0, 0.0, 0.0, 1.530461255109131, 0.0, 0.0, 0.0, 5.463616901890646)",2
2024/05/14/15:11:19.359423,29760,1715713879,359173015,gps,0,0,34.815165357108604,-82.32674539455226,284.06290182471275,"(0.8152340794836768, 0.0, 0.0, 0.0, 1.530461255109131, 0.0, 0.0, 0.0, 5.463616901890646)",2
2024/05/14/15:11:19.372191,29761,1715713879,372059265,gps,0,0,34.81516529409694,-82.32674536054861,284.0585620254278,"(0.8157446695631734, 0.0, 0.0, 0.0, 1.5321981297148, 0.0, 0.0, 0.0, 5.465356895636489)",2
2024/05/14/15:11:19.392218,29762,1715713879,392099878,gps,0,0,34.81516529409694,-82.32674536054861,284.0585620254278,"(0.8157446695631734, 0.0, 0.0, 0.0, 1.5321981297148, 0.0, 0.0, 0.0, 5.465356895636489)",2
2024/05/14/15:11:19.416403,29763,1715713879,416249434,gps,0,0,34.81516529409694,-82.32674536054861,284.0585620254278,"(0.8157446695631734, 0.0, 0.0, 0.0, 1.5321981297148, 0.0, 0.0, 0.0, 5.465356895636489)",2
2024/05/14/15:11:19.432493,29764,1715713879,432321261,gps,0,0,34.81516529409694,-82.32674536054861,284.0585620254278,"(0.8157446695631734, 0.0, 0.0, 0.0, 1.5321981297148, 0.0, 0.0, 0.0, 5.465356895636489)",2
2024/05/14/15:11:19.459088,29765,1715713879,458989495,gps,0,0,34.81516529409694,-82.32674536054861,284.0585620254278,"(0.8157446695631734, 0.0, 0.0, 0.0, 1.5321981297148, 0.0, 0.0, 0.0, 5.465356895636489)",2
2024/05/14/15:11:19.472388,29766,1715713879,472243680,gps,0,0,34.815165269278836,-82.32674524809056,284.04788940865546,"(0.8145068481804039, 0.0, 0.0, 0.0, 1.5310506258260972, 0.0, 0.0, 0.0, 5.463860997055292)",2
2024/05/14/15:11:19.492043,29767,1715713879,491906451,gps,0,0,34.815165269278836,-82.32674524809056,284.04788940865546,"(0.8145068481804039, 0.0, 0.0, 0.0, 1.5310506258260972, 0.0, 0.0, 0.0, 5.463860997055292)",2
2024/05/14/15:11:19.512407,29768,1715713879,512235041,gps,0,0,34.815165269278836,-82.32674524809056,284.04788940865546,"(0.8145068481804039, 0.0, 0.0, 0.0, 1.5310506258260972, 0.0, 0.0, 0.0, 5.463860997055292)",2
2024/05/14/15:11:19.532105,29769,1715713879,531954963,gps,0,0,34.815165269278836,-82.32674524809056,284.04788940865546,"(0.8145068481804039, 0.0, 0.0, 0.0, 1.5310506258260972, 0.0, 0.0, 0.0, 5.463860997055292)",2
2024/05/14/15:11:19.554395,29770,1715713879,554196729,gps,0,0,34.815165269278836,-82.32674524809056,284.04788940865546,"(0.8145068481804039, 0.0, 0.0, 0.0, 1.5310506258260972, 0.0, 0.0, 0.0, 5.463860997055292)",2
2024/05/14/15:11:19.573128,29771,1715713879,572929696,gps,0,0,34.81516576451333,-82.3267465992626,284.1154548563063,"(0.8261289388947404, 0.0, 0.0, 0.0, 1.5349862081115049, 0.0, 0.0, 0.0, 5.469273730795976)",2
2024/05/14/15:11:19.592296,29772,1715713879,592159064,gps,0,0,34.81516576451333,-82.3267465992626,284.1154548563063,"(0.8261289388947404, 0.0, 0.0, 0.0, 1.5349862081115049, 0.0, 0.0, 0.0, 5.469273730795976)",2
2024/05/14/15:11:19.613334,29773,1715713879,613185546,gps,0,0,34.81516576451333,-82.3267465992626,284.1154548563063,"(0.8261289388947404, 0.0, 0.0, 0.0, 1.5349862081115049, 0.0, 0.0, 0.0, 5.469273730795976)",2
2024/05/14/15:11:19.632418,29774,1715713879,632243719,gps,0,0,34.81516576451333,-82.3267465992626,284.1154548563063,"(0.8261289388947404, 0.0, 0.0, 0.0, 1.5349862081115049, 0.0, 0.0, 0.0, 5.469273730795976)",2
2024/05/14/15:11:19.658260,29775,1715713879,658151676,gps,0,0,34.81516576451333,-82.3267465992626,284.1154548563063,"(0.8261289388947404, 0.0, 0.0, 0.0, 1.5349862081115049, 0.0, 0.0, 0.0, 5.469273730795976)",2
2024/05/14/15:11:19.672051,29776,1715713879,671915883,gps,0,0,34.81516581234287,-82.32674668990933,284.12055754102767,"(0.8253310161819627, 0.0, 0.0, 0.0, 1.5329847234824143, 0.0, 0.0, 0.0, 5.4657136229962475)",2
2024/05/14/15:11:19.692513,29777,1715713879,692358800,gps,0,0,34.81516581234287,-82.32674668990933,284.12055754102767,"(0.8253310161819627, 0.0, 0.0, 0.0, 1.5329847234824143, 0.0, 0.0, 0.0, 5.4657136229962475)",2
2024/05/14/15:11:19.713935,29778,1715713879,713837090,gps,0,0,34.81516581234287,-82.32674668990933,284.12055754102767,"(0.8253310161819627, 0.0, 0.0, 0.0, 1.5329847234824143, 0.0, 0.0, 0.0, 5.4657136229962475)",2
2024/05/14/15:11:19.731990,29779,1715713879,731837863,gps,0,0,34.81516581234287,-82.32674668990933,284.12055754102767,"(0.8253310161819627, 0.0, 0.0, 0.0, 1.5329847234824143, 0.0, 0.0, 0.0, 5.4657136229962475)",2
2024/05/14/15:11:19.757713,29780,1715713879,757591002,gps,0,0,34.81516581234287,-82.32674668990933,284.12055754102767,"(0.8253310161819627, 0.0, 0.0, 0.0, 1.5329847234824143, 0.0, 0.0, 0.0, 5.4657136229962475)",2
2024/05/14/15:11:19.772051,29781,1715713879,771925270,gps,0,0,34.81516570020021,-82.32674659326908,284.105914324522,"(0.8244569504278196, 0.0, 0.0, 0.0, 1.5307916191142255, 0.0, 0.0, 0.0, 5.462095609727896)",2
2024/05/14/15:11:19.792097,29782,1715713879,791906400,gps,0,0,34.81516570020021,-82.32674659326908,284.105914324522,"(0.8244569504278196, 0.0, 0.0, 0.0, 1.5307916191142255, 0.0, 0.0, 0.0, 5.462095609727896)",2
2024/05/14/15:11:19.812550,29783,1715713879,812430856,gps,0,0,34.81516570020021,-82.32674659326908,284.105914324522,"(0.8244569504278196, 0.0, 0.0, 0.0, 1.5307916191142255, 0.0, 0.0, 0.0, 5.462095609727896)",2
2024/05/14/15:11:19.832315,29784,1715713879,832149498,gps,0,0,34.81516570020021,-82.32674659326908,284.105914324522,"(0.8244569504278196, 0.0, 0.0, 0.0, 1.5307916191142255, 0.0, 0.0, 0.0, 5.462095609727896)",2
2024/05/14/15:11:19.892037,29785,1715713879,891899941,gps,0,0,34.81516570020021,-82.32674659326908,284.105914324522,"(0.8244569504278196, 0.0, 0.0, 0.0, 1.5307916191142255, 0.0, 0.0, 0.0, 5.462095609727896)",2
2024/05/14/15:11:19.919438,29786,1715713879,919282732,gps,0,0,34.81516567404857,-82.326746601007,284.1143957581371,"(0.8245229791087958, 0.0, 0.0, 0.0, 1.5306125691970465, 0.0, 0.0, 0.0, 5.4622817198142)",2
2024/05/14/15:11:19.933920,29787,1715713879,933835354,gps,0,0,34.81516567404857,-82.326746601007,284.1143957581371,"(0.8245229791087958, 0.0, 0.0, 0.0, 1.5306125691970465, 0.0, 0.0, 0.0, 5.4622817198142)",2
2024/05/14/15:11:19.942021,29788,1715713879,941900731,gps,0,0,34.81516567404857,-82.326746601007,284.1143957581371,"(0.8245229791087958, 0.0, 0.0, 0.0, 1.5306125691970465, 0.0, 0.0, 0.0, 5.4622817198142)",2
2024/05/14/15:11:19.949590,29789,1715713879,949476113,gps,0,0,34.81516567404857,-82.326746601007,284.1143957581371,"(0.8245229791087958, 0.0, 0.0, 0.0, 1.5306125691970465, 0.0, 0.0, 0.0, 5.4622817198142)",2
2024/05/14/15:11:19.965374,29790,1715713879,965272408,gps,0,0,34.81516567404857,-82.326746601007,284.1143957581371,"(0.8245229791087958, 0.0, 0.0, 0.0, 1.5306125691970465, 0.0, 0.0, 0.0, 5.4622817198142)",2
2024/05/14/15:11:19.974301,29791,1715713879,974202856,gps,0,0,34.8151660874005,-82.32674687433231,284.1704250378534,"(0.8249049148866483, 0.0, 0.0, 0.0, 1.531425309836564, 0.0, 0.0, 0.0, 5.463928988003545)",2
2024/05/14/15:11:19.993977,29792,1715713879,993859170,gps,0,0,34.8151660874005,-82.32674687433231,284.1704250378534,"(0.8249049148866483, 0.0, 0.0, 0.0, 1.531425309836564, 0.0, 0.0, 0.0, 5.463928988003545)",2
2024/05/14/15:11:20.012271,29793,1715713880,12141298,gps,0,0,34.8151660874005,-82.32674687433231,284.1704250378534,"(0.8249049148866483, 0.0, 0.0, 0.0, 1.531425309836564, 0.0, 0.0, 0.0, 5.463928988003545)",2
2024/05/14/15:11:20.034921,29794,1715713880,34796296,gps,0,0,34.8151660874005,-82.32674687433231,284.1704250378534,"(0.8249049148866483, 0.0, 0.0, 0.0, 1.531425309836564, 0.0, 0.0, 0.0, 5.463928988003545)",2
2024/05/14/15:11:20.060146,29795,1715713880,59880273,gps,0,0,34.8151660874005,-82.32674687433231,284.1704250378534,"(0.8249049148866483, 0.0, 0.0, 0.0, 1.531425309836564, 0.0, 0.0, 0.0, 5.463928988003545)",2
2024/05/14/15:11:20.072166,29796,1715713880,72000260,gps,0,0,34.81516600823499,-82.3267468174273,284.16398961562663,"(0.8255344141105212, 0.0, 0.0, 0.0, 1.5334467384755044, 0.0, 0.0, 0.0, 5.466004587368843)",2
2024/05/14/15:11:20.092036,29797,1715713880,91876883,gps,0,0,34.81516600823499,-82.3267468174273,284.16398961562663,"(0.8255344141105212, 0.0, 0.0, 0.0, 1.5334467384755044, 0.0, 0.0, 0.0, 5.466004587368843)",2
2024/05/14/15:11:20.112415,29798,1715713880,112252943,gps,0,0,34.81516600823499,-82.3267468174273,284.16398961562663,"(0.8255344141105212, 0.0, 0.0, 0.0, 1.5334467384755044, 0.0, 0.0, 0.0, 5.466004587368843)",2
2024/05/14/15:11:20.132252,29799,1715713880,132096079,gps,0,0,34.81516600823499,-82.3267468174273,284.16398961562663,"(0.8255344141105212, 0.0, 0.0, 0.0, 1.5334467384755044, 0.0, 0.0, 0.0, 5.466004587368843)",2
2024/05/14/15:11:20.155062,29800,1715713880,154977587,gps,0,0,34.81516600823499,-82.3267468174273,284.16398961562663,"(0.8255344141105212, 0.0, 0.0, 0.0, 1.5334467384755044, 0.0, 0.0, 0.0, 5.466004587368843)",2
2024/05/14/15:11:20.172394,29801,1715713880,172249618,gps,0,0,34.81516618994275,-82.32674694029815,284.18362834118307,"(0.8246041655370426, 0.0, 0.0, 0.0, 1.5310175850263619, 0.0, 0.0, 0.0, 5.462229341205841)",2
2024/05/14/15:11:20.192089,29802,1715713880,191947362,gps,0,0,34.81516618994275,-82.32674694029815,284.18362834118307,"(0.8246041655370426, 0.0, 0.0, 0.0, 1.5310175850263619, 0.0, 0.0, 0.0, 5.462229341205841)",2
2024/05/14/15:11:20.213133,29803,1715713880,212878587,gps,0,0,34.81516618994275,-82.32674694029815,284.18362834118307,"(0.8246041655370426, 0.0, 0.0, 0.0, 1.5310175850263619, 0.0, 0.0, 0.0, 5.462229341205841)",2
2024/05/14/15:11:20.232380,29804,1715713880,232287511,gps,0,0,34.81516618994275,-82.32674694029815,284.18362834118307,"(0.8246041655370426, 0.0, 0.0, 0.0, 1.5310175850263619, 0.0, 0.0, 0.0, 5.462229341205841)",2
2024/05/14/15:11:20.260305,29805,1715713880,260162560,gps,0,0,34.81516618994275,-82.32674694029815,284.18362834118307,"(0.8246041655370426, 0.0, 0.0, 0.0, 1.5310175850263619, 0.0, 0.0, 0.0, 5.462229341205841)",2
2024/05/14/15:11:20.272244,29806,1715713880,272080821,gps,0,0,34.81516616935573,-82.32674693484466,284.1881287842989,"(0.8247569151035492, 0.0, 0.0, 0.0, 1.5313196856095743, 0.0, 0.0, 0.0, 5.462599340158306)",2
2024/05/14/15:11:20.293295,29807,1715713880,293107708,gps,0,0,34.81516616935573,-82.32674693484466,284.1881287842989,"(0.8247569151035492, 0.0, 0.0, 0.0, 1.5313196856095743, 0.0, 0.0, 0.0, 5.462599340158306)",2
2024/05/14/15:11:20.312219,29808,1715713880,312033245,gps,0,0,34.81516616935573,-82.32674693484466,284.1881287842989,"(0.8247569151035492, 0.0, 0.0, 0.0, 1.5313196856095743, 0.0, 0.0, 0.0, 5.462599340158306)",2
2024/05/14/15:11:20.332511,29809,1715713880,332355620,gps,0,0,34.81516616935573,-82.32674693484466,284.1881287842989,"(0.8247569151035492, 0.0, 0.0, 0.0, 1.5313196856095743, 0.0, 0.0, 0.0, 5.462599340158306)",2
2024/05/14/15:11:20.359793,29810,1715713880,359594026,gps,0,0,34.81516616935573,-82.32674693484466,284.1881287842989,"(0.8247569151035492, 0.0, 0.0, 0.0, 1.5313196856095743, 0.0, 0.0, 0.0, 5.462599340158306)",2
2024/05/14/15:11:20.372323,29811,1715713880,372175199,gps,0,0,34.81516617382356,-82.3267469063432,284.18188802339137,"(0.8255127517969783, 0.0, 0.0, 0.0, 1.533538854579092, 0.0, 0.0, 0.0, 5.465032506800526)",2
2024/05/14/15:11:20.392269,29812,1715713880,392076171,gps,0,0,34.81516617382356,-82.3267469063432,284.18188802339137,"(0.8255127517969783, 0.0, 0.0, 0.0, 1.533538854579092, 0.0, 0.0, 0.0, 5.465032506800526)",2
2024/05/14/15:11:20.418186,29813,1715713880,418072505,gps,0,0,34.81516617382356,-82.3267469063432,284.18188802339137,"(0.8255127517969783, 0.0, 0.0, 0.0, 1.533538854579092, 0.0, 0.0, 0.0, 5.465032506800526)",2
2024/05/14/15:11:20.432431,29814,1715713880,432259348,gps,0,0,34.81516617382356,-82.3267469063432,284.18188802339137,"(0.8255127517969783, 0.0, 0.0, 0.0, 1.533538854579092, 0.0, 0.0, 0.0, 5.465032506800526)",2
2024/05/14/15:11:20.459483,29815,1715713880,459339426,gps,0,0,34.81516617382356,-82.3267469063432,284.18188802339137,"(0.8255127517969783, 0.0, 0.0, 0.0, 1.533538854579092, 0.0, 0.0, 0.0, 5.465032506800526)",2
2024/05/14/15:11:20.472130,29816,1715713880,471954782,gps,0,0,34.81516628926595,-82.32674702119657,284.1887688981369,"(0.8244547855977977, 0.0, 0.0, 0.0, 1.5307161041984187, 0.0, 0.0, 0.0, 5.4608586711652265)",2
2024/05/14/15:11:20.492060,29817,1715713880,491904050,gps,0,0,34.81516628926595,-82.32674702119657,284.1887688981369,"(0.8244547855977977, 0.0, 0.0, 0.0, 1.5307161041984187, 0.0, 0.0, 0.0, 5.4608586711652265)",2
2024/05/14/15:11:20.512246,29818,1715713880,512115369,gps,0,0,34.81516628926595,-82.32674702119657,284.1887688981369,"(0.8244547855977977, 0.0, 0.0, 0.0, 1.5307161041984187, 0.0, 0.0, 0.0, 5.4608586711652265)",2
2024/05/14/15:11:20.532057,29819,1715713880,531918724,gps,0,0,34.81516628926595,-82.32674702119657,284.1887688981369,"(0.8244547855977977, 0.0, 0.0, 0.0, 1.5307161041984187, 0.0, 0.0, 0.0, 5.4608586711652265)",2
2024/05/14/15:11:20.555577,29820,1715713880,555457772,gps,0,0,34.81516628926595,-82.32674702119657,284.1887688981369,"(0.8244547855977977, 0.0, 0.0, 0.0, 1.5307161041984187, 0.0, 0.0, 0.0, 5.4608586711652265)",2
2024/05/14/15:11:20.572409,29821,1715713880,572256215,gps,0,0,34.815166054967186,-82.32674684767585,284.1620573149994,"(0.8252640887974536, 0.0, 0.0, 0.0, 1.5331473802462483, 0.0, 0.0, 0.0, 5.463881059914058)",2
2024/05/14/15:11:20.592442,29822,1715713880,592281315,gps,0,0,34.815166054967186,-82.32674684767585,284.1620573149994,"(0.8252640887974536, 0.0, 0.0, 0.0, 1.5331473802462483, 0.0, 0.0, 0.0, 5.463881059914058)",2
2024/05/14/15:11:20.618609,29823,1715713880,618455639,gps,0,0,34.815166054967186,-82.32674684767585,284.1620573149994,"(0.8252640887974536, 0.0, 0.0, 0.0, 1.5331473802462483, 0.0, 0.0, 0.0, 5.463881059914058)",2
2024/05/14/15:11:20.634218,29824,1715713880,634004827,gps,0,0,34.815166054967186,-82.32674684767585,284.1620573149994,"(0.8252640887974536, 0.0, 0.0, 0.0, 1.5331473802462483, 0.0, 0.0, 0.0, 5.463881059914058)",2
2024/05/14/15:11:20.658622,29825,1715713880,658446826,gps,0,0,34.815166054967186,-82.32674684767585,284.1620573149994,"(0.8252640887974536, 0.0, 0.0, 0.0, 1.5331473802462483, 0.0, 0.0, 0.0, 5.463881059914058)",2
2024/05/14/15:11:20.672083,29826,1715713880,671921193,gps,0,0,34.81516605435579,-82.3267468728599,284.1564180916175,"(0.8256780424381418, 0.0, 0.0, 0.0, 1.534349123067841, 0.0, 0.0, 0.0, 5.465424895891374)",2
2024/05/14/15:11:20.692281,29827,1715713880,692107347,gps,0,0,34.81516605435579,-82.3267468728599,284.1564180916175,"(0.8256780424381418, 0.0, 0.0, 0.0, 1.534349123067841, 0.0, 0.0, 0.0, 5.465424895891374)",2
2024/05/14/15:11:20.712115,29828,1715713880,711952776,gps,0,0,34.81516605435579,-82.3267468728599,284.1564180916175,"(0.8256780424381418, 0.0, 0.0, 0.0, 1.534349123067841, 0.0, 0.0, 0.0, 5.465424895891374)",2
2024/05/14/15:11:20.732075,29829,1715713880,731897421,gps,0,0,34.81516605435579,-82.3267468728599,284.1564180916175,"(0.8256780424381418, 0.0, 0.0, 0.0, 1.534349123067841, 0.0, 0.0, 0.0, 5.465424895891374)",2
2024/05/14/15:11:20.756970,29830,1715713880,756850412,gps,0,0,34.81516605435579,-82.3267468728599,284.1564180916175,"(0.8256780424381418, 0.0, 0.0, 0.0, 1.534349123067841, 0.0, 0.0, 0.0, 5.465424895891374)",2
2024/05/14/15:11:20.772049,29831,1715713880,771937533,gps,0,0,34.81516623253617,-82.32674696879053,284.17766216397285,"(0.8260318590064486, 0.0, 0.0, 0.0, 1.5354059826577782, 0.0, 0.0, 0.0, 5.4667861047256)",2
2024/05/14/15:11:20.792121,29832,1715713880,791953050,gps,0,0,34.81516623253617,-82.32674696879053,284.17766216397285,"(0.8260318590064486, 0.0, 0.0, 0.0, 1.5354059826577782, 0.0, 0.0, 0.0, 5.4667861047256)",2
2024/05/14/15:11:20.820460,29833,1715713880,820319795,gps,0,0,34.81516623253617,-82.32674696879053,284.17766216397285,"(0.8260318590064486, 0.0, 0.0, 0.0, 1.5354059826577782, 0.0, 0.0, 0.0, 5.4667861047256)",2
2024/05/14/15:11:20.832162,29834,1715713880,832040593,gps,0,0,34.81516623253617,-82.32674696879053,284.17766216397285,"(0.8260318590064486, 0.0, 0.0, 0.0, 1.5354059826577782, 0.0, 0.0, 0.0, 5.4667861047256)",2
2024/05/14/15:11:20.907106,29835,1715713880,907005646,gps,0,0,34.81516623253617,-82.32674696879053,284.17766216397285,"(0.8260318590064486, 0.0, 0.0, 0.0, 1.5354059826577782, 0.0, 0.0, 0.0, 5.4667861047256)",2
2024/05/14/15:11:20.942091,29836,1715713880,934544507,gps,0,0,34.815166192995775,-82.32674699087647,284.17286868952215,"(0.8264560837681678, 0.0, 0.0, 0.0, 1.5366706749787795, 0.0, 0.0, 0.0, 5.468596853145812)",2
2024/05/14/15:11:20.947547,29837,1715713880,947404417,gps,0,0,34.815166192995775,-82.32674699087647,284.17286868952215,"(0.8264560837681678, 0.0, 0.0, 0.0, 1.5366706749787795, 0.0, 0.0, 0.0, 5.468596853145812)",2
2024/05/14/15:11:20.975100,29838,1715713880,974975078,gps,0,0,34.815166192995775,-82.32674699087647,284.17286868952215,"(0.8264560837681678, 0.0, 0.0, 0.0, 1.5366706749787795, 0.0, 0.0, 0.0, 5.468596853145812)",2
2024/05/14/15:11:20.989305,29839,1715713880,989184290,gps,0,0,34.815166192995775,-82.32674699087647,284.17286868952215,"(0.8264560837681678, 0.0, 0.0, 0.0, 1.5366706749787795, 0.0, 0.0, 0.0, 5.468596853145812)",2
2024/05/14/15:11:20.997139,29840,1715713880,997013984,gps,0,0,34.815166192995775,-82.32674699087647,284.17286868952215,"(0.8264560837681678, 0.0, 0.0, 0.0, 1.5366706749787795, 0.0, 0.0, 0.0, 5.468596853145812)",2
2024/05/14/15:11:21.013212,29841,1715713881,13030001,gps,0,0,34.81516608811477,-82.32674687792918,284.1621479494497,"(0.8259483271955084, 0.0, 0.0, 0.0, 1.5351028884506377, 0.0, 0.0, 0.0, 5.466376943877776)",2
2024/05/14/15:11:21.018544,29842,1715713881,18435671,gps,0,0,34.81516608811477,-82.32674687792918,284.1621479494497,"(0.8259483271955084, 0.0, 0.0, 0.0, 1.5351028884506377, 0.0, 0.0, 0.0, 5.466376943877776)",2
2024/05/14/15:11:21.074688,29843,1715713881,74580191,gps,0,0,34.81516608811477,-82.32674687792918,284.1621479494497,"(0.8259483271955084, 0.0, 0.0, 0.0, 1.5351028884506377, 0.0, 0.0, 0.0, 5.466376943877776)",2
2024/05/14/15:11:21.083130,29844,1715713881,83026744,gps,0,0,34.81516608811477,-82.32674687792918,284.1621479494497,"(0.8259483271955084, 0.0, 0.0, 0.0, 1.5351028884506377, 0.0, 0.0, 0.0, 5.466376943877776)",2
2024/05/14/15:11:21.088266,29845,1715713881,88160005,gps,0,0,34.81516608811477,-82.32674687792918,284.1621479494497,"(0.8259483271955084, 0.0, 0.0, 0.0, 1.5351028884506377, 0.0, 0.0, 0.0, 5.466376943877776)",2
2024/05/14/15:11:21.094034,29846,1715713881,93878099,gps,0,0,34.81516607701324,-82.3267469005012,284.16119805909693,"(0.8261638283729553, 0.0, 0.0, 0.0, 1.535545723298938, 0.0, 0.0, 0.0, 5.466989018509651)",2
2024/05/14/15:11:21.098675,29847,1715713881,98547312,gps,0,0,34.81516607701324,-82.3267469005012,284.16119805909693,"(0.8261638283729553, 0.0, 0.0, 0.0, 1.535545723298938, 0.0, 0.0, 0.0, 5.466989018509651)",2
2024/05/14/15:11:21.114322,29848,1715713881,114212244,gps,0,0,34.81516607701324,-82.3267469005012,284.16119805909693,"(0.8261638283729553, 0.0, 0.0, 0.0, 1.535545723298938, 0.0, 0.0, 0.0, 5.466989018509651)",2
2024/05/14/15:11:21.132112,29849,1715713881,131984606,gps,0,0,34.81516607701324,-82.3267469005012,284.16119805909693,"(0.8261638283729553, 0.0, 0.0, 0.0, 1.535545723298938, 0.0, 0.0, 0.0, 5.466989018509651)",2
2024/05/14/15:11:21.155301,29850,1715713881,155195736,gps,0,0,34.81516607701324,-82.3267469005012,284.16119805909693,"(0.8261638283729553, 0.0, 0.0, 0.0, 1.535545723298938, 0.0, 0.0, 0.0, 5.466989018509651)",2
2024/05/14/15:11:21.172664,29851,1715713881,172493131,gps,0,0,34.815166135954705,-82.32674693472877,284.16594542656094,"(0.8253501852046305, 0.0, 0.0, 0.0, 1.5332489343978182, 0.0, 0.0, 0.0, 5.463898893597218)",2
2024/05/14/15:11:21.192199,29852,1715713881,192028232,gps,0,0,34.815166135954705,-82.32674693472877,284.16594542656094,"(0.8253501852046305, 0.0, 0.0, 0.0, 1.5332489343978182, 0.0, 0.0, 0.0, 5.463898893597218)",2
2024/05/14/15:11:21.212206,29853,1715713881,212047716,gps,0,0,34.815166135954705,-82.32674693472877,284.16594542656094,"(0.8253501852046305, 0.0, 0.0, 0.0, 1.5332489343978182, 0.0, 0.0, 0.0, 5.463898893597218)",2
2024/05/14/15:11:21.232655,29854,1715713881,232506098,gps,0,0,34.815166135954705,-82.32674693472877,284.16594542656094,"(0.8253501852046305, 0.0, 0.0, 0.0, 1.5332489343978182, 0.0, 0.0, 0.0, 5.463898893597218)",2
2024/05/14/15:11:21.259678,29855,1715713881,259527483,gps,0,0,34.815166135954705,-82.32674693472877,284.16594542656094,"(0.8253501852046305, 0.0, 0.0, 0.0, 1.5332489343978182, 0.0, 0.0, 0.0, 5.463898893597218)",2
2024/05/14/15:11:21.272202,29856,1715713881,272032538,gps,0,0,34.815166141488355,-82.32674691732075,284.1676484476775,"(0.8252311675846755, 0.0, 0.0, 0.0, 1.5329962361093408, 0.0, 0.0, 0.0, 5.463236837626084)",2
2024/05/14/15:11:21.293676,29857,1715713881,293059817,gps,0,0,34.815166141488355,-82.32674691732075,284.1676484476775,"(0.8252311675846755, 0.0, 0.0, 0.0, 1.5329962361093408, 0.0, 0.0, 0.0, 5.463236837626084)",2
2024/05/14/15:11:21.312119,29858,1715713881,311974841,gps,0,0,34.815166141488355,-82.32674691732075,284.1676484476775,"(0.8252311675846755, 0.0, 0.0, 0.0, 1.5329962361093408, 0.0, 0.0, 0.0, 5.463236837626084)",2
2024/05/14/15:11:21.332520,29859,1715713881,332351967,gps,0,0,34.815166141488355,-82.32674691732075,284.1676484476775,"(0.8252311675846755, 0.0, 0.0, 0.0, 1.5329962361093408, 0.0, 0.0, 0.0, 5.463236837626084)",2
2024/05/14/15:11:21.363680,29860,1715713881,363562602,gps,0,0,34.815166141488355,-82.32674691732075,284.1676484476775,"(0.8252311675846755, 0.0, 0.0, 0.0, 1.5329962361093408, 0.0, 0.0, 0.0, 5.463236837626084)",2
2024/05/14/15:11:21.372128,29861,1715713881,372005157,gps,0,0,34.815166222309664,-82.32674697392656,284.17346902005374,"(0.8248873750820316, 0.0, 0.0, 0.0, 1.5319576169537328, 0.0, 0.0, 0.0, 5.461761288195305)",2
2024/05/14/15:11:21.392473,29862,1715713881,392310805,gps,0,0,34.815166222309664,-82.32674697392656,284.17346902005374,"(0.8248873750820316, 0.0, 0.0, 0.0, 1.5319576169537328, 0.0, 0.0, 0.0, 5.461761288195305)",2
2024/05/14/15:11:21.413209,29863,1715713881,412945497,gps,0,0,34.815166222309664,-82.32674697392656,284.17346902005374,"(0.8248873750820316, 0.0, 0.0, 0.0, 1.5319576169537328, 0.0, 0.0, 0.0, 5.461761288195305)",2
2024/05/14/15:11:21.432347,29864,1715713881,432192461,gps,0,0,34.815166222309664,-82.32674697392656,284.17346902005374,"(0.8248873750820316, 0.0, 0.0, 0.0, 1.5319576169537328, 0.0, 0.0, 0.0, 5.461761288195305)",2
2024/05/14/15:11:21.457582,29865,1715713881,457459284,gps,0,0,34.815166222309664,-82.32674697392656,284.17346902005374,"(0.8248873750820316, 0.0, 0.0, 0.0, 1.5319576169537328, 0.0, 0.0, 0.0, 5.461761288195305)",2
2024/05/14/15:11:21.474015,29866,1715713881,473918864,gps,0,0,34.81516618796228,-82.32674696771873,284.17813516408205,"(0.8244204734214833, 0.0, 0.0, 0.0, 1.5308916202480418, 0.0, 0.0, 0.0, 5.459420209808741)",2
2024/05/14/15:11:21.492041,29867,1715713881,491935820,gps,0,0,34.81516618796228,-82.32674696771873,284.17813516408205,"(0.8244204734214833, 0.0, 0.0, 0.0, 1.5308916202480418, 0.0, 0.0, 0.0, 5.459420209808741)",2
2024/05/14/15:11:21.512244,29868,1715713881,512074103,gps,0,0,34.81516618796228,-82.32674696771873,284.17813516408205,"(0.8244204734214833, 0.0, 0.0, 0.0, 1.5308916202480418, 0.0, 0.0, 0.0, 5.459420209808741)",2
2024/05/14/15:11:21.532106,29869,1715713881,531949394,gps,0,0,34.81516618796228,-82.32674696771873,284.17813516408205,"(0.8244204734214833, 0.0, 0.0, 0.0, 1.5308916202480418, 0.0, 0.0, 0.0, 5.459420209808741)",2
2024/05/14/15:11:21.554271,29870,1715713881,554145258,gps,0,0,34.81516618796228,-82.32674696771873,284.17813516408205,"(0.8244204734214833, 0.0, 0.0, 0.0, 1.5308916202480418, 0.0, 0.0, 0.0, 5.459420209808741)",2
2024/05/14/15:11:21.572229,29871,1715713881,572052498,gps,0,0,34.81516624902666,-82.32674695784607,284.19711464550346,"(0.8239631181050413, 0.0, 0.0, 0.0, 1.5297687862869367, 0.0, 0.0, 0.0, 5.456787792650687)",2
2024/05/14/15:11:21.592099,29872,1715713881,591914875,gps,0,0,34.81516624902666,-82.32674695784607,284.19711464550346,"(0.8239631181050413, 0.0, 0.0, 0.0, 1.5297687862869367, 0.0, 0.0, 0.0, 5.456787792650687)",2
2024/05/14/15:11:21.612412,29873,1715713881,612233230,gps,0,0,34.81516624902666,-82.32674695784607,284.19711464550346,"(0.8239631181050413, 0.0, 0.0, 0.0, 1.5297687862869367, 0.0, 0.0, 0.0, 5.456787792650687)",2
2024/05/14/15:11:21.632311,29874,1715713881,632175116,gps,0,0,34.81516624902666,-82.32674695784607,284.19711464550346,"(0.8239631181050413, 0.0, 0.0, 0.0, 1.5297687862869367, 0.0, 0.0, 0.0, 5.456787792650687)",2
2024/05/14/15:11:21.657991,29875,1715713881,657855404,gps,0,0,34.81516624902666,-82.32674695784607,284.19711464550346,"(0.8239631181050413, 0.0, 0.0, 0.0, 1.5297687862869367, 0.0, 0.0, 0.0, 5.456787792650687)",2
2024/05/14/15:11:21.672079,29876,1715713881,671934190,gps,0,0,34.81516608478964,-82.3267468255029,284.19011987093836,"(0.8238984103037552, 0.0, 0.0, 0.0, 1.530166907221556, 0.0, 0.0, 0.0, 5.455364346139561)",2
2024/05/14/15:11:21.692262,29877,1715713881,692127294,gps,0,0,34.81516608478964,-82.3267468255029,284.19011987093836,"(0.8238984103037552, 0.0, 0.0, 0.0, 1.530166907221556, 0.0, 0.0, 0.0, 5.455364346139561)",2
2024/05/14/15:11:21.712340,29878,1715713881,712134009,gps,0,0,34.81516608478964,-82.3267468255029,284.19011987093836,"(0.8238984103037552, 0.0, 0.0, 0.0, 1.530166907221556, 0.0, 0.0, 0.0, 5.455364346139561)",2
2024/05/14/15:11:21.733932,29879,1715713881,732158438,gps,0,0,34.81516608478964,-82.3267468255029,284.19011987093836,"(0.8238984103037552, 0.0, 0.0, 0.0, 1.530166907221556, 0.0, 0.0, 0.0, 5.455364346139561)",2
2024/05/14/15:11:21.762545,29880,1715713881,762434344,gps,0,0,34.81516608478964,-82.3267468255029,284.19011987093836,"(0.8238984103037552, 0.0, 0.0, 0.0, 1.530166907221556, 0.0, 0.0, 0.0, 5.455364346139561)",2
2024/05/14/15:11:21.772047,29881,1715713881,771873877,gps,0,0,34.81516556027459,-82.32674640414301,284.1561607187614,"(0.8233699141413844, 0.0, 0.0, 0.0, 1.5291548968770172, 0.0, 0.0, 0.0, 5.452690595457398)",2
2024/05/14/15:11:21.792179,29882,1715713881,792047622,gps,0,0,34.81516556027459,-82.32674640414301,284.1561607187614,"(0.8233699141413844, 0.0, 0.0, 0.0, 1.5291548968770172, 0.0, 0.0, 0.0, 5.452690595457398)",2
2024/05/14/15:11:21.812941,29883,1715713881,812838407,gps,0,0,34.81516556027459,-82.32674640414301,284.1561607187614,"(0.8233699141413844, 0.0, 0.0, 0.0, 1.5291548968770172, 0.0, 0.0, 0.0, 5.452690595457398)",2
2024/05/14/15:11:21.832119,29884,1715713881,831953962,gps,0,0,34.81516556027459,-82.32674640414301,284.1561607187614,"(0.8233699141413844, 0.0, 0.0, 0.0, 1.5291548968770172, 0.0, 0.0, 0.0, 5.452690595457398)",2
2024/05/14/15:11:21.898533,29885,1715713881,898392062,gps,0,0,34.81516556027459,-82.32674640414301,284.1561607187614,"(0.8233699141413844, 0.0, 0.0, 0.0, 1.5291548968770172, 0.0, 0.0, 0.0, 5.452690595457398)",2
2024/05/14/15:11:21.933907,29886,1715713881,933349045,gps,0,0,34.81516539595132,-82.32674623753407,284.1585570862517,"(0.8224284537342363, 0.0, 0.0, 0.0, 1.527252386929888, 0.0, 0.0, 0.0, 5.448454694372288)",2
2024/05/14/15:11:21.934556,29887,1715713881,934225582,gps,0,0,34.81516539595132,-82.32674623753407,284.1585570862517,"(0.8224284537342363, 0.0, 0.0, 0.0, 1.527252386929888, 0.0, 0.0, 0.0, 5.448454694372288)",2
2024/05/14/15:11:21.941415,29888,1715713881,941229973,gps,0,0,34.81516539595132,-82.32674623753407,284.1585570862517,"(0.8224284537342363, 0.0, 0.0, 0.0, 1.527252386929888, 0.0, 0.0, 0.0, 5.448454694372288)",2
2024/05/14/15:11:21.949942,29889,1715713881,949778696,gps,0,0,34.81516539595132,-82.32674623753407,284.1585570862517,"(0.8224284537342363, 0.0, 0.0, 0.0, 1.527252386929888, 0.0, 0.0, 0.0, 5.448454694372288)",2
2024/05/14/15:11:21.967714,29890,1715713881,967534023,gps,0,0,34.81516539595132,-82.32674623753407,284.1585570862517,"(0.8224284537342363, 0.0, 0.0, 0.0, 1.527252386929888, 0.0, 0.0, 0.0, 5.448454694372288)",2
2024/05/14/15:11:21.974302,29891,1715713881,974183579,gps,0,0,34.815165386550945,-82.32674602467644,284.17971610464156,"(0.8225014284764853, 0.0, 0.0, 0.0, 1.5279469384273767, 0.0, 0.0, 0.0, 5.449309534728911)",2
2024/05/14/15:11:21.992596,29892,1715713881,992429497,gps,0,0,34.815165386550945,-82.32674602467644,284.17971610464156,"(0.8225014284764853, 0.0, 0.0, 0.0, 1.5279469384273767, 0.0, 0.0, 0.0, 5.449309534728911)",2
2024/05/14/15:11:22.012466,29893,1715713882,12229006,gps,0,0,34.815165386550945,-82.32674602467644,284.17971610464156,"(0.8225014284764853, 0.0, 0.0, 0.0, 1.5279469384273767, 0.0, 0.0, 0.0, 5.449309534728911)",2
2024/05/14/15:11:22.074212,29894,1715713882,74111518,gps,0,0,34.815165386550945,-82.32674602467644,284.17971610464156,"(0.8225014284764853, 0.0, 0.0, 0.0, 1.5279469384273767, 0.0, 0.0, 0.0, 5.449309534728911)",2
2024/05/14/15:11:22.083431,29895,1715713882,83336967,gps,0,0,34.815165386550945,-82.32674602467644,284.17971610464156,"(0.8225014284764853, 0.0, 0.0, 0.0, 1.5279469384273767, 0.0, 0.0, 0.0, 5.449309534728911)",2
2024/05/14/15:11:22.090435,29896,1715713882,88434198,gps,0,0,34.815164833758914,-82.32674549938136,284.14708713348955,"(0.8252358241637161, 0.0, 0.0, 0.0, 1.5359023418696438, 0.0, 0.0, 0.0, 5.461061474914516)",2
2024/05/14/15:11:22.093240,29897,1715713882,92965855,gps,0,0,34.815164833758914,-82.32674549938136,284.14708713348955,"(0.8252358241637161, 0.0, 0.0, 0.0, 1.5359023418696438, 0.0, 0.0, 0.0, 5.461061474914516)",2
2024/05/14/15:11:22.112286,29898,1715713882,112136375,gps,0,0,34.815164833758914,-82.32674549938136,284.14708713348955,"(0.8252358241637161, 0.0, 0.0, 0.0, 1.5359023418696438, 0.0, 0.0, 0.0, 5.461061474914516)",2
2024/05/14/15:11:22.132591,29899,1715713882,131949207,gps,0,0,34.815164833758914,-82.32674549938136,284.14708713348955,"(0.8252358241637161, 0.0, 0.0, 0.0, 1.5359023418696438, 0.0, 0.0, 0.0, 5.461061474914516)",2
2024/05/14/15:11:22.154489,29900,1715713882,154404040,gps,0,0,34.815164833758914,-82.32674549938136,284.14708713348955,"(0.8252358241637161, 0.0, 0.0, 0.0, 1.5359023418696438, 0.0, 0.0, 0.0, 5.461061474914516)",2
2024/05/14/15:11:22.172453,29901,1715713882,172256364,gps,0,0,34.81516415667765,-82.32674488176535,284.10920184571296,"(0.8271334436547164, 0.0, 0.0, 0.0, 1.5413986678144198, 0.0, 0.0, 0.0, 5.468654837729048)",2
2024/05/14/15:11:22.192055,29902,1715713882,191922827,gps,0,0,34.81516415667765,-82.32674488176535,284.10920184571296,"(0.8271334436547164, 0.0, 0.0, 0.0, 1.5413986678144198, 0.0, 0.0, 0.0, 5.468654837729048)",2
2024/05/14/15:11:22.212333,29903,1715713882,212193979,gps,0,0,34.81516415667765,-82.32674488176535,284.10920184571296,"(0.8271334436547164, 0.0, 0.0, 0.0, 1.5413986678144198, 0.0, 0.0, 0.0, 5.468654837729048)",2
2024/05/14/15:11:22.235673,29904,1715713882,233586280,gps,0,0,34.81516415667765,-82.32674488176535,284.10920184571296,"(0.8271334436547164, 0.0, 0.0, 0.0, 1.5413986678144198, 0.0, 0.0, 0.0, 5.468654837729048)",2
2024/05/14/15:11:22.261168,29905,1715713882,260929627,gps,0,0,34.81516415667765,-82.32674488176535,284.10920184571296,"(0.8271334436547164, 0.0, 0.0, 0.0, 1.5413986678144198, 0.0, 0.0, 0.0, 5.468654837729048)",2
2024/05/14/15:11:22.272347,29906,1715713882,272193593,gps,0,0,34.81516355581539,-82.32674433636737,284.0691401939839,"(0.8287773211644414, 0.0, 0.0, 0.0, 1.546221972347567, 0.0, 0.0, 0.0, 5.474563070183876)",2
2024/05/14/15:11:22.293466,29907,1715713882,293299960,gps,0,0,34.81516355581539,-82.32674433636737,284.0691401939839,"(0.8287773211644414, 0.0, 0.0, 0.0, 1.546221972347567, 0.0, 0.0, 0.0, 5.474563070183876)",2
2024/05/14/15:11:22.312167,29908,1715713882,311988186,gps,0,0,34.81516355581539,-82.32674433636737,284.0691401939839,"(0.8287773211644414, 0.0, 0.0, 0.0, 1.546221972347567, 0.0, 0.0, 0.0, 5.474563070183876)",2
2024/05/14/15:11:22.332726,29909,1715713882,332057691,gps,0,0,34.81516355581539,-82.32674433636737,284.0691401939839,"(0.8287773211644414, 0.0, 0.0, 0.0, 1.546221972347567, 0.0, 0.0, 0.0, 5.474563070183876)",2
2024/05/14/15:11:22.359105,29910,1715713882,358999661,gps,0,0,34.81516355581539,-82.32674433636737,284.0691401939839,"(0.8287773211644414, 0.0, 0.0, 0.0, 1.546221972347567, 0.0, 0.0, 0.0, 5.474563070183876)",2
2024/05/14/15:11:22.372087,29911,1715713882,371982706,gps,0,0,34.81516288873325,-82.3267437365784,284.0361113389954,"(0.8269783060225997, 0.0, 0.0, 0.0, 1.5414865822569936, 0.0, 0.0, 0.0, 5.466472822157812)",2
2024/05/14/15:11:22.392418,29912,1715713882,392273319,gps,0,0,34.81516288873325,-82.3267437365784,284.0361113389954,"(0.8269783060225997, 0.0, 0.0, 0.0, 1.5414865822569936, 0.0, 0.0, 0.0, 5.466472822157812)",2
2024/05/14/15:11:22.418298,29913,1715713882,418186772,gps,0,0,34.81516288873325,-82.3267437365784,284.0361113389954,"(0.8269783060225997, 0.0, 0.0, 0.0, 1.5414865822569936, 0.0, 0.0, 0.0, 5.466472822157812)",2
2024/05/14/15:11:22.432465,29914,1715713882,432317316,gps,0,0,34.81516288873325,-82.3267437365784,284.0361113389954,"(0.8269783060225997, 0.0, 0.0, 0.0, 1.5414865822569936, 0.0, 0.0, 0.0, 5.466472822157812)",2
2024/05/14/15:11:22.458004,29915,1715713882,457878461,gps,0,0,34.81516288873325,-82.3267437365784,284.0361113389954,"(0.8269783060225997, 0.0, 0.0, 0.0, 1.5414865822569936, 0.0, 0.0, 0.0, 5.466472822157812)",2
2024/05/14/15:11:22.474015,29916,1715713882,473919822,gps,0,0,34.81516415032425,-82.32674331725593,284.0209052115679,"(0.8251554729447754, 0.0, 0.0, 0.0, 1.5839977335745061, 0.0, 0.0, 0.0, 5.461595245637)",2
2024/05/14/15:11:22.492000,29917,1715713882,491870993,gps,0,0,34.81516415032425,-82.32674331725593,284.0209052115679,"(0.8251554729447754, 0.0, 0.0, 0.0, 1.5839977335745061, 0.0, 0.0, 0.0, 5.461595245637)",2
2024/05/14/15:11:22.512432,29918,1715713882,512284116,gps,0,0,34.81516415032425,-82.32674331725593,284.0209052115679,"(0.8251554729447754, 0.0, 0.0, 0.0, 1.5839977335745061, 0.0, 0.0, 0.0, 5.461595245637)",2
2024/05/14/15:11:22.532954,29919,1715713882,532334217,gps,0,0,34.81516415032425,-82.32674331725593,284.0209052115679,"(0.8251554729447754, 0.0, 0.0, 0.0, 1.5839977335745061, 0.0, 0.0, 0.0, 5.461595245637)",2
2024/05/14/15:11:22.554249,29920,1715713882,554149787,gps,0,0,34.81516415032425,-82.32674331725593,284.0209052115679,"(0.8251554729447754, 0.0, 0.0, 0.0, 1.5839977335745061, 0.0, 0.0, 0.0, 5.461595245637)",2
2024/05/14/15:11:22.572279,29921,1715713882,572163925,gps,0,0,34.815163353199594,-82.32674259466049,283.99263586010784,"(0.826635775511054, 0.0, 0.0, 0.0, 1.590527592949357, 0.0, 0.0, 0.0, 5.470266263051826)",2
2024/05/14/15:11:22.593680,29922,1715713882,593535754,gps,0,0,34.815163353199594,-82.32674259466049,283.99263586010784,"(0.826635775511054, 0.0, 0.0, 0.0, 1.590527592949357, 0.0, 0.0, 0.0, 5.470266263051826)",2
2024/05/14/15:11:22.612548,29923,1715713882,612322412,gps,0,0,34.815163353199594,-82.32674259466049,283.99263586010784,"(0.826635775511054, 0.0, 0.0, 0.0, 1.590527592949357, 0.0, 0.0, 0.0, 5.470266263051826)",2
2024/05/14/15:11:22.639740,29924,1715713882,633383435,gps,0,0,34.815163353199594,-82.32674259466049,283.99263586010784,"(0.826635775511054, 0.0, 0.0, 0.0, 1.590527592949357, 0.0, 0.0, 0.0, 5.470266263051826)",2
2024/05/14/15:11:22.656417,29925,1715713882,656259561,gps,0,0,34.815163353199594,-82.32674259466049,283.99263586010784,"(0.826635775511054, 0.0, 0.0, 0.0, 1.590527592949357, 0.0, 0.0, 0.0, 5.470266263051826)",2
2024/05/14/15:11:22.672204,29926,1715713882,672020471,gps,0,0,34.81516269589439,-82.32674217280889,284.04066124372184,"(0.8286855117190193, 0.0, 0.0, 0.0, 1.5845147901763, 0.0, 0.0, 0.0, 5.466359106151003)",2
2024/05/14/15:11:22.692280,29927,1715713882,692088867,gps,0,0,34.81516269589439,-82.32674217280889,284.04066124372184,"(0.8286855117190193, 0.0, 0.0, 0.0, 1.5845147901763, 0.0, 0.0, 0.0, 5.466359106151003)",2
2024/05/14/15:11:22.712247,29928,1715713882,712087474,gps,0,0,34.81516269589439,-82.32674217280889,284.04066124372184,"(0.8286855117190193, 0.0, 0.0, 0.0, 1.5845147901763, 0.0, 0.0, 0.0, 5.466359106151003)",2
2024/05/14/15:11:22.732134,29929,1715713882,731935336,gps,0,0,34.81516269589439,-82.32674217280889,284.04066124372184,"(0.8286855117190193, 0.0, 0.0, 0.0, 1.5845147901763, 0.0, 0.0, 0.0, 5.466359106151003)",2
2024/05/14/15:11:22.754246,29930,1715713882,754111485,gps,0,0,34.81516269589439,-82.32674217280889,284.04066124372184,"(0.8286855117190193, 0.0, 0.0, 0.0, 1.5845147901763, 0.0, 0.0, 0.0, 5.466359106151003)",2
2024/05/14/15:11:22.772069,29931,1715713882,771915001,gps,0,0,34.81516186529006,-82.3267425311439,284.10861633438617,"(0.8371336356533199, 0.0, 0.0, 0.0, 1.5747772474927757, 0.0, 0.0, 0.0, 5.472257175007655)",2
2024/05/14/15:11:22.792315,29932,1715713882,792104774,gps,0,0,34.81516186529006,-82.3267425311439,284.10861633438617,"(0.8371336356533199, 0.0, 0.0, 0.0, 1.5747772474927757, 0.0, 0.0, 0.0, 5.472257175007655)",2
2024/05/14/15:11:22.815424,29933,1715713882,815341457,gps,0,0,34.81516186529006,-82.3267425311439,284.10861633438617,"(0.8371336356533199, 0.0, 0.0, 0.0, 1.5747772474927757, 0.0, 0.0, 0.0, 5.472257175007655)",2
2024/05/14/15:11:22.832256,29934,1715713882,832040455,gps,0,0,34.81516186529006,-82.3267425311439,284.10861633438617,"(0.8371336356533199, 0.0, 0.0, 0.0, 1.5747772474927757, 0.0, 0.0, 0.0, 5.472257175007655)",2
2024/05/14/15:11:22.909922,29935,1715713882,909815145,gps,0,0,34.81516186529006,-82.3267425311439,284.10861633438617,"(0.8371336356533199, 0.0, 0.0, 0.0, 1.5747772474927757, 0.0, 0.0, 0.0, 5.472257175007655)",2
2024/05/14/15:11:22.930384,29936,1715713882,930284538,gps,0,0,34.815161327360514,-82.3267418297728,284.08819655608386,"(0.8372308203321523, 0.0, 0.0, 0.0, 1.5758350680258104, 0.0, 0.0, 0.0, 5.471913619242571)",2
2024/05/14/15:11:22.943656,29937,1715713882,943510690,gps,0,0,34.815161327360514,-82.3267418297728,284.08819655608386,"(0.8372308203321523, 0.0, 0.0, 0.0, 1.5758350680258104, 0.0, 0.0, 0.0, 5.471913619242571)",2
2024/05/14/15:11:22.949157,29938,1715713882,949016531,gps,0,0,34.815161327360514,-82.3267418297728,284.08819655608386,"(0.8372308203321523, 0.0, 0.0, 0.0, 1.5758350680258104, 0.0, 0.0, 0.0, 5.471913619242571)",2
2024/05/14/15:11:22.959750,29939,1715713882,959384662,gps,0,0,34.815161327360514,-82.3267418297728,284.08819655608386,"(0.8372308203321523, 0.0, 0.0, 0.0, 1.5758350680258104, 0.0, 0.0, 0.0, 5.471913619242571)",2
2024/05/14/15:11:22.968153,29940,1715713882,968051584,gps,0,0,34.815161327360514,-82.3267418297728,284.08819655608386,"(0.8372308203321523, 0.0, 0.0, 0.0, 1.5758350680258104, 0.0, 0.0, 0.0, 5.471913619242571)",2
2024/05/14/15:11:22.977653,29941,1715713882,977514936,gps,0,0,34.81516039817358,-82.32674065437038,284.00131366960704,"(0.8351186805160893, 0.0, 0.0, 0.0, 1.5764274230508732, 0.0, 0.0, 0.0, 5.44286760516934)",2
2024/05/14/15:11:22.993556,29942,1715713882,993420948,gps,0,0,34.81516039817358,-82.32674065437038,284.00131366960704,"(0.8351186805160893, 0.0, 0.0, 0.0, 1.5764274230508732, 0.0, 0.0, 0.0, 5.44286760516934)",2
2024/05/14/15:11:23.012498,29943,1715713883,12303348,gps,0,0,34.81516039817358,-82.32674065437038,284.00131366960704,"(0.8351186805160893, 0.0, 0.0, 0.0, 1.5764274230508732, 0.0, 0.0, 0.0, 5.44286760516934)",2
2024/05/14/15:11:23.075386,29944,1715713883,75292901,gps,0,0,34.81516039817358,-82.32674065437038,284.00131366960704,"(0.8351186805160893, 0.0, 0.0, 0.0, 1.5764274230508732, 0.0, 0.0, 0.0, 5.44286760516934)",2
2024/05/14/15:11:23.079673,29945,1715713883,79582383,gps,0,0,34.81516039817358,-82.32674065437038,284.00131366960704,"(0.8351186805160893, 0.0, 0.0, 0.0, 1.5764274230508732, 0.0, 0.0, 0.0, 5.44286760516934)",2
2024/05/14/15:11:23.085355,29946,1715713883,85251936,gps,0,0,34.81515943907499,-82.32673984343353,284.0083855930716,"(0.8350787003066138, 0.0, 0.0, 0.0, 1.5766148207806197, 0.0, 0.0, 0.0, 5.441547196541308)",2
2024/05/14/15:11:23.091962,29947,1715713883,91849645,gps,0,0,34.81515943907499,-82.32673984343353,284.0083855930716,"(0.8350787003066138, 0.0, 0.0, 0.0, 1.5766148207806197, 0.0, 0.0, 0.0, 5.441547196541308)",2
