time,.header.seq,.header.stamp.secs,.header.stamp.nsecs,.header.frame_id,.orientation.x,.orientation.y,.orientation.z,.orientation.w,.orientation_covariance,.angular_velocity.x,.angular_velocity.y,.angular_velocity.z,.angular_velocity_covariance,.linear_acceleration.x,.linear_acceleration.y,.linear_acceleration.z,.linear_acceleration_covariance
2024/05/14/15:21:28.280733,120484,1715714488,279703174,gps,0.0196716811976696,-0.011220601882162503,-0.9303722321079488,0.3659161553890891,"(0.0020672938625967974, 0.0, 0.0, 0.0, 0.0020758767504958087, 0.0, 0.0, 0.0, 0.014740447157082726)",0.0006252887831579262,-0.00024375520069758256,-0.00015806439338564673,"(0.001, 0.0, 0.0, 0.0, 0.001, 0.0, 0.0, 0.0, 0.001)",0.006389291161615972,-0.0012228673145232517,-0.0016728769115385066,"(0.001, 0.0, 0.0, 0.0, 0.001, 0.0, 0.0, 0.0, 0.001)"
2024/05/14/15:21:28.294888,120485,1715714488,292742452,gps,0.019668550835871157,-0.011213651129427163,-0.9303738524285632,0.3659124169163956,"(0.0020672938625967974, 0.0, 0.0, 0.0, 0.0020758767504958087, 0.0, 0.0, 0.0, 0.014740447157082726)",1.2576877223751172e-05,-0.00040173398856800316,-4.770426813442347e-05,"(0.001, 0.0, 0.0, 0.0, 0.001, 0.0, 0.0, 0.0, 0.001)",-0.0010451369276797322,-0.0029887208736065363,-0.015895250451096268,"(0.001, 0.0, 0.0, 0.0, 0.001, 0.0, 0.0, 0.0, 0.001)"
2024/05/14/15:21:28.303319,120486,1715714488,300295319,gps,0.019668550835871157,-0.011213651129427163,-0.9303738524285632,0.3659124169163956,"(0.0020672938625967974, 0.0, 0.0, 0.0, 0.0020758767504958087, 0.0, 0.0, 0.0, 0.014740447157082726)",0.000678435184127422,-0.0016068727090451096,0.0004137064243136986,"(0.001, 0.0, 0.0, 0.0, 0.001, 0.0, 0.0, 0.0, 0.001)",0.0031726735871111613,-0.010117887695368812,0.0013242403099706574,"(0.001, 0.0, 0.0, 0.0, 0.001, 0.0, 0.0, 0.0, 0.001)"
2024/05/14/15:21:28.315629,120487,1715714488,310805382,gps,0.01965880247322754,-0.01121641001650385,-0.9303728823009441,0.3659153228695051,"(0.0020672938625967974, 0.0, 0.0, 0.0, 0.0020758767504958087, 0.0, 0.0, 0.0, 0.014740447157082726)",0.0005784765613157419,7.843761181441992e-05,8.139568840426948e-05,"(0.001, 0.0, 0.0, 0.0, 0.001, 0.0, 0.0, 0.0, 0.001)",0.0027370249641545928,0.012149329713424941,-0.006212764004645883,"(0.001, 0.0, 0.0, 0.0, 0.001, 0.0, 0.0, 0.0, 0.001)"
2024/05/14/15:21:28.325822,120488,1715714488,319842185,gps,0.01965880247322754,-0.01121641001650385,-0.9303728823009441,0.3659153228695051,"(0.0020672938625967974, 0.0, 0.0, 0.0, 0.0020758767504958087, 0.0, 0.0, 0.0, 0.014740447157082726)",-0.0005543639979048793,0.00019068539002182967,-9.872104818820833e-05,"(0.001, 0.0, 0.0, 0.0, 0.001, 0.0, 0.0, 0.0, 0.001)",0.013115752330158558,0.00492709868095797,-0.0076420648245364335,"(0.001, 0.0, 0.0, 0.0, 0.001, 0.0, 0.0, 0.0, 0.001)"
2024/05/14/15:21:28.335232,120489,1715714488,333814582,gps,0.019669615229685636,-0.01121933345527354,-0.9303697661542151,0.3659225751708774,"(0.0020672938625967974, 0.0, 0.0, 0.0, 0.0020758767504958087, 0.0, 0.0, 0.0, 0.014740447157082726)",-0.00011953626405816477,0.0004370075646395309,0.0006009227123442558,"(0.001, 0.0, 0.0, 0.0, 0.001, 0.0, 0.0, 0.0, 0.001)",0.01833330804275203,-0.005625777135152666,0.008548349588779086,"(0.001, 0.0, 0.0, 0.0, 0.001, 0.0, 0.0, 0.0, 0.001)"
2024/05/14/15:21:28.340246,120490,1715714488,340087333,gps,0.019669615229685636,-0.01121933345527354,-0.9303697661542151,0.3659225751708774,"(0.0020672938625967974, 0.0, 0.0, 0.0, 0.0020758767504958087, 0.0, 0.0, 0.0, 0.014740447157082726)",0.0006711539405946453,-1.253680192393735e-05,0.000806213948199383,"(0.001, 0.0, 0.0, 0.0, 0.001, 0.0, 0.0, 0.0, 0.001)",0.02271986414822756,0.011343809304068576,-0.021633838750876506,"(0.001, 0.0, 0.0, 0.0, 0.001, 0.0, 0.0, 0.0, 0.001)"
2024/05/14/15:21:28.361625,120491,1715714488,361558095,gps,0.019668125403419022,-0.011219360213696482,-0.9303696025009294,0.3659230705240835,"(0.0020672938625967974, 0.0, 0.0, 0.0, 0.0020758767504958087, 0.0, 0.0, 0.0, 0.014740447157082726)",-0.00020171598236372402,0.00033203426449956243,0.0002989931720193645,"(0.001, 0.0, 0.0, 0.0, 0.001, 0.0, 0.0, 0.0, 0.001)",0.005434228530629558,-0.009931012607103488,-0.012768774974002266,"(0.001, 0.0, 0.0, 0.0, 0.001, 0.0, 0.0, 0.0, 0.001)"
2024/05/14/15:21:28.365134,120492,1715714488,365075651,gps,0.019668125403419022,-0.011219360213696482,-0.9303696025009294,0.3659230705240835,"(0.0020672938625967974, 0.0, 0.0, 0.0, 0.0020758767504958087, 0.0, 0.0, 0.0, 0.014740447157082726)",0.0005295853772081142,0.00018652757814019078,0.00022194928116771965,"(0.001, 0.0, 0.0, 0.0, 0.001, 0.0, 0.0, 0.0, 0.001)",0.001263842728641417,-0.00038326060365393626,0.03326321154654143,"(0.001, 0.0, 0.0, 0.0, 0.001, 0.0, 0.0, 0.0, 0.001)"
2024/05/14/15:21:28.371308,120493,1715714488,371250904,gps,0.019659163476515973,-0.011220839467859588,-0.9303706713493893,0.3659207891688128,"(0.0020672938625967974, 0.0, 0.0, 0.0, 0.0020758767504958087, 0.0, 0.0, 0.0, 0.014740447157082726)",0.00033713784441986584,2.231269253880245e-05,-4.1458293800990686e-05,"(0.001, 0.0, 0.0, 0.0, 0.001, 0.0, 0.0, 0.0, 0.001)",-0.008984603522320308,0.0022673493388755267,0.008695869753567833,"(0.001, 0.0, 0.0, 0.0, 0.001, 0.0, 0.0, 0.0, 0.001)"
2024/05/14/15:21:28.380321,120494,1715714488,380259863,gps,0.019659163476515973,-0.011220839467859588,-0.9303706713493893,0.3659207891688128,"(0.0020672938625967974, 0.0, 0.0, 0.0, 0.0020758767504958087, 0.0, 0.0, 0.0, 0.014740447157082726)",-0.0019118051060344578,-0.0013948513091175015,0.00024608197358275564,"(0.001, 0.0, 0.0, 0.0, 0.001, 0.0, 0.0, 0.0, 0.001)",-0.014983775892909631,0.010986625494371315,0.00850532714541523,"(0.001, 0.0, 0.0, 0.0, 0.001, 0.0, 0.0, 0.0, 0.001)"
2024/05/14/15:21:28.391390,120495,1715714488,391300212,gps,0.019677593653804497,-0.011211164197059824,-0.9303662384523671,0.3659313657686855,"(0.0020672938625967974, 0.0, 0.0, 0.0, 0.0020758767504958087, 0.0, 0.0, 0.0, 0.014740447157082726)",-0.000743690238139827,0.00026447774951829345,0.0007477230153948779,"(0.001, 0.0, 0.0, 0.0, 0.001, 0.0, 0.0, 0.0, 0.001)",0.00781336296157795,0.014533327284906404,0.0037197587526729735,"(0.001, 0.0, 0.0, 0.0, 0.001, 0.0, 0.0, 0.0, 0.001)"
2024/05/14/15:21:28.399461,120496,1715714488,399384012,gps,0.019677593653804497,-0.011211164197059824,-0.9303662384523671,0.3659313657686855,"(0.0020672938625967974, 0.0, 0.0, 0.0, 0.0020758767504958087, 0.0, 0.0, 0.0, 0.014740447157082726)",-8.832754875680452e-05,0.00011273508113876358,0.0006862963390567892,"(0.001, 0.0, 0.0, 0.0, 0.001, 0.0, 0.0, 0.0, 0.001)",-0.0035368265790390622,-0.004376555557654592,0.00696998598726916,"(0.001, 0.0, 0.0, 0.0, 0.001, 0.0, 0.0, 0.0, 0.001)"
2024/05/14/15:21:28.419552,120497,1715714488,417061204,gps,0.019684689646658725,-0.011213938452341985,-0.9303647896119929,0.3659345827168212,"(0.0020672938625967974, 0.0, 0.0, 0.0, 0.0020758767504958087, 0.0, 0.0, 0.0, 0.014740447157082726)",-0.0007998635195018144,0.0004723441645922957,0.000496809628540413,"(0.001, 0.0, 0.0, 0.0, 0.001, 0.0, 0.0, 0.0, 0.001)",-0.005207092253514101,-0.005786140361331585,-0.016669350451077005,"(0.001, 0.0, 0.0, 0.0, 0.001, 0.0, 0.0, 0.0, 0.001)"
2024/05/14/15:21:28.422869,120498,1715714488,422568804,gps,0.019684689646658725,-0.011213938452341985,-0.9303647896119929,0.3659345827168212,"(0.0020672938625967974, 0.0, 0.0, 0.0, 0.0020758767504958087, 0.0, 0.0, 0.0, 0.014740447157082726)",0.00028001932771034156,-0.0003087473636590817,-0.0004056667625520491,"(0.001, 0.0, 0.0, 0.0, 0.001, 0.0, 0.0, 0.0, 0.001)",0.0093448323094223,-0.021717791411712352,0.01507828280965284,"(0.001, 0.0, 0.0, 0.0, 0.001, 0.0, 0.0, 0.0, 0.001)"
2024/05/14/15:21:28.431058,120499,1715714488,430949919,gps,0.01966290697789079,-0.0112098990864712,-0.9303683932045663,0.3659267155833304,"(0.0020672938625967974, 0.0, 0.0, 0.0, 0.0020758767504958087, 0.0, 0.0, 0.0, 0.014740447157082726)",0.0007085101994103952,-0.00040693159275350673,-0.00011225478034922733,"(0.001, 0.0, 0.0, 0.0, 0.001, 0.0, 0.0, 0.0, 0.001)",0.01930753189991403,-0.00700935229594034,-0.005910732453329933,"(0.001, 0.0, 0.0, 0.0, 0.001, 0.0, 0.0, 0.0, 0.001)"
2024/05/14/15:21:28.440835,120500,1715714488,439351313,gps,0.01966290697789079,-0.0112098990864712,-0.9303683932045663,0.3659267155833304,"(0.0020672938625967974, 0.0, 0.0, 0.0, 0.0020758767504958087, 0.0, 0.0, 0.0, 0.014740447157082726)",-0.0005855705208719765,0.0002166681454527483,-0.0002663433237060844,"(0.001, 0.0, 0.0, 0.0, 0.001, 0.0, 0.0, 0.0, 0.001)",0.018014155543156586,-0.000873536597382181,0.01573604130828632,"(0.001, 0.0, 0.0, 0.0, 0.001, 0.0, 0.0, 0.0, 0.001)"
2024/05/14/15:21:28.461522,120501,1715714488,461452445,gps,0.019672972052955005,-0.011210507306669538,-0.9303714565288407,0.365918367362086,"(0.0020672938625967974, 0.0, 0.0, 0.0, 0.0020758767504958087, 0.0, 0.0, 0.0, 0.014740447157082726)",-2.3831402350785247e-05,-6.788220652175888e-06,-0.0005995066097402036,"(0.001, 0.0, 0.0, 0.0, 0.001, 0.0, 0.0, 0.0, 0.001)",0.0009002868485005561,-0.003664616115551071,0.006881334138437322,"(0.001, 0.0, 0.0, 0.0, 0.001, 0.0, 0.0, 0.0, 0.001)"
2024/05/14/15:21:28.463982,120502,1715714488,463882446,gps,0.019672972052955005,-0.011210507306669538,-0.9303714565288407,0.365918367362086,"(0.0020672938625967974, 0.0, 0.0, 0.0, 0.0020758767504958087, 0.0, 0.0, 0.0, 0.014740447157082726)",0.0005307194941685732,-0.0012566183148699256,-0.0015280125635852549,"(0.001, 0.0, 0.0, 0.0, 0.001, 0.0, 0.0, 0.0, 0.001)",-0.013371980290951303,0.013597587191870625,0.006272129689439934,"(0.001, 0.0, 0.0, 0.0, 0.001, 0.0, 0.0, 0.0, 0.001)"
2024/05/14/15:21:28.470548,120503,1715714488,470484980,gps,0.01966906438228135,-0.01121009650724109,-0.9303725529780984,0.365915802210891,"(0.0020672938625967974, 0.0, 0.0, 0.0, 0.0020758767504958087, 0.0, 0.0, 0.0, 0.014740447157082726)",8.955552603505024e-05,0.00024680964104162003,-0.00024552092570076885,"(0.001, 0.0, 0.0, 0.0, 0.001, 0.0, 0.0, 0.0, 0.001)",0.004063168903115154,-0.011856686540297152,-0.007940328341325008,"(0.001, 0.0, 0.0, 0.0, 0.001, 0.0, 0.0, 0.0, 0.001)"
2024/05/14/15:21:28.480844,120504,1715714488,480775306,gps,0.01966906438228135,-0.01121009650724109,-0.9303725529780984,0.365915802210891,"(0.0020672938625967974, 0.0, 0.0, 0.0, 0.0020758767504958087, 0.0, 0.0, 0.0, 0.014740447157082726)",-0.00022564256234644994,8.155571704007665e-05,-0.0005953426229425782,"(0.001, 0.0, 0.0, 0.0, 0.001, 0.0, 0.0, 0.0, 0.001)",0.002416806952493826,-0.017985449298422326,0.024169957084350633,"(0.001, 0.0, 0.0, 0.0, 0.001, 0.0, 0.0, 0.0, 0.001)"
2024/05/14/15:21:28.492193,120505,1715714488,492095926,gps,0.019669155987718782,-0.011204906469067221,-0.9303702130302453,0.3659219057118699,"(0.0020672938625967974, 0.0, 0.0, 0.0, 0.0020758767504958087, 0.0, 0.0, 0.0, 0.014740447157082726)",-2.6953534375808768e-05,-0.00020322130890080748,0.00044579364158628686,"(0.001, 0.0, 0.0, 0.0, 0.001, 0.0, 0.0, 0.0, 0.001)",0.0065873624608370675,0.0068724655783148755,0.015523411169276273,"(0.001, 0.0, 0.0, 0.0, 0.001, 0.0, 0.0, 0.0, 0.001)"
2024/05/14/15:21:28.500288,120506,1715714488,500137022,gps,0.019669155987718782,-0.011204906469067221,-0.9303702130302453,0.3659219057118699,"(0.0020672938625967974, 0.0, 0.0, 0.0, 0.0020758767504958087, 0.0, 0.0, 0.0, 0.014740447157082726)",-0.00011840305514672957,-0.00053739888664452,-0.00051602914058087,"(0.001, 0.0, 0.0, 0.0, 0.001, 0.0, 0.0, 0.0, 0.001)",0.021615960378963548,0.022615181297482412,-0.0017813852612737434,"(0.001, 0.0, 0.0, 0.0, 0.001, 0.0, 0.0, 0.0, 0.001)"
2024/05/14/15:21:28.515258,120507,1715714488,514921630,gps,0.019669639981632032,-0.011210601648058885,-0.9303728614058528,0.36591497158925795,"(0.0020672938625967974, 0.0, 0.0, 0.0, 0.0020758767504958087, 0.0, 0.0, 0.0, 0.014740447157082726)",0.0001509302730107458,0.00042869334650441225,-3.104691553660345e-05,"(0.001, 0.0, 0.0, 0.0, 0.001, 0.0, 0.0, 0.0, 0.001)",0.007801982829462319,-0.011984657874762735,-0.00746347778141338,"(0.001, 0.0, 0.0, 0.0, 0.001, 0.0, 0.0, 0.0, 0.001)"
2024/05/14/15:21:28.527877,120508,1715714488,520039393,gps,0.019669639981632032,-0.011210601648058885,-0.9303728614058528,0.36591497158925795,"(0.0020672938625967974, 0.0, 0.0, 0.0, 0.0020758767504958087, 0.0, 0.0, 0.0, 0.014740447157082726)",0.00024559384410846016,-0.00035496392384430436,-6.019863746114009e-05,"(0.001, 0.0, 0.0, 0.0, 0.001, 0.0, 0.0, 0.0, 0.001)",0.01221576616618679,0.001469098207086627,-0.02019555331821298,"(0.001, 0.0, 0.0, 0.0, 0.001, 0.0, 0.0, 0.0, 0.001)"
2024/05/14/15:21:28.531630,120509,1715714488,531534967,gps,0.019662678462736727,-0.01120243259512882,-0.930373858031832,0.3659130619021234,"(0.0020672938625967974, 0.0, 0.0, 0.0, 0.0020758767504958087, 0.0, 0.0, 0.0, 0.014740447157082726)",0.0002611975771536304,-0.0003289806499298482,-0.00015181882737770177,"(0.001, 0.0, 0.0, 0.0, 0.001, 0.0, 0.0, 0.0, 0.001)",0.01179104245895359,0.003331738560425285,-0.023893974490884585,"(0.001, 0.0, 0.0, 0.0, 0.001, 0.0, 0.0, 0.0, 0.001)"
2024/05/14/15:21:28.540703,120510,1715714488,540622168,gps,0.019662678462736727,-0.01120243259512882,-0.930373858031832,0.3659130619021234,"(0.0020672938625967974, 0.0, 0.0, 0.0, 0.0020758767504958087, 0.0, 0.0, 0.0, 0.014740447157082726)",-0.0013771162234814428,-0.0010581041053099732,-0.0012198378479571729,"(0.001, 0.0, 0.0, 0.0, 0.001, 0.0, 0.0, 0.0, 0.001)",-0.0019235694777215778,0.003771267811551821,-0.020269800164975742,"(0.001, 0.0, 0.0, 0.0, 0.001, 0.0, 0.0, 0.0, 0.001)"
2024/05/14/15:21:28.563927,120511,1715714488,559604698,gps,0.019662771678092883,-0.011199215952082373,-0.9303758668449132,0.3659080476903589,"(0.0020672938625967974, 0.0, 0.0, 0.0, 0.0020758767504958087, 0.0, 0.0, 0.0, 0.014740447157082726)",0.0005576700905476408,-0.00017307985926414248,-0.00017368275347827083,"(0.001, 0.0, 0.0, 0.0, 0.001, 0.0, 0.0, 0.0, 0.001)",0.004971996583251055,-0.006278305904037477,-0.014981197326369718,"(0.001, 0.0, 0.0, 0.0, 0.001, 0.0, 0.0, 0.0, 0.001)"
2024/05/14/15:21:28.563931,120512,1715714488,561499539,gps,0.019662771678092883,-0.011199215952082373,-0.9303758668449132,0.3659080476903589,"(0.0020672938625967974, 0.0, 0.0, 0.0, 0.0020758767504958087, 0.0, 0.0, 0.0, 0.014740447157082726)",-0.000322388022628414,-6.187132166157062e-05,-0.0001268318855418504,"(0.001, 0.0, 0.0, 0.0, 0.001, 0.0, 0.0, 0.0, 0.001)",-0.0039165857537868595,0.017368846909440627,-0.010120992866662208,"(0.001, 0.0, 0.0, 0.0, 0.001, 0.0, 0.0, 0.0, 0.001)"
2024/05/14/15:21:28.571059,120513,1715714488,571000279,gps,0.019670369831669907,-0.011193822306830796,-0.9303803472829056,0.36589641195642836,"(0.0020672938625967974, 0.0, 0.0, 0.0, 0.0020758767504958087, 0.0, 0.0, 0.0, 0.014740447157082726)",-0.00017363123935779402,-0.00022504649110983196,-0.0009201775411704388,"(0.001, 0.0, 0.0, 0.0, 0.001, 0.0, 0.0, 0.0, 0.001)",-0.0055591862250028955,0.004324006040984021,-0.017365990532942174,"(0.001, 0.0, 0.0, 0.0, 0.001, 0.0, 0.0, 0.0, 0.001)"
2024/05/14/15:21:28.579807,120514,1715714488,579706312,gps,0.019670369831669907,-0.011193822306830796,-0.9303803472829056,0.36589641195642836,"(0.0020672938625967974, 0.0, 0.0, 0.0, 0.0020758767504958087, 0.0, 0.0, 0.0, 0.014740447157082726)",0.0009457766899348018,-0.0020267607972920135,4.722429883458611e-05,"(0.001, 0.0, 0.0, 0.0, 0.001, 0.0, 0.0, 0.0, 0.001)",0.0015791196996140856,0.014956660995294002,0.013466078769498947,"(0.001, 0.0, 0.0, 0.0, 0.001, 0.0, 0.0, 0.0, 0.001)"
2024/05/14/15:21:28.590667,120515,1715714488,590479616,gps,0.01967375534551341,-0.011188557668301019,-0.9303793320214316,0.36589897249823317,"(0.0020672938625967974, 0.0, 0.0, 0.0, 0.0020758767504958087, 0.0, 0.0, 0.0, 0.014740447157082726)",-0.0008383569115281268,0.00015223151537249323,-0.0005890972816708708,"(0.001, 0.0, 0.0, 0.0, 0.001, 0.0, 0.0, 0.0, 0.001)",-0.0013793119514266873,0.002581515357879894,-0.020740358748412867,"(0.001, 0.0, 0.0, 0.0, 0.001, 0.0, 0.0, 0.0, 0.001)"
2024/05/14/15:21:28.599436,120516,1715714488,599349503,gps,0.01967375534551341,-0.011188557668301019,-0.9303793320214316,0.36589897249823317,"(0.0020672938625967974, 0.0, 0.0, 0.0, 0.0020758767504958087, 0.0, 0.0, 0.0, 0.014740447157082726)",-0.00015074674997487644,6.80459859060517e-05,5.432521564465474e-05,"(0.001, 0.0, 0.0, 0.0, 0.001, 0.0, 0.0, 0.0, 0.001)",-0.0061003232843442785,-0.00449622586211363,-0.026493915069686336,"(0.001, 0.0, 0.0, 0.0, 0.001, 0.0, 0.0, 0.0, 0.001)"
2024/05/14/15:21:28.617228,120517,1715714488,617134163,gps,0.01966141472093836,-0.011203599568044603,-0.9303757215885223,0.3659083557484393,"(0.0020672938625967974, 0.0, 0.0, 0.0, 0.0020758767504958087, 0.0, 0.0, 0.0, 0.014740447157082726)",0.0006700165998367007,0.0006999606009368645,0.00033855546339123997,"(0.001, 0.0, 0.0, 0.0, 0.001, 0.0, 0.0, 0.0, 0.001)",0.004774785242627048,-0.003873012474809275,0.007464557316564475,"(0.001, 0.0, 0.0, 0.0, 0.001, 0.0, 0.0, 0.0, 0.001)"
2024/05/14/15:21:28.621534,120518,1715714488,621441837,gps,0.01966141472093836,-0.011203599568044603,-0.9303757215885223,0.3659083557484393,"(0.0020672938625967974, 0.0, 0.0, 0.0, 0.0020758767504958087, 0.0, 0.0, 0.0, 0.014740447157082726)",0.00026856840722072546,-6.297353159688405e-06,-0.0006034867231170369,"(0.001, 0.0, 0.0, 0.0, 0.001, 0.0, 0.0, 0.0, 0.001)",0.0018639333334599284,0.010226860355213942,0.0027634032270083143,"(0.001, 0.0, 0.0, 0.0, 0.001, 0.0, 0.0, 0.0, 0.001)"
2024/05/14/15:21:28.631155,120519,1715714488,631084406,gps,0.019663077180687532,-0.011189289251722237,-0.9303762239843315,0.3659074268807408,"(0.0020672938625967974, 0.0, 0.0, 0.0, 0.0020758767504958087, 0.0, 0.0, 0.0, 0.014740447157082726)",-4.25597899838251e-05,-0.00039237879644215233,0.0003687483084098201,"(0.001, 0.0, 0.0, 0.0, 0.001, 0.0, 0.0, 0.0, 0.001)",-0.004368160585498564,-0.01109714482994085,0.003289007576070656,"(0.001, 0.0, 0.0, 0.0, 0.001, 0.0, 0.0, 0.0, 0.001)"
2024/05/14/15:21:28.639906,120520,1715714488,639828033,gps,0.019663077180687532,-0.011189289251722237,-0.9303762239843315,0.3659074268807408,"(0.0020672938625967974, 0.0, 0.0, 0.0, 0.0020758767504958087, 0.0, 0.0, 0.0, 0.014740447157082726)",-0.0001517868357937631,-0.00018659093381194762,1.7885306741712812e-05,"(0.001, 0.0, 0.0, 0.0, 0.001, 0.0, 0.0, 0.0, 0.001)",-0.003784809813206565,0.0056527534622313625,0.007850352576106357,"(0.001, 0.0, 0.0, 0.0, 0.001, 0.0, 0.0, 0.0, 0.001)"
2024/05/14/15:21:28.662461,120521,1715714488,662384215,gps,0.019673102480694978,-0.011208178221358956,-0.9303747903651254,0.3659099550883949,"(0.0020672938625967974, 0.0, 0.0, 0.0, 0.0020758767504958087, 0.0, 0.0, 0.0, 0.014740447157082726)",-0.00015074662976077117,0.0012414529261136,0.0004260106714355482,"(0.001, 0.0, 0.0, 0.0, 0.001, 0.0, 0.0, 0.0, 0.001)",0.009154470771643572,-0.005691443197083485,0.001086366430703707,"(0.001, 0.0, 0.0, 0.0, 0.001, 0.0, 0.0, 0.0, 0.001)"
2024/05/14/15:21:28.665076,120522,1715714488,664971982,gps,0.019673102480694978,-0.011208178221358956,-0.9303747903651254,0.3659099550883949,"(0.0020672938625967974, 0.0, 0.0, 0.0, 0.0020758767504958087, 0.0, 0.0, 0.0, 0.014740447157082726)",0.00022487844481163297,0.00011218640761889738,0.0015454189762777449,"(0.001, 0.0, 0.0, 0.0, 0.001, 0.0, 0.0, 0.0, 0.001)",0.002294541854643789,-0.012521850971043746,0.011116995899009932,"(0.001, 0.0, 0.0, 0.0, 0.001, 0.0, 0.0, 0.0, 0.001)"
2024/05/14/15:21:28.672358,120523,1715714488,672284772,gps,0.019673233737262017,-0.011200422464196749,-0.9303761202799178,0.3659068040141241,"(0.0020672938625967974, 0.0, 0.0, 0.0, 0.0020758767504958087, 0.0, 0.0, 0.0, 0.014740447157082726)",-0.0004222527534586473,0.00046091300320233377,-0.0003975275974769992,"(0.001, 0.0, 0.0, 0.0, 0.001, 0.0, 0.0, 0.0, 0.001)",0.0014004078782140657,-0.009444503921890002,0.014444994084817541,"(0.001, 0.0, 0.0, 0.0, 0.001, 0.0, 0.0, 0.0, 0.001)"
2024/05/14/15:21:28.679933,120524,1715714488,679842686,gps,0.019673233737262017,-0.011200422464196749,-0.9303761202799178,0.3659068040141241,"(0.0020672938625967974, 0.0, 0.0, 0.0, 0.0020758767504958087, 0.0, 0.0, 0.0, 0.014740447157082726)",0.0002924042727690464,8.779264955038019e-05,0.00010325920100078613,"(0.001, 0.0, 0.0, 0.0, 0.001, 0.0, 0.0, 0.0, 0.001)",0.010376374674379036,-0.004408031632621631,0.017873176596798632,"(0.001, 0.0, 0.0, 0.0, 0.001, 0.0, 0.0, 0.0, 0.001)"
2024/05/14/15:21:28.691934,120525,1715714488,691867585,gps,0.019651898936495712,-0.011205177027445338,-0.9303763578015747,0.36590720096747154,"(0.0020672938625967974, 0.0, 0.0, 0.0, 0.0020758767504958087, 0.0, 0.0, 0.0, 0.014740447157082726)",0.0011204494500882465,2.3353865184604933e-05,-0.00022365762748526274,"(0.001, 0.0, 0.0, 0.0, 0.001, 0.0, 0.0, 0.0, 0.001)",0.009580483542775908,0.010566161636443153,0.007853267202088747,"(0.001, 0.0, 0.0, 0.0, 0.001, 0.0, 0.0, 0.0, 0.001)"
2024/05/14/15:21:28.700482,120526,1715714488,700271180,gps,0.019651898936495712,-0.011205177027445338,-0.9303763578015747,0.36590720096747154,"(0.0020672938625967974, 0.0, 0.0, 0.0, 0.0020758767504958087, 0.0, 0.0, 0.0, 0.014740447157082726)",-0.0002515587595236305,-0.0007816413857589424,0.0007218797252359102,"(0.001, 0.0, 0.0, 0.0, 0.001, 0.0, 0.0, 0.0, 0.001)",0.0005272816076630378,-0.016763715414387863,-0.0060009898463363786,"(0.001, 0.0, 0.0, 0.0, 0.001, 0.0, 0.0, 0.0, 0.001)"
2024/05/14/15:21:28.710821,120527,1715714488,710754895,gps,0.01965755153742072,-0.011192301420095375,-0.9303734208143551,0.3659147590610008,"(0.0020672938625967974, 0.0, 0.0, 0.0, 0.0020758767504958087, 0.0, 0.0, 0.0, 0.014740447157082726)",0.000239351138808612,-0.0005160605050101549,0.00019175513006170907,"(0.001, 0.0, 0.0, 0.0, 0.001, 0.0, 0.0, 0.0, 0.001)",0.00481141419902649,-0.006173476029313769,-0.005447298508761636,"(0.001, 0.0, 0.0, 0.0, 0.001, 0.0, 0.0, 0.0, 0.001)"
2024/05/14/15:21:28.720031,120528,1715714488,719955381,gps,0.01965755153742072,-0.011192301420095375,-0.9303734208143551,0.3659147590610008,"(0.0020672938625967974, 0.0, 0.0, 0.0, 0.0020758767504958087, 0.0, 0.0, 0.0, 0.014740447157082726)",-1.3431568945957579e-05,0.0006292845436819284,-0.0007681726659427249,"(0.001, 0.0, 0.0, 0.0, 0.001, 0.0, 0.0, 0.0, 0.001)",-0.018545486598713457,0.005419849779484945,-0.013197152749335589,"(0.001, 0.0, 0.0, 0.0, 0.001, 0.0, 0.0, 0.0, 0.001)"
2024/05/14/15:21:28.731198,120529,1715714488,731127670,gps,0.01967186143607778,-0.011191108277625362,-0.9303741309897141,0.36591222082391917,"(0.0020672938625967974, 0.0, 0.0, 0.0, 0.0020758767504958087, 0.0, 0.0, 0.0, 0.014740447157082726)",-0.000774900270791749,-0.000196985087895843,0.00013241032612611165,"(0.001, 0.0, 0.0, 0.0, 0.001, 0.0, 0.0, 0.0, 0.001)",0.0009715616708719434,0.0012735941991011814,-0.0037747631606972233,"(0.001, 0.0, 0.0, 0.0, 0.001, 0.0, 0.0, 0.0, 0.001)"
2024/05/14/15:21:28.740840,120530,1715714488,740770019,gps,0.01967186143607778,-0.011191108277625362,-0.9303741309897141,0.36591222082391917,"(0.0020672938625967974, 0.0, 0.0, 0.0, 0.0020758767504958087, 0.0, 0.0, 0.0, 0.014740447157082726)",-0.001009906950586549,-0.00018298482827112245,-0.0008689759603979505,"(0.001, 0.0, 0.0, 0.0, 0.001, 0.0, 0.0, 0.0, 0.001)",0.003147397600964161,0.0018896039449892866,-0.0013748751546665604,"(0.001, 0.0, 0.0, 0.0, 0.001, 0.0, 0.0, 0.0, 0.001)"
2024/05/14/15:21:28.756213,120531,1715714488,756114641,gps,0.019669074307808662,-0.011196614808104341,-0.9303762986429257,0.36590669064148384,"(0.0020672938625967974, 0.0, 0.0, 0.0, 0.0020758767504958087, 0.0, 0.0, 0.0, 0.014740447157082726)",2.5057501425734227e-05,0.00021563099729876592,-6.852843809160355e-05,"(0.001, 0.0, 0.0, 0.0, 0.001, 0.0, 0.0, 0.0, 0.001)",0.0019685688232027095,0.007118948025119744,-0.027385089447434195,"(0.001, 0.0, 0.0, 0.0, 0.001, 0.0, 0.0, 0.0, 0.001)"
2024/05/14/15:21:28.760404,120532,1715714488,760327615,gps,0.019669074307808662,-0.011196614808104341,-0.9303762986429257,0.36590669064148384,"(0.0020672938625967974, 0.0, 0.0, 0.0, 0.0020758767504958087, 0.0, 0.0, 0.0, 0.014740447157082726)",-0.0009455028710356551,-0.0006750775409597942,-0.0005557800952266208,"(0.001, 0.0, 0.0, 0.0, 0.001, 0.0, 0.0, 0.0, 0.001)",0.006242293880866141,0.00834177263564454,-0.000343638258803011,"(0.001, 0.0, 0.0, 0.0, 0.001, 0.0, 0.0, 0.0, 0.001)"
2024/05/14/15:21:28.771240,120533,1715714488,771151177,gps,0.019663687669193,-0.011184293565038073,-0.9303773666343333,0.36590464142896967,"(0.0020672938625967974, 0.0, 0.0, 0.0, 0.0020758767504958087, 0.0, 0.0, 0.0, 0.014740447157082726)",0.00030592670724704233,-0.0005908910696998692,-5.8116900485098756e-05,"(0.001, 0.0, 0.0, 0.0, 0.001, 0.0, 0.0, 0.0, 0.001)",0.0023236385505095753,0.017319467396613296,0.007465292269996324,"(0.001, 0.0, 0.0, 0.0, 0.001, 0.0, 0.0, 0.0, 0.001)"
2024/05/14/15:21:28.779602,120534,1715714488,779536132,gps,0.019663687669193,-0.011184293565038073,-0.9303773666343333,0.36590464142896967,"(0.0020672938625967974, 0.0, 0.0, 0.0, 0.0020758767504958087, 0.0, 0.0, 0.0, 0.014740447157082726)",-0.00024219834553371612,0.0007243548692905778,0.0002398344462001372,"(0.001, 0.0, 0.0, 0.0, 0.001, 0.0, 0.0, 0.0, 0.001)",0.010424647507726691,0.027667949610790454,-0.027728466473285463,"(0.001, 0.0, 0.0, 0.0, 0.001, 0.0, 0.0, 0.0, 0.001)"
2024/05/14/15:21:28.791818,120535,1715714488,791708643,gps,0.019676262527420597,-0.011187694339911448,-0.9303762891619091,0.36590660113425705,"(0.0020672938625967974, 0.0, 0.0, 0.0, 0.0020758767504958087, 0.0, 0.0, 0.0, 0.014740447157082726)",-0.000481548249172861,-0.00012319121025872626,4.2873328759516065e-05,"(0.001, 0.0, 0.0, 0.0, 0.001, 0.0, 0.0, 0.0, 0.001)",0.006813067995398314,0.012962861077027606,0.004815147373128478,"(0.001, 0.0, 0.0, 0.0, 0.001, 0.0, 0.0, 0.0, 0.001)"
2024/05/14/15:21:28.799326,120536,1715714488,799236828,gps,0.019676262527420597,-0.011187694339911448,-0.9303762891619091,0.36590660113425705,"(0.0020672938625967974, 0.0, 0.0, 0.0, 0.0020758767504958087, 0.0, 0.0, 0.0, 0.014740447157082726)",0.0003797850864903559,-0.00045058103328131876,0.00017509775221213655,"(0.001, 0.0, 0.0, 0.0, 0.001, 0.0, 0.0, 0.0, 0.001)",0.013810917344903681,0.009255557492714412,0.0006391160236626421,"(0.001, 0.0, 0.0, 0.0, 0.001, 0.0, 0.0, 0.0, 0.001)"
2024/05/14/15:21:28.811747,120537,1715714488,811676844,gps,0.01966806023469917,-0.011186402235699187,-0.9303783154687623,0.3659019293706083,"(0.0020672938625967974, 0.0, 0.0, 0.0, 0.0020758767504958087, 0.0, 0.0, 0.0, 0.014740447157082726)",9.787517810539126e-05,-0.00023024257191681685,-0.00035900538448410126,"(0.001, 0.0, 0.0, 0.0, 0.001, 0.0, 0.0, 0.0, 0.001)",0.0028301593269195575,-0.0010175280598043461,-0.009528280489980638,"(0.001, 0.0, 0.0, 0.0, 0.001, 0.0, 0.0, 0.0, 0.001)"
2024/05/14/15:21:28.823699,120538,1715714488,823630835,gps,0.01966806023469917,-0.011186402235699187,-0.9303783154687623,0.3659019293706083,"(0.0020672938625967974, 0.0, 0.0, 0.0, 0.0020758767504958087, 0.0, 0.0, 0.0, 0.014740447157082726)",-0.0002713257886684993,0.0008469962167095292,-0.0002776104363759345,"(0.001, 0.0, 0.0, 0.0, 0.001, 0.0, 0.0, 0.0, 0.001)",0.025948903706140582,0.0036498758606356404,-0.0017319047148843688,"(0.001, 0.0, 0.0, 0.0, 0.001, 0.0, 0.0, 0.0, 0.001)"
2024/05/14/15:21:28.830833,120539,1715714488,830773133,gps,0.01966810087593373,-0.011193748665816496,-0.9303768054889089,0.36590554191894065,"(0.0020672938625967974, 0.0, 0.0, 0.0, 0.0020758767504958087, 0.0, 0.0, 0.0, 0.014740447157082726)",0.0003673018800131767,7.012499220510075e-05,9.805365854674943e-05,"(0.001, 0.0, 0.0, 0.0, 0.001, 0.0, 0.0, 0.0, 0.001)",0.008425233819865615,-0.014262041327988216,-0.0033545048260444714,"(0.001, 0.0, 0.0, 0.0, 0.001, 0.0, 0.0, 0.0, 0.001)"
2024/05/14/15:21:28.839385,120540,1715714488,839309217,gps,0.01966810087593373,-0.011193748665816496,-0.9303768054889089,0.36590554191894065,"(0.0020672938625967974, 0.0, 0.0, 0.0, 0.0020758767504958087, 0.0, 0.0, 0.0, 0.014740447157082726)",0.00037146296783739603,-0.0005960877373229824,6.890173770788996e-05,"(0.001, 0.0, 0.0, 0.0, 0.001, 0.0, 0.0, 0.0, 0.001)",-0.000789459498870126,-0.008260907210665117,-0.0032377373087455444,"(0.001, 0.0, 0.0, 0.0, 0.001, 0.0, 0.0, 0.0, 0.001)"
2024/05/14/15:21:28.928508,120541,1715714488,928406427,gps,0.019660172902519226,-0.011190280806294098,-0.9303771826734313,0.365905114992354,"(0.002370907155063731, 0.0, 0.0, 0.0, 0.002379531451879302, 0.0, 0.0, 0.0, 0.015062007777217945)",0.0005306222320379803,-0.0002094559252921005,5.3920973086451685e-06,"(0.001, 0.0, 0.0, 0.0, 0.001, 0.0, 0.0, 0.0, 0.001)",-0.023783216233692873,-0.0014189705884322331,-0.0037463380067520482,"(0.001, 0.0, 0.0, 0.0, 0.001, 0.0, 0.0, 0.0, 0.001)"
2024/05/14/15:21:28.933906,120542,1715714488,933783675,gps,0.019660172902519226,-0.011190280806294098,-0.9303771826734313,0.365905114992354,"(0.002370907155063731, 0.0, 0.0, 0.0, 0.002379531451879302, 0.0, 0.0, 0.0, 0.015062007777217945)",4.179200386107823e-05,0.0002545756044813855,0.0011050178345332624,"(0.001, 0.0, 0.0, 0.0, 0.001, 0.0, 0.0, 0.0, 0.001)",0.02426999072986536,-0.007043172040069429,-0.0027511935231363145,"(0.001, 0.0, 0.0, 0.0, 0.001, 0.0, 0.0, 0.0, 0.001)"
2024/05/14/15:21:28.948334,120543,1715714488,948219102,gps,0.019661103058935748,-0.011192107399949369,-0.9303744931832422,0.3659118475705308,"(0.002370907155063731, 0.0, 0.0, 0.0, 0.002379531451879302, 0.0, 0.0, 0.0, 0.015062007777217945)",0.000409952754775183,-0.00010552315821943233,0.00022611277162753687,"(0.001, 0.0, 0.0, 0.0, 0.001, 0.0, 0.0, 0.0, 0.001)",0.004988700700389375,-0.002781756378703127,-0.00037796773357364903,"(0.001, 0.0, 0.0, 0.0, 0.001, 0.0, 0.0, 0.0, 0.001)"
2024/05/14/15:21:28.975627,120544,1715714488,975328218,gps,0.019661103058935748,-0.011192107399949369,-0.9303744931832422,0.3659118475705308,"(0.002370907155063731, 0.0, 0.0, 0.0, 0.002379531451879302, 0.0, 0.0, 0.0, 0.015062007777217945)",-0.00024957056549070543,0.00034138991443300777,0.0001334514706402702,"(0.001, 0.0, 0.0, 0.0, 0.001, 0.0, 0.0, 0.0, 0.001)",0.007094215027462727,-0.0028508393039679723,-0.0033280440176001735,"(0.001, 0.0, 0.0, 0.0, 0.001, 0.0, 0.0, 0.0, 0.001)"
2024/05/14/15:21:28.975630,120545,1715714488,975463475,gps,0.019681514818590713,-0.011193515157026612,-0.9303719450827433,0.36591718598041784,"(0.002370907155063731, 0.0, 0.0, 0.0, 0.002379531451879302, 0.0, 0.0, 0.0, 0.015062007777217945)",-0.0009353780937250563,0.00045280715587365204,0.00047903693986173153,"(0.001, 0.0, 0.0, 0.0, 0.001, 0.0, 0.0, 0.0, 0.001)",-0.005843974364716507,-0.007648584302811925,0.013529161979296453,"(0.001, 0.0, 0.0, 0.0, 0.001, 0.0, 0.0, 0.0, 0.001)"
2024/05/14/15:21:28.977136,120546,1715714488,977066911,gps,0.019681514818590713,-0.011193515157026612,-0.9303719450827433,0.36591718598041784,"(0.002370907155063731, 0.0, 0.0, 0.0, 0.002379531451879302, 0.0, 0.0, 0.0, 0.015062007777217945)",-0.0007025462717923319,0.0007237313273830318,-0.0011731307942226415,"(0.001, 0.0, 0.0, 0.0, 0.001, 0.0, 0.0, 0.0, 0.001)",-0.00831724042600004,-0.01789542924690261,0.008130329795871014,"(0.001, 0.0, 0.0, 0.0, 0.001, 0.0, 0.0, 0.0, 0.001)"
2024/05/14/15:21:28.980052,120547,1715714488,979984137,gps,0.019686567127210203,-0.011194803279102694,-0.9303739216278909,0.36591184923288145,"(0.002370907155063731, 0.0, 0.0, 0.0, 0.002379531451879302, 0.0, 0.0, 0.0, 0.015062007777217945)",-0.000885445608070658,0.000478791235653967,0.0003145384169134138,"(0.001, 0.0, 0.0, 0.0, 0.001, 0.0, 0.0, 0.0, 0.001)",-0.007744819432043561,-0.01643513905802458,0.013327307735435926,"(0.001, 0.0, 0.0, 0.0, 0.001, 0.0, 0.0, 0.0, 0.001)"
2024/05/14/15:21:28.981433,120548,1715714488,981369331,gps,0.019686567127210203,-0.011194803279102694,-0.9303739216278909,0.36591184923288145,"(0.002370907155063731, 0.0, 0.0, 0.0, 0.002379531451879302, 0.0, 0.0, 0.0, 0.015062007777217945)",-7.508460522442692e-05,0.0004247460670957838,0.0007997083363574884,"(0.001, 0.0, 0.0, 0.0, 0.001, 0.0, 0.0, 0.0, 0.001)",-0.002356941461982718,-0.011754223295755714,0.014521192640700979,"(0.001, 0.0, 0.0, 0.0, 0.001, 0.0, 0.0, 0.0, 0.001)"
2024/05/14/15:21:28.984576,120549,1715714488,984451758,gps,0.019685709953021522,-0.01120476514302706,-0.9303742769296128,0.3659106870391121,"(0.002370907155063731, 0.0, 0.0, 0.0, 0.002379531451879302, 0.0, 0.0, 0.0, 0.015062007777217945)",-0.00020407613886219486,0.000819692521265559,-0.00010087425061022415,"(0.001, 0.0, 0.0, 0.0, 0.001, 0.0, 0.0, 0.0, 0.001)",-0.0026061865550973894,-0.01770955261923854,0.0020617202418515505,"(0.001, 0.0, 0.0, 0.0, 0.001, 0.0, 0.0, 0.0, 0.001)"
2024/05/14/15:21:28.988323,120550,1715714488,988222222,gps,0.019685709953021522,-0.01120476514302706,-0.9303742769296128,0.3659106870391121,"(0.002370907155063731, 0.0, 0.0, 0.0, 0.002379531451879302, 0.0, 0.0, 0.0, 0.015062007777217945)",6.911042335438727e-06,0.0002248524546155641,-0.000411016088165979,"(0.001, 0.0, 0.0, 0.0, 0.001, 0.0, 0.0, 0.0, 0.001)",-0.01766918612023631,-0.0019530516352812555,-0.022201132496798736,"(0.001, 0.0, 0.0, 0.0, 0.001, 0.0, 0.0, 0.0, 0.001)"
2024/05/14/15:21:28.992944,120551,1715714488,992843135,gps,0.019688511564803397,-0.011208620246167799,-0.930375869254252,0.36590636951812494,"(0.002370907155063731, 0.0, 0.0, 0.0, 0.002379531451879302, 0.0, 0.0, 0.0, 0.015062007777217945)",-0.0002540083670106211,0.0010639361098843145,-0.0003215946877996878,"(0.001, 0.0, 0.0, 0.0, 0.001, 0.0, 0.0, 0.0, 0.001)",-0.02682251802272756,-0.009804504601041408,0.005315530916014166,"(0.001, 0.0, 0.0, 0.0, 0.001, 0.0, 0.0, 0.0, 0.001)"
2024/05/14/15:21:29.000917,120552,1715714489,862968,gps,0.019688511564803397,-0.011208620246167799,-0.930375869254252,0.36590636951812494,"(0.002370907155063731, 0.0, 0.0, 0.0, 0.002379531451879302, 0.0, 0.0, 0.0, 0.015062007777217945)",-5.635919040226866e-05,0.000626376926398587,-0.0006526755283732057,"(0.001, 0.0, 0.0, 0.0, 0.001, 0.0, 0.0, 0.0, 0.001)",0.0005587303255595407,-0.005679951527451412,0.010654070619367935,"(0.001, 0.0, 0.0, 0.0, 0.001, 0.0, 0.0, 0.0, 0.001)"
2024/05/14/15:21:29.012527,120553,1715714489,12441854,gps,0.0196865333150829,-0.011205929694228348,-0.930376446128668,0.36590509156707823,"(0.002370907155063731, 0.0, 0.0, 0.0, 0.002379531451879302, 0.0, 0.0, 0.0, 0.015062007777217945)",-7.300335329322167e-05,0.00029586913574195596,-0.0001185724590168322,"(0.001, 0.0, 0.0, 0.0, 0.001, 0.0, 0.0, 0.0, 0.001)",0.005051827349560772,-0.005173833932139588,0.004871162442290763,"(0.001, 0.0, 0.0, 0.0, 0.001, 0.0, 0.0, 0.0, 0.001)"
2024/05/14/15:21:29.015358,120554,1715714489,13786603,gps,0.0196865333150829,-0.011205929694228348,-0.930376446128668,0.36590509156707823,"(0.002370907155063731, 0.0, 0.0, 0.0, 0.002379531451879302, 0.0, 0.0, 0.0, 0.015062007777217945)",0.00028153925108285874,0.0002269325012494864,-0.00019549911962206653,"(0.001, 0.0, 0.0, 0.0, 0.001, 0.0, 0.0, 0.0, 0.001)",-0.0061050763283039275,0.008888235713618122,-6.57747774720622e-05,"(0.001, 0.0, 0.0, 0.0, 0.001, 0.0, 0.0, 0.0, 0.001)"
2024/05/14/15:21:29.017541,120555,1715714489,17400229,gps,0.019677206822577648,-0.011214530602779705,-0.9303741589143935,0.3659111453062832,"(0.002370907155063731, 0.0, 0.0, 0.0, 0.002379531451879302, 0.0, 0.0, 0.0, 0.015062007777217945)",0.0007675249100937757,0.0006066298703684853,0.0004738341036640346,"(0.001, 0.0, 0.0, 0.0, 0.001, 0.0, 0.0, 0.0, 0.001)",0.007452464411689909,0.0003618401950991768,0.01500782715408785,"(0.001, 0.0, 0.0, 0.0, 0.001, 0.0, 0.0, 0.0, 0.001)"
2024/05/14/15:21:29.020271,120556,1715714489,20175570,gps,0.019677206822577648,-0.011214530602779705,-0.9303741589143935,0.3659111453062832,"(0.002370907155063731, 0.0, 0.0, 0.0, 0.002379531451879302, 0.0, 0.0, 0.0, 0.015062007777217945)",7.471364775618813e-05,0.00026157077501715823,0.00011880661004616002,"(0.001, 0.0, 0.0, 0.0, 0.001, 0.0, 0.0, 0.0, 0.001)",-0.0023498171387463388,-0.002115348689802281,-0.023093692873682643,"(0.001, 0.0, 0.0, 0.0, 0.001, 0.0, 0.0, 0.0, 0.001)"
2024/05/14/15:21:29.028445,120557,1715714489,28298184,gps,0.019695811832062895,-0.011218660222490746,-0.9303763654270351,0.36590440734414276,"(0.002370907155063731, 0.0, 0.0, 0.0, 0.002379531451879302, 0.0, 0.0, 0.0, 0.015062007777217945)",-0.0006118563035848671,0.001059778780591489,-0.00023934415920573343,"(0.001, 0.0, 0.0, 0.0, 0.001, 0.0, 0.0, 0.0, 0.001)",0.012623756092624725,0.005022639726750979,-0.01363842380867004,"(0.001, 0.0, 0.0, 0.0, 0.001, 0.0, 0.0, 0.0, 0.001)"
2024/05/14/15:21:29.048147,120558,1715714489,47972534,gps,0.019695811832062895,-0.011218660222490746,-0.9303763654270351,0.36590440734414276,"(0.002370907155063731, 0.0, 0.0, 0.0, 0.002379531451879302, 0.0, 0.0, 0.0, 0.015062007777217945)",0.00043965969260291346,0.0003017641690371736,-0.0011325206529384398,"(0.001, 0.0, 0.0, 0.0, 0.001, 0.0, 0.0, 0.0, 0.001)",0.008829425051317948,0.003526654207127395,-0.016186084679188428,"(0.001, 0.0, 0.0, 0.0, 0.001, 0.0, 0.0, 0.0, 0.001)"
2024/05/14/15:21:29.070867,120559,1715714489,70815412,gps,0.01968172455586635,-0.011207684608737108,-0.930370898653583,0.3659194015937697,"(0.002370907155063731, 0.0, 0.0, 0.0, 0.002379531451879302, 0.0, 0.0, 0.0, 0.015062007777217945)",3.830468299596058e-05,-0.000331888156184668,0.0013733762366084066,"(0.001, 0.0, 0.0, 0.0, 0.001, 0.0, 0.0, 0.0, 0.001)",-0.006995681438704058,-0.008605922207762835,-0.022494287870440322,"(0.001, 0.0, 0.0, 0.0, 0.001, 0.0, 0.0, 0.0, 0.001)"
2024/05/14/15:21:29.073144,120560,1715714489,73031310,gps,0.01968172455586635,-0.011207684608737108,-0.930370898653583,0.3659194015937697,"(0.002370907155063731, 0.0, 0.0, 0.0, 0.002379531451879302, 0.0, 0.0, 0.0, 0.015062007777217945)",-0.0002144775448947228,-0.0004597266428134924,-0.00022268558524223296,"(0.001, 0.0, 0.0, 0.0, 0.001, 0.0, 0.0, 0.0, 0.001)",-0.0049821667938004365,-0.0111183271465831,0.004277737102366167,"(0.001, 0.0, 0.0, 0.0, 0.001, 0.0, 0.0, 0.0, 0.001)"
2024/05/14/15:21:29.078595,120561,1715714489,78498788,gps,0.01968502252923284,-0.011208527470460137,-0.9303736618327241,0.36591217275179,"(0.002370907155063731, 0.0, 0.0, 0.0, 0.002379531451879302, 0.0, 0.0, 0.0, 0.015062007777217945)",-9.172736067624845e-05,0.0001119068818337766,0.0003520214836198005,"(0.001, 0.0, 0.0, 0.0, 0.001, 0.0, 0.0, 0.0, 0.001)",-0.011151172220985647,0.0023901177783491236,-0.008810023456291175,"(0.001, 0.0, 0.0, 0.0, 0.001, 0.0, 0.0, 0.0, 0.001)"
2024/05/14/15:21:29.085241,120562,1715714489,85151472,gps,0.01968502252923284,-0.011208527470460137,-0.9303736618327241,0.36591217275179,"(0.002370907155063731, 0.0, 0.0, 0.0, 0.002379531451879302, 0.0, 0.0, 0.0, 0.015062007777217945)",-0.0005704305351919076,-0.0010420943276774066,-0.0005900891777643883,"(0.001, 0.0, 0.0, 0.0, 0.001, 0.0, 0.0, 0.0, 0.001)",0.01609145249110475,-0.015236260923436969,-0.016638610257614612,"(0.001, 0.0, 0.0, 0.0, 0.001, 0.0, 0.0, 0.0, 0.001)"
2024/05/14/15:21:29.088135,120563,1715714489,88066911,gps,0.01969246964491907,-0.011183207972018865,-0.9303751007440788,0.365908888132256,"(0.002370907155063731, 0.0, 0.0, 0.0, 0.002379531451879302, 0.0, 0.0, 0.0, 0.015062007777217945)",-0.0011455087760092175,-0.0011176242712081458,0.00014691758908667055,"(0.001, 0.0, 0.0, 0.0, 0.001, 0.0, 0.0, 0.0, 0.001)",0.005933103197035479,0.004231861692502938,0.006392885074549088,"(0.001, 0.0, 0.0, 0.0, 0.001, 0.0, 0.0, 0.0, 0.001)"
2024/05/14/15:21:29.089436,120564,1715714489,89364372,gps,0.01969246964491907,-0.011183207972018865,-0.9303751007440788,0.365908888132256,"(0.002370907155063731, 0.0, 0.0, 0.0, 0.002379531451879302, 0.0, 0.0, 0.0, 0.015062007777217945)",-0.00020511611913084587,-0.00023522988802797553,-0.0002997297782961888,"(0.001, 0.0, 0.0, 0.0, 0.001, 0.0, 0.0, 0.0, 0.001)",-0.0056173642407011835,-0.0056058330523011506,-0.004638423121438065,"(0.001, 0.0, 0.0, 0.0, 0.001, 0.0, 0.0, 0.0, 0.001)"
2024/05/14/15:21:29.095041,120565,1715714489,94974690,gps,0.01968255820056843,-0.011178788312261113,-0.9303760786741108,0.36590706993106287,"(0.002370907155063731, 0.0, 0.0, 0.0, 0.002379531451879302, 0.0, 0.0, 0.0, 0.015062007777217945)",-0.00011045285038828805,-0.00107708979570211,2.6145826561745567e-05,"(0.001, 0.0, 0.0, 0.0, 0.001, 0.0, 0.0, 0.0, 0.001)",0.008079083441842862,-0.010568661803829243,-0.012810133493470287,"(0.001, 0.0, 0.0, 0.0, 0.001, 0.0, 0.0, 0.0, 0.001)"
2024/05/14/15:21:29.100175,120566,1715714489,100114976,gps,0.01968255820056843,-0.011178788312261113,-0.9303760786741108,0.36590706993106287,"(0.002370907155063731, 0.0, 0.0, 0.0, 0.002379531451879302, 0.0, 0.0, 0.0, 0.015062007777217945)",-0.0004393604492679128,-8.995320726684605e-06,-0.00024755614238430895,"(0.001, 0.0, 0.0, 0.0, 0.001, 0.0, 0.0, 0.0, 0.001)",0.0108728815196337,-0.0035387015325204327,-0.03802141628651635,"(0.001, 0.0, 0.0, 0.0, 0.001, 0.0, 0.0, 0.0, 0.001)"
2024/05/14/15:21:29.110756,120567,1715714489,110700977,gps,0.019685270154453982,-0.011184344348786518,-0.9303779487981643,0.36590199913440535,"(0.002370907155063731, 0.0, 0.0, 0.0, 0.002379531451879302, 0.0, 0.0, 0.0, 0.015062007777217945)",1.957894314722022e-05,-0.00034435948652457207,-0.0003247172200099058,"(0.001, 0.0, 0.0, 0.0, 0.001, 0.0, 0.0, 0.0, 0.001)",0.014484897897447306,-0.012740444462357031,0.0074930211211177945,"(0.001, 0.0, 0.0, 0.0, 0.001, 0.0, 0.0, 0.0, 0.001)"
2024/05/14/15:21:29.121091,120568,1715714489,121020676,gps,0.019685270154453982,-0.011184344348786518,-0.9303779487981643,0.36590199913440535,"(0.002370907155063731, 0.0, 0.0, 0.0, 0.002379531451879302, 0.0, 0.0, 0.0, 0.015062007777217945)",-0.00044333595299857995,-0.00021236403826148972,-0.0008275860968500862,"(0.001, 0.0, 0.0, 0.0, 0.001, 0.0, 0.0, 0.0, 0.001)",0.0017676583707001065,-0.01476263310303274,-0.0049687737726713255,"(0.001, 0.0, 0.0, 0.0, 0.001, 0.0, 0.0, 0.0, 0.001)"
2024/05/14/15:21:29.131337,120569,1715714489,131270198,gps,0.019702536246076676,-0.011185919936555171,-0.9303805265491316,0.3658944671333598,"(0.002370907155063731, 0.0, 0.0, 0.0, 0.002379531451879302, 0.0, 0.0, 0.0, 0.015062007777217945)",-0.000896888669778514,0.0004278657677577508,-0.0005225331212724892,"(0.001, 0.0, 0.0, 0.0, 0.001, 0.0, 0.0, 0.0, 0.001)",0.004875015684467371,-0.008748812826620097,-0.02333092256107756,"(0.001, 0.0, 0.0, 0.0, 0.001, 0.0, 0.0, 0.0, 0.001)"
2024/05/14/15:21:29.139694,120570,1715714489,139619287,gps,0.019702536246076676,-0.011185919936555171,-0.9303805265491316,0.3658944671333598,"(0.002370907155063731, 0.0, 0.0, 0.0, 0.002379531451879302, 0.0, 0.0, 0.0, 0.015062007777217945)",-0.0004154361448849327,-0.00035197287923921484,-0.0007348067572395146,"(0.001, 0.0, 0.0, 0.0, 0.001, 0.0, 0.0, 0.0, 0.001)",0.0023435470102446195,-0.010874611677017431,-0.0022990615305033286,"(0.001, 0.0, 0.0, 0.0, 0.001, 0.0, 0.0, 0.0, 0.001)"
2024/05/14/15:21:29.152922,120571,1715714489,152826163,gps,0.01969464026715338,-0.011173273225654399,-0.9303790961151958,0.365898915852512,"(0.002370907155063731, 0.0, 0.0, 0.0, 0.002379531451879302, 0.0, 0.0, 0.0, 0.015062007777217945)",-0.00041629004569618516,-0.000594837487611395,0.00012609518906731435,"(0.001, 0.0, 0.0, 0.0, 0.001, 0.0, 0.0, 0.0, 0.001)",0.012430148522417887,-0.008476089356372089,-0.01724967376927031,"(0.001, 0.0, 0.0, 0.0, 0.001, 0.0, 0.0, 0.0, 0.001)"
2024/05/14/15:21:29.159935,120572,1715714489,159839697,gps,0.01969464026715338,-0.011173273225654399,-0.9303790961151958,0.365898915852512,"(0.002370907155063731, 0.0, 0.0, 0.0, 0.002379531451879302, 0.0, 0.0, 0.0, 0.015062007777217945)",0.0003420576706457147,-0.0005865227332153619,-8.73377697767839e-05,"(0.001, 0.0, 0.0, 0.0, 0.001, 0.0, 0.0, 0.0, 0.001)",-0.002421718979154673,0.0030875280488859122,-0.025868263070826687,"(0.001, 0.0, 0.0, 0.0, 0.001, 0.0, 0.0, 0.0, 0.001)"
2024/05/14/15:21:29.171314,120573,1715714489,171238246,gps,0.019687877208735157,-0.01117034654669315,-0.9303810147734439,0.36589449052722445,"(0.002370907155063731, 0.0, 0.0, 0.0, 0.002379531451879302, 0.0, 0.0, 0.0, 0.015062007777217945)",2.0617830391295902e-05,-0.0004971401358182126,-0.000229973741445563,"(0.001, 0.0, 0.0, 0.0, 0.001, 0.0, 0.0, 0.0, 0.001)",0.014451534952273528,0.005145730525439143,0.017747952931828768,"(0.001, 0.0, 0.0, 0.0, 0.001, 0.0, 0.0, 0.0, 0.001)"
2024/05/14/15:21:29.180911,120574,1715714489,180845559,gps,0.019687877208735157,-0.01117034654669315,-0.9303810147734439,0.36589449052722445,"(0.002370907155063731, 0.0, 0.0, 0.0, 0.002379531451879302, 0.0, 0.0, 0.0, 0.015062007777217945)",0.0009670645811613617,-0.000477731636971434,0.0007935798762325603,"(0.001, 0.0, 0.0, 0.0, 0.001, 0.0, 0.0, 0.0, 0.001)",0.009947064864531686,-0.0025239928271999566,0.010626323002565129,"(0.001, 0.0, 0.0, 0.0, 0.001, 0.0, 0.0, 0.0, 0.001)"
2024/05/14/15:21:29.190698,120575,1715714489,190647530,gps,0.019690341081873473,-0.011180589899790167,-0.9303812635136692,0.3658934125948164,"(0.002370907155063731, 0.0, 0.0, 0.0, 0.002379531451879302, 0.0, 0.0, 0.0, 0.015062007777217945)",-0.00016142736605417169,0.000618064129458091,-0.0005225336800538242,"(0.001, 0.0, 0.0, 0.0, 0.001, 0.0, 0.0, 0.0, 0.001)",0.015174962746654672,-0.0026546988910560944,0.0015278052064483765,"(0.001, 0.0, 0.0, 0.0, 0.001, 0.0, 0.0, 0.0, 0.001)"
2024/05/14/15:21:29.199544,120576,1715714489,199475334,gps,0.019690341081873473,-0.011180589899790167,-0.9303812635136692,0.3658934125948164,"(0.002370907155063731, 0.0, 0.0, 0.0, 0.002379531451879302, 0.0, 0.0, 0.0, 0.015062007777217945)",-0.0001926350923783138,0.0002522189911764301,0.0010516644238498666,"(0.001, 0.0, 0.0, 0.0, 0.001, 0.0, 0.0, 0.0, 0.001)",0.013460227763895062,-0.0015541091504840214,-0.0007071200622776969,"(0.001, 0.0, 0.0, 0.0, 0.001, 0.0, 0.0, 0.0, 0.001)"
2024/05/14/15:21:29.213473,120577,1715714489,213390406,gps,0.01968539034344609,-0.011186907619137949,-0.9303776236931192,0.3659027409518704,"(0.002370907155063731, 0.0, 0.0, 0.0, 0.002379531451879302, 0.0, 0.0, 0.0, 0.015062007777217945)",0.0004127953402002148,0.0006097493936558978,8.444910824643355e-05,"(0.001, 0.0, 0.0, 0.0, 0.001, 0.0, 0.0, 0.0, 0.001)",0.008924069238273987,-0.010264574405955459,0.01130860015134521,"(0.001, 0.0, 0.0, 0.0, 0.001, 0.0, 0.0, 0.0, 0.001)"
2024/05/14/15:21:29.224077,120578,1715714489,223998792,gps,0.01968539034344609,-0.011186907619137949,-0.9303776236931192,0.3659027409518704,"(0.002370907155063731, 0.0, 0.0, 0.0, 0.002379531451879302, 0.0, 0.0, 0.0, 0.015062007777217945)",0.0008151885607154335,-0.0009485513777667114,0.00024490090530801946,"(0.001, 0.0, 0.0, 0.0, 0.001, 0.0, 0.0, 0.0, 0.001)",0.01651115074519287,-0.007925708663629176,0.008269928936726961,"(0.001, 0.0, 0.0, 0.0, 0.001, 0.0, 0.0, 0.0, 0.001)"
2024/05/14/15:21:29.230708,120579,1715714489,230627184,gps,0.01969070774042681,-0.011171043365751695,-0.9303742687484566,0.36591146998908936,"(0.002370907155063731, 0.0, 0.0, 0.0, 0.002379531451879302, 0.0, 0.0, 0.0, 0.015062007777217945)",-0.0007450114559146824,-0.00011778449594456208,0.0006820606939279766,"(0.001, 0.0, 0.0, 0.0, 0.001, 0.0, 0.0, 0.0, 0.001)",0.0031196680771921463,0.0050828309198634744,0.0021228172453450957,"(0.001, 0.0, 0.0, 0.0, 0.001, 0.0, 0.0, 0.0, 0.001)"
2024/05/14/15:21:29.240582,120580,1715714489,240505458,gps,0.01969070774042681,-0.011171043365751695,-0.9303742687484566,0.36591146998908936,"(0.002370907155063731, 0.0, 0.0, 0.0, 0.002379531451879302, 0.0, 0.0, 0.0, 0.015062007777217945)",0.00061772632693918,0.00029171287440697056,-0.0001518891224720977,"(0.001, 0.0, 0.0, 0.0, 0.001, 0.0, 0.0, 0.0, 0.001)",0.015129123770318558,0.008653129060021443,0.0030464730253496734,"(0.001, 0.0, 0.0, 0.0, 0.001, 0.0, 0.0, 0.0, 0.001)"
2024/05/14/15:21:29.262729,120581,1715714489,262659133,gps,0.019674326078531677,-0.011172290551086862,-0.9303743103166107,0.3659122073941896,"(0.002370907155063731, 0.0, 0.0, 0.0, 0.002379531451879302, 0.0, 0.0, 0.0, 0.015062007777217945)",0.000448164359597724,-0.0004295846622342246,0.0005009031108315375,"(0.001, 0.0, 0.0, 0.0, 0.001, 0.0, 0.0, 0.0, 0.001)",0.00023393493707815437,0.0013801590645593819,0.002239312198645696,"(0.001, 0.0, 0.0, 0.0, 0.001, 0.0, 0.0, 0.0, 0.001)"
2024/05/14/15:21:29.265140,120582,1715714489,265056273,gps,0.019674326078531677,-0.011172290551086862,-0.9303743103166107,0.3659122073941896,"(0.002370907155063731, 0.0, 0.0, 0.0, 0.002379531451879302, 0.0, 0.0, 0.0, 0.015062007777217945)",0.0001879132864633723,0.00016977017820894453,-8.93050672424349e-05,"(0.001, 0.0, 0.0, 0.0, 0.001, 0.0, 0.0, 0.0, 0.001)",0.01541902059691716,-0.005394479347793611,-0.0033326771364430873,"(0.001, 0.0, 0.0, 0.0, 0.001, 0.0, 0.0, 0.0, 0.001)"
2024/05/14/15:21:29.271768,120583,1715714489,271655282,gps,0.019673265596448653,-0.011170936668331084,-0.9303769592985511,0.36590557033353005,"(0.002370907155063731, 0.0, 0.0, 0.0, 0.002379531451879302, 0.0, 0.0, 0.0, 0.015062007777217945)",0.00037534638850280835,-0.0004576470016104851,-0.00011544979807010085,"(0.001, 0.0, 0.0, 0.0, 0.001, 0.0, 0.0, 0.0, 0.001)",0.00727213379316572,-0.005399793072482608,0.02054293888996339,"(0.001, 0.0, 0.0, 0.0, 0.001, 0.0, 0.0, 0.0, 0.001)"
2024/05/14/15:21:29.279577,120584,1715714489,279512534,gps,0.019673265596448653,-0.011170936668331084,-0.9303769592985511,0.36590557033353005,"(0.002370907155063731, 0.0, 0.0, 0.0, 0.002379531451879302, 0.0, 0.0, 0.0, 0.015062007777217945)",-2.2673370230470993e-06,-0.00010635238246725329,-0.0001768771196221815,"(0.001, 0.0, 0.0, 0.0, 0.001, 0.0, 0.0, 0.0, 0.001)",-0.01169930583616784,-0.011517806294228465,-0.00998671572225205,"(0.001, 0.0, 0.0, 0.0, 0.001, 0.0, 0.0, 0.0, 0.001)"
2024/05/14/15:21:29.291245,120585,1715714489,291138050,gps,0.019681086485491425,-0.011181854557069954,-0.9303783859736587,0.36590118867867194,"(0.002370907155063731, 0.0, 0.0, 0.0, 0.002379531451879302, 0.0, 0.0, 0.0, 0.015062007777217945)",1.3336431583815383e-05,0.0006804230792376173,-0.0003278418943858357,"(0.001, 0.0, 0.0, 0.0, 0.001, 0.0, 0.0, 0.0, 0.001)",-0.002848756265126146,0.0017195509569445432,-0.004976148009962486,"(0.001, 0.0, 0.0, 0.0, 0.001, 0.0, 0.0, 0.0, 0.001)"
2024/05/14/15:21:29.300049,120586,1715714489,299944427,gps,0.019681086485491425,-0.011181854557069954,-0.9303783859736587,0.36590118867867194,"(0.002370907155063731, 0.0, 0.0, 0.0, 0.002379531451879302, 0.0, 0.0, 0.0, 0.015062007777217945)",-0.0007660034969481127,-0.0005452908281661894,0.00026988682664288424,"(0.001, 0.0, 0.0, 0.0, 0.001, 0.0, 0.0, 0.0, 0.001)",-0.008267641218451824,-0.002156563846991825,-0.004078072149861762,"(0.001, 0.0, 0.0, 0.0, 0.001, 0.0, 0.0, 0.0, 0.001)"
2024/05/14/15:21:29.310860,120587,1715714489,310808799,gps,0.01968410196122552,-0.011168783475826054,-0.9303767181827574,0.36590566635286237,"(0.002370907155063731, 0.0, 0.0, 0.0, 0.002379531451879302, 0.0, 0.0, 0.0, 0.015062007777217945)",-0.00033931090416691723,-4.1913395958584026e-05,-2.2788690199548582e-05,"(0.001, 0.0, 0.0, 0.0, 0.001, 0.0, 0.0, 0.0, 0.001)",-0.009955381914928074,0.011042242453802097,-0.013919441129133785,"(0.001, 0.0, 0.0, 0.0, 0.001, 0.0, 0.0, 0.0, 0.001)"
2024/05/14/15:21:29.319540,120588,1715714489,319415193,gps,0.01968410196122552,-0.011168783475826054,-0.9303767181827574,0.36590566635286237,"(0.002370907155063731, 0.0, 0.0, 0.0, 0.002379531451879302, 0.0, 0.0, 0.0, 0.015062007777217945)",3.7262358425638545e-05,0.0007843567887211983,0.00031453952569945686,"(0.001, 0.0, 0.0, 0.0, 0.001, 0.0, 0.0, 0.0, 0.001)",0.0005276845095953791,0.012126889782229495,0.005044244128228192,"(0.001, 0.0, 0.0, 0.0, 0.001, 0.0, 0.0, 0.0, 0.001)"
2024/05/14/15:21:29.332589,120589,1715714489,332490978,gps,0.019668186259554757,-0.011167638908296213,-0.9303751043658185,0.3659106604989333,"(0.002370907155063731, 0.0, 0.0, 0.0, 0.002379531451879302, 0.0, 0.0, 0.0, 0.015062007777217945)",0.0007529600065841705,-0.0006592774537503061,0.00025831842575788907,"(0.001, 0.0, 0.0, 0.0, 0.001, 0.0, 0.0, 0.0, 0.001)",0.010897615830314206,0.005477898761141569,-0.012132006521140052,"(0.001, 0.0, 0.0, 0.0, 0.001, 0.0, 0.0, 0.0, 0.001)"
2024/05/14/15:21:29.339711,120590,1715714489,339626505,gps,0.019668186259554757,-0.011167638908296213,-0.9303751043658185,0.3659106604989333,"(0.002370907155063731, 0.0, 0.0, 0.0, 0.002379531451879302, 0.0, 0.0, 0.0, 0.015062007777217945)",0.0004906281539616709,-0.0005764714752526876,-0.0005755160686417885,"(0.001, 0.0, 0.0, 0.0, 0.001, 0.0, 0.0, 0.0, 0.001)",-0.036473054674185254,0.0037362324438649556,-0.010583140236302262,"(0.001, 0.0, 0.0, 0.0, 0.001, 0.0, 0.0, 0.0, 0.001)"
2024/05/14/15:21:29.358754,120591,1715714489,358542322,gps,0.01968435794231168,-0.011161285216969534,-0.9303773941889817,0.365904162516395,"(0.002370907155063731, 0.0, 0.0, 0.0, 0.002379531451879302, 0.0, 0.0, 0.0, 0.015062007777217945)",-0.0008490373350612204,-0.0002913537019997866,-0.00017167166290164886,"(0.001, 0.0, 0.0, 0.0, 0.001, 0.0, 0.0, 0.0, 0.001)",-0.004746498302167046,0.002536968151243503,-0.029425591819482767,"(0.001, 0.0, 0.0, 0.0, 0.001, 0.0, 0.0, 0.0, 0.001)"
2024/05/14/15:21:29.362687,120592,1715714489,362600083,gps,0.01968435794231168,-0.011161285216969534,-0.9303773941889817,0.365904162516395,"(0.002370907155063731, 0.0, 0.0, 0.0, 0.002379531451879302, 0.0, 0.0, 0.0, 0.015062007777217945)",-0.0002540100887497575,-0.00020820670590301595,-0.0003184716509118069,"(0.001, 0.0, 0.0, 0.0, 0.001, 0.0, 0.0, 0.0, 0.001)",-0.022302630652454986,0.004764002076561543,-0.0015496662659290796,"(0.001, 0.0, 0.0, 0.0, 0.001, 0.0, 0.0, 0.0, 0.001)"
2024/05/14/15:21:29.372961,120593,1715714489,372795795,gps,0.019682949002639893,-0.011166952375009573,-0.9303781676077284,0.36590209883533,"(0.002370907155063731, 0.0, 0.0, 0.0, 0.002379531451879302, 0.0, 0.0, 0.0, 0.015062007777217945)",-0.00020407789901945425,0.00024910018684306704,-0.00016230120945313423,"(0.001, 0.0, 0.0, 0.0, 0.001, 0.0, 0.0, 0.0, 0.001)",-0.02031888112461442,0.01295826513751822,-0.003933612131789302,"(0.001, 0.0, 0.0, 0.0, 0.001, 0.0, 0.0, 0.0, 0.001)"
2024/05/14/15:21:29.379812,120594,1715714489,379751584,gps,0.019682949002639893,-0.011166952375009573,-0.9303781676077284,0.36590209883533,"(0.002370907155063731, 0.0, 0.0, 0.0, 0.002379531451879302, 0.0, 0.0, 0.0, 0.015062007777217945)",-0.0008013734247483541,-0.00020023110222259545,-0.0004495383180917344,"(0.001, 0.0, 0.0, 0.0, 0.001, 0.0, 0.0, 0.0, 0.001)",-0.014537003635598752,0.024964659146821108,-0.03425081879114611,"(0.001, 0.0, 0.0, 0.0, 0.001, 0.0, 0.0, 0.0, 0.001)"
2024/05/14/15:21:29.391913,120595,1715714489,391856145,gps,0.01967321862691193,-0.011157679884088448,-0.9303771705229025,0.3659054402687394,"(0.002370907155063731, 0.0, 0.0, 0.0, 0.002379531451879302, 0.0, 0.0, 0.0, 0.015062007777217945)",0.0005189009907145395,-0.0006000347002998307,0.00025623589535619576,"(0.001, 0.0, 0.0, 0.0, 0.001, 0.0, 0.0, 0.0, 0.001)",0.0015419073636907684,0.005303219051111177,0.011418985471443476,"(0.001, 0.0, 0.0, 0.0, 0.001, 0.0, 0.0, 0.0, 0.001)"
2024/05/14/15:21:29.399870,120596,1715714489,399790365,gps,0.01967321862691193,-0.011157679884088448,-0.9303771705229025,0.3659054402687394,"(0.002370907155063731, 0.0, 0.0, 0.0, 0.002379531451879302, 0.0, 0.0, 0.0, 0.015062007777217945)",-0.0001198173256324054,-0.0006260182839046028,-0.00035803481396859356,"(0.001, 0.0, 0.0, 0.0, 0.001, 0.0, 0.0, 0.0, 0.001)",-0.010523315074762802,-0.0014228320628605197,-0.00948196028562511,"(0.001, 0.0, 0.0, 0.0, 0.001, 0.0, 0.0, 0.0, 0.001)"
2024/05/14/15:21:29.414502,120597,1715714489,414432920,gps,0.019690006823066694,-0.01117321599817462,-0.9303775526695864,0.36590309149297484,"(0.002370907155063731, 0.0, 0.0, 0.0, 0.002379531451879302, 0.0, 0.0, 0.0, 0.015062007777217945)",-0.000319547125836478,0.0012427033689938413,9.485923683586073e-05,"(0.001, 0.0, 0.0, 0.0, 0.001, 0.0, 0.0, 0.0, 0.001)",-0.003962545394740562,0.006309095092867113,-0.01597723383113072,"(0.001, 0.0, 0.0, 0.0, 0.001, 0.0, 0.0, 0.0, 0.001)"
2024/05/14/15:21:29.422590,120598,1715714489,420878453,gps,0.019690006823066694,-0.01117321599817462,-0.9303775526695864,0.36590309149297484,"(0.002370907155063731, 0.0, 0.0, 0.0, 0.002379531451879302, 0.0, 0.0, 0.0, 0.015062007777217945)",-0.0013173411385116027,-0.00017736538836971903,0.0011642232388377534,"(0.001, 0.0, 0.0, 0.0, 0.001, 0.0, 0.0, 0.0, 0.001)",0.009657055419789054,-0.0022200962754036694,0.02997321850961221,"(0.001, 0.0, 0.0, 0.0, 0.001, 0.0, 0.0, 0.0, 0.001)"
2024/05/14/15:21:29.431379,120599,1715714489,431259430,gps,0.019693756394028553,-0.01114947166949532,-0.9303760106837933,0.36590753474709126,"(0.002370907155063731, 0.0, 0.0, 0.0, 0.002379531451879302, 0.0, 0.0, 0.0, 0.015062007777217945)",-0.0008053466824950332,-0.00043166269113733636,3.343315342720992e-05,"(0.001, 0.0, 0.0, 0.0, 0.001, 0.0, 0.0, 0.0, 0.001)",0.01230723872354032,-0.007530344570558198,-0.024739441215264522,"(0.001, 0.0, 0.0, 0.0, 0.001, 0.0, 0.0, 0.0, 0.001)"
2024/05/14/15:21:29.439481,120600,1715714489,439401259,gps,0.019693756394028553,-0.01114947166949532,-0.9303760106837933,0.36590753474709126,"(0.002370907155063731, 0.0, 0.0, 0.0, 0.002379531451879302, 0.0, 0.0, 0.0, 0.015062007777217945)",-0.0005754498553073548,0.00033328694766551336,0.0007486938226928879,"(0.001, 0.0, 0.0, 0.0, 0.001, 0.0, 0.0, 0.0, 0.001)",-0.010101402966946452,-0.004692764104154496,-0.011380659176913875,"(0.001, 0.0, 0.0, 0.0, 0.001, 0.0, 0.0, 0.0, 0.001)"
2024/05/14/15:21:29.461347,120601,1715714489,461280596,gps,0.019698881456756568,-0.011156032794113417,-0.9303742927463662,0.36591142698520396,"(0.002370907155063731, 0.0, 0.0, 0.0, 0.002379531451879302, 0.0, 0.0, 0.0, 0.015062007777217945)",-0.0004859873208248525,0.00023039286515231814,0.00010318973812572469,"(0.001, 0.0, 0.0, 0.0, 0.001, 0.0, 0.0, 0.0, 0.001)",0.0030427078558628827,-0.013038725821770614,-0.014270877055998145,"(0.001, 0.0, 0.0, 0.0, 0.001, 0.0, 0.0, 0.0, 0.001)"
2024/05/14/15:21:29.464537,120602,1715714489,464436983,gps,0.019698881456756568,-0.011156032794113417,-0.9303742927463662,0.36591142698520396,"(0.002370907155063731, 0.0, 0.0, 0.0, 0.002379531451879302, 0.0, 0.0, 0.0, 0.015062007777217945)",-0.00021466680218855104,-0.0004403162762082873,0.0005822299650702956,"(0.001, 0.0, 0.0, 0.0, 0.001, 0.0, 0.0, 0.0, 0.001)",0.006010719398272559,-0.024617381291348193,-0.030690472019522772,"(0.001, 0.0, 0.0, 0.0, 0.001, 0.0, 0.0, 0.0, 0.001)"
2024/05/14/15:21:29.470550,120603,1715714489,470496775,gps,0.01969554833782283,-0.01115844071324903,-0.9303751890504913,0.36590925401769187,"(0.002370907155063731, 0.0, 0.0, 0.0, 0.002379531451879302, 0.0, 0.0, 0.0, 0.015062007777217945)",-2.4112725118961707e-05,0.0004912655410548325,-0.0002799481785795859,"(0.001, 0.0, 0.0, 0.0, 0.001, 0.0, 0.0, 0.0, 0.001)",0.00495497774485989,-0.0032839338074467737,-0.001808056372960143,"(0.001, 0.0, 0.0, 0.0, 0.001, 0.0, 0.0, 0.0, 0.001)"
2024/05/14/15:21:29.480458,120604,1715714489,480386514,gps,0.01969554833782283,-0.01115844071324903,-0.9303751890504913,0.36590925401769187,"(0.002370907155063731, 0.0, 0.0, 0.0, 0.002379531451879302, 0.0, 0.0, 0.0, 0.015062007777217945)",-0.0007086022330544968,-8.036773963634101e-05,0.00027497755626915664,"(0.001, 0.0, 0.0, 0.0, 0.001, 0.0, 0.0, 0.0, 0.001)",0.00756877249140572,0.014332513845597654,-0.0003756377455691463,"(0.001, 0.0, 0.0, 0.0, 0.001, 0.0, 0.0, 0.0, 0.001)"
2024/05/14/15:21:29.491404,120605,1715714489,491329205,gps,0.019702613215810138,-0.01115564256075132,-0.9303733197483268,0.365913711921271,"(0.002370907155063731, 0.0, 0.0, 0.0, 0.002379531451879302, 0.0, 0.0, 0.0, 0.015062007777217945)",-0.00033618990605400215,0.0003540737589574388,6.883282922931502e-05,"(0.001, 0.0, 0.0, 0.0, 0.001, 0.0, 0.0, 0.0, 0.001)",0.0012472730474021917,3.324144800067462e-06,0.013310638318338952,"(0.001, 0.0, 0.0, 0.0, 0.001, 0.0, 0.0, 0.0, 0.001)"
2024/05/14/15:21:29.499563,120606,1715714489,499500916,gps,0.019702613215810138,-0.01115564256075132,-0.9303733197483268,0.365913711921271,"(0.002370907155063731, 0.0, 0.0, 0.0, 0.002379531451879302, 0.0, 0.0, 0.0, 0.015062007777217945)",-0.001631496899661284,-0.0003457362538892659,-0.0003183510546805644,"(0.001, 0.0, 0.0, 0.0, 0.001, 0.0, 0.0, 0.0, 0.001)",-0.0014264847819938124,0.014609784295924104,-0.019912419681870543,"(0.001, 0.0, 0.0, 0.0, 0.001, 0.0, 0.0, 0.0, 0.001)"
