time,.header.seq,.header.stamp.secs,.header.stamp.nsecs,.header.frame_id,.twist.linear.x,.twist.linear.y,.twist.linear.z,.twist.angular.x,.twist.angular.y,.twist.angular.z
2024/05/14/15:21:28.093637,59191,1715714488,93371477,base_link,-4.299889461533405e-05,0.0,0.0,0.0,0.0,-1.722280664617474e-08
2024/05/14/15:21:28.114330,59192,1715714488,113442680,base_link,-1.3127671173310848e-05,0.0,0.0,0.0,0.0,4.7302121481113885e-09
2024/05/14/15:21:28.134571,59193,1715714488,133643909,base_link,5.293913676764569e-06,0.0,0.0,0.0,0.0,1.6085725902717817e-08
2024/05/14/15:21:28.153356,59194,1715714488,153085249,base_link,1.72315133280143e-05,0.0,0.0,0.0,0.0,2.2871940661530825e-08
2024/05/14/15:21:28.173239,59195,1715714488,172993880,base_link,2.1441062824240988e-05,0.0,0.0,0.0,0.0,9.50962784800157e-09
2024/05/14/15:21:28.193603,59196,1715714488,193108958,base_link,2.332389744903298e-05,0.0,0.0,0.0,0.0,7.171866902036965e-09
2024/05/14/15:21:28.218562,59197,1715714488,213481660,base_link,7.014952439034074e-07,0.0,0.0,0.0,0.0,-4.499264148202239e-09
2024/05/14/15:21:28.233971,59198,1715714488,233779091,base_link,-1.375004373427735e-05,0.0,0.0,0.0,0.0,-1.0681410271113362e-08
2024/05/14/15:21:28.253824,59199,1715714488,253531039,base_link,-2.3337278523486823e-05,0.0,0.0,0.0,0.0,-1.4422409052147686e-08
2024/05/14/15:21:28.273729,59200,1715714488,273435286,base_link,-2.442463016110722e-05,0.0,0.0,0.0,0.0,-5.043489614960013e-09
2024/05/14/15:21:28.296416,59201,1715714488,293731984,base_link,-2.452807947542473e-05,0.0,0.0,0.0,0.0,-3.6681046296664518e-09
2024/05/14/15:21:28.319275,59202,1715714488,313479940,base_link,-3.305960552151933e-05,0.0,0.0,0.0,0.0,-2.136858654200826e-08
2024/05/14/15:21:28.335140,59203,1715714488,333618633,base_link,-3.786227232817564e-05,0.0,0.0,0.0,0.0,-3.0513836754486616e-08
2024/05/14/15:21:28.353108,59204,1715714488,352875578,base_link,-4.0553019550510146e-05,0.0,0.0,0.0,0.0,-3.5925366974822455e-08
2024/05/14/15:21:28.373820,59205,1715714488,373531022,base_link,-3.4372451907174254e-05,0.0,0.0,0.0,0.0,-1.1792493367168254e-08
2024/05/14/15:21:28.393919,59206,1715714488,393509970,base_link,-3.050380386093588e-05,0.0,0.0,0.0,0.0,-8.269356682263925e-09
2024/05/14/15:21:28.414479,59207,1715714488,414074994,base_link,6.240328257773275e-06,0.0,0.0,0.0,0.0,5.032661431322675e-09
2024/05/14/15:21:28.434213,59208,1715714488,433954045,base_link,2.905971391336995e-05,0.0,0.0,0.0,0.0,1.1974016315431023e-08
2024/05/14/15:21:28.457260,59209,1715714488,453762596,base_link,4.3816113746474515e-05,0.0,0.0,0.0,0.0,1.6137467969262615e-08
2024/05/14/15:21:28.473816,59210,1715714488,473565575,base_link,4.388420046127757e-05,0.0,0.0,0.0,0.0,5.64281214694839e-09
2024/05/14/15:21:28.494697,59211,1715714488,494388621,base_link,4.305670537554429e-05,0.0,0.0,0.0,0.0,4.10494453528398e-09
2024/05/14/15:21:28.513428,59212,1715714488,513162056,base_link,6.92369884039603e-06,0.0,0.0,0.0,0.0,-7.482546781975115e-09
2024/05/14/15:21:28.533423,59213,1715714488,533168918,base_link,-1.5618658839166215e-05,0.0,0.0,0.0,0.0,-1.350971663405147e-08
2024/05/14/15:21:28.554039,59214,1715714488,553729794,base_link,-3.028453438599358e-05,0.0,0.0,0.0,0.0,-1.7109136102744863e-08
2024/05/14/15:21:28.573328,59215,1715714488,573046468,base_link,-3.2817868199057034e-05,0.0,0.0,0.0,0.0,-5.820018285475535e-09
2024/05/14/15:21:28.593333,59216,1715714488,593056311,base_link,-3.343975687627612e-05,0.0,0.0,0.0,0.0,-4.168524129454482e-09
2024/05/14/15:21:28.613674,59217,1715714488,613392862,base_link,-7.196532724176289e-06,0.0,0.0,0.0,0.0,2.4599719450430332e-08
2024/05/14/15:21:28.633864,59218,1715714488,633577136,base_link,9.310165228887842e-06,0.0,0.0,0.0,0.0,3.952544760784295e-08
2024/05/14/15:21:28.653270,59219,1715714488,652991181,base_link,1.9320959494633622e-05,0.0,0.0,0.0,0.0,3.335134892623043e-08
2024/05/14/15:21:28.673273,59220,1715714488,673027608,base_link,2.1799636824829343e-05,0.0,0.0,0.0,0.0,1.2089438480304418e-08
2024/05/14/15:21:28.693264,59221,1715714488,692993398,base_link,2.2692562339631944e-05,0.0,0.0,0.0,0.0,8.682493138764944e-09
2024/05/14/15:21:28.713519,59222,1715714488,713218087,base_link,3.279914815175907e-05,0.0,0.0,0.0,0.0,-4.862016142068822e-09
2024/05/14/15:21:28.733409,59223,1715714488,733148426,base_link,3.8626583778591995e-05,0.0,0.0,0.0,0.0,-1.1985238998277126e-08
2024/05/14/15:21:28.753164,59224,1715714488,752887307,base_link,4.201137902571474e-05,0.0,0.0,0.0,0.0,-1.627836499574156e-08
2024/05/14/15:21:28.773288,59225,1715714488,773042021,base_link,3.595709839773989e-05,0.0,0.0,0.0,0.0,-5.708719372443065e-09
2024/05/14/15:21:28.794406,59226,1715714488,794066794,base_link,3.212644278034501e-05,0.0,0.0,0.0,0.0,-4.159023540879704e-09
2024/05/14/15:21:28.813627,59227,1715714488,813269203,base_link,7.760705915898378e-06,0.0,0.0,0.0,0.0,2.846697482368045e-08
2024/05/14/15:21:28.834018,59228,1715714488,833771991,base_link,-7.530312820920703e-06,0.0,0.0,0.0,0.0,4.539183082941758e-08
2024/05/14/15:21:28.853605,59229,1715714488,853369574,base_link,-1.7549754484261567e-05,0.0,0.0,0.0,0.0,5.5462418839598656e-08
2024/05/14/15:21:28.874036,59230,1715714488,873721610,base_link,-1.989734945635388e-05,0.0,0.0,0.0,0.0,1.8547986582744934e-08
2024/05/14/15:21:28.893889,59231,1715714488,893558452,base_link,-2.0704268998507927e-05,0.0,0.0,0.0,0.0,1.3153197582307817e-08
2024/05/14/15:21:28.913383,59232,1715714488,913101165,base_link,-1.3120878095076063e-05,0.0,0.0,0.0,0.0,3.518896466369501e-08
2024/05/14/15:21:28.933971,59233,1715714488,933676035,base_link,-8.1690589090065e-06,0.0,0.0,0.0,0.0,4.651947611856328e-08
2024/05/14/15:21:28.953944,59234,1715714488,953647409,base_link,-4.766102939635222e-06,0.0,0.0,0.0,0.0,5.3179972888756356e-08
2024/05/14/15:21:28.973851,59235,1715714488,973492801,base_link,-1.916495117126317e-06,0.0,0.0,0.0,0.0,1.7186995800686092e-08
2024/05/14/15:21:28.993310,59236,1715714488,993053845,base_link,-4.029834310594862e-07,0.0,0.0,0.0,0.0,1.1936906538147837e-08
2024/05/14/15:21:29.013339,59237,1715714489,13085117,base_link,-1.282102825003904e-06,0.0,0.0,0.0,0.0,-1.9986352526395214e-08
2024/05/14/15:21:29.033403,59238,1715714489,33107301,base_link,-1.874242431927189e-06,0.0,0.0,0.0,0.0,-3.65950813842559e-08
2024/05/14/15:21:29.053170,59239,1715714489,52940764,base_link,-2.295288591464363e-06,0.0,0.0,0.0,0.0,-4.651704211331504e-08
2024/05/14/15:21:29.074179,59240,1715714489,73946370,base_link,-2.1349170748116096e-06,0.0,0.0,0.0,0.0,-1.5850801272085128e-08
2024/05/14/15:21:29.093311,59241,1715714489,92990827,base_link,-2.037279226881713e-06,0.0,0.0,0.0,0.0,-1.1364160193650186e-08
2024/05/14/15:21:29.113123,59242,1715714489,112914007,base_link,1.5906223890573772e-06,0.0,0.0,0.0,0.0,-2.6699216211624762e-08
2024/05/14/15:21:29.133174,59243,1715714489,132910217,base_link,3.7218228349428647e-06,0.0,0.0,0.0,0.0,-3.45702005733243e-08
2024/05/14/15:21:29.153124,59244,1715714489,152921562,base_link,5.000392773733162e-06,0.0,0.0,0.0,0.0,-3.918553630626388e-08
2024/05/14/15:21:29.173162,59245,1715714489,172936408,base_link,4.718751328895379e-06,0.0,0.0,0.0,0.0,-1.2605807518943948e-08
2024/05/14/15:21:29.193166,59246,1715714489,192952352,base_link,3.7208669617956685e-05,0.0,0.0,0.0,0.0,-2.8301965977009114e-08
2024/05/14/15:21:29.213395,59247,1715714489,213039429,base_link,5.502994401008691e-05,0.0,0.0,0.0,0.0,-3.4184274712557346e-08
2024/05/14/15:21:29.233313,59248,1715714489,233062421,base_link,6.525834163251539e-05,0.0,0.0,0.0,0.0,-3.705369709527666e-08
2024/05/14/15:21:29.253375,59249,1715714489,253082107,base_link,7.117772776728422e-05,0.0,0.0,0.0,0.0,-3.8613582335386616e-08
2024/05/14/15:21:29.273601,59250,1715714489,273364607,base_link,6.101110704915493e-05,0.0,0.0,0.0,0.0,-1.1825727134960789e-08
2024/05/14/15:21:29.293795,59251,1715714489,293475319,base_link,5.456216003040883e-05,0.0,0.0,0.0,0.0,-7.929169810515946e-09
2024/05/14/15:21:29.313179,59252,1715714489,312936029,base_link,2.6210858669926834e-05,0.0,0.0,0.0,0.0,1.8716380274840645e-09
2024/05/14/15:21:29.333635,59253,1715714489,333314349,base_link,8.12890037336595e-06,0.0,0.0,0.0,0.0,6.997598574528177e-09
2024/05/14/15:21:29.353332,59254,1715714489,352952943,base_link,-3.957748256935608e-06,0.0,0.0,0.0,0.0,1.0081535226824162e-08
2024/05/14/15:21:29.373932,59255,1715714489,373685608,base_link,-1.007236701310286e-05,0.0,0.0,0.0,0.0,3.6215932923811623e-09
2024/05/14/15:21:29.393354,59256,1715714489,393038591,base_link,-1.3021572751958174e-05,0.0,0.0,0.0,0.0,2.6733178801314958e-09
2024/05/14/15:21:29.413949,59257,1715714489,413498907,base_link,-4.497442263084161e-05,0.0,0.0,0.0,0.0,5.05556460840476e-08
2024/05/14/15:21:29.433727,59258,1715714489,433455137,base_link,-6.410273492436011e-05,0.0,0.0,0.0,0.0,7.53387697748905e-08
2024/05/14/15:21:29.453409,59259,1715714489,453022322,base_link,-7.588608850229758e-05,0.0,0.0,0.0,0.0,9.004014372755635e-08
2024/05/14/15:21:29.473224,59260,1715714489,472960781,base_link,-6.812655407258934e-05,0.0,0.0,0.0,0.0,2.9782901991897294e-08
2024/05/14/15:21:29.493255,59261,1715714489,493004420,base_link,-6.275579080610423e-05,0.0,0.0,0.0,0.0,2.0982240013462476e-08
2024/05/14/15:21:29.513265,59262,1715714489,513005900,base_link,-4.884752793673764e-05,0.0,0.0,0.0,0.0,-1.605208342849112e-08
2024/05/14/15:21:29.534081,59263,1715714489,533771221,base_link,-3.925202563991013e-05,0.0,0.0,0.0,0.0,-3.536493728964745e-08
2024/05/14/15:21:29.553360,59264,1715714489,553106751,base_link,-3.2255279215086316e-05,0.0,0.0,0.0,0.0,-4.693866588515886e-08
2024/05/14/15:21:29.573334,59265,1715714489,573039112,base_link,-2.206481245218321e-05,0.0,0.0,0.0,0.0,-1.6306121305281384e-08
2024/05/14/15:21:29.593334,59266,1715714489,593065730,base_link,-1.631534431283918e-05,0.0,0.0,0.0,0.0,-1.1819142265546257e-08
2024/05/14/15:21:29.613178,59267,1715714489,612950125,base_link,5.301726780953989e-06,0.0,0.0,0.0,0.0,3.5103253190211468e-09
2024/05/14/15:21:29.633748,59268,1715714489,633444123,base_link,1.822249882131483e-05,0.0,0.0,0.0,0.0,9.525359759381908e-09
2024/05/14/15:21:29.653164,59269,1715714489,652917981,base_link,2.574587164970283e-05,0.0,0.0,0.0,0.0,1.1113803914043096e-08
2024/05/14/15:21:29.673360,59270,1715714489,673041887,base_link,2.5872986632580918e-05,0.0,0.0,0.0,0.0,4.405598371027654e-09
2024/05/14/15:21:29.693108,59271,1715714489,692886310,base_link,2.5433650664904834e-05,0.0,0.0,0.0,0.0,3.282188891495544e-09
2024/05/14/15:21:29.713297,59272,1715714489,713014344,base_link,-6.712224079915997e-06,0.0,0.0,0.0,0.0,-1.873616545826007e-09
2024/05/14/15:21:29.735106,59273,1715714489,733647238,base_link,-2.678911334526946e-05,0.0,0.0,0.0,0.0,-4.594693196500791e-09
2024/05/14/15:21:29.753310,59274,1715714489,753014450,base_link,-3.9797018684394755e-05,0.0,0.0,0.0,0.0,-6.2380695541225565e-09
2024/05/14/15:21:29.773895,59275,1715714489,773571987,base_link,-3.961860417978423e-05,0.0,0.0,0.0,0.0,-2.1869331002755125e-09
2024/05/14/15:21:29.793202,59276,1715714489,792929003,base_link,-3.871604598191863e-05,0.0,0.0,0.0,0.0,-1.5928786442698653e-09
2024/05/14/15:21:29.813311,59277,1715714489,813058714,base_link,-1.090322527331556e-05,0.0,0.0,0.0,0.0,2.233220153780102e-08
2024/05/14/15:21:29.838519,59278,1715714489,833247913,base_link,6.6247459019739e-06,0.0,0.0,0.0,0.0,3.4734771133171826e-08
2024/05/14/15:21:29.853225,59279,1715714489,852997350,base_link,1.816563024241486e-05,0.0,0.0,0.0,0.0,4.210741570505473e-08
2024/05/14/15:21:29.873032,59280,1715714489,872836126,base_link,2.127696234124559e-05,0.0,0.0,0.0,0.0,1.402732012361802e-08
2024/05/14/15:21:29.893441,59281,1715714489,892971181,base_link,2.2460712187557848e-05,0.0,0.0,0.0,0.0,9.924550453602075e-09
2024/05/14/15:21:29.913183,59282,1715714489,912950541,base_link,-5.9828261914529445e-06,0.0,0.0,0.0,0.0,-3.07937120619411e-09
2024/05/14/15:21:29.934925,59283,1715714489,933165263,base_link,-2.3640827588959348e-05,0.0,0.0,0.0,0.0,-9.876890022877372e-09
2024/05/14/15:21:29.953399,59284,1715714489,953032227,base_link,-3.505718981294064e-05,0.0,0.0,0.0,0.0,-1.396350185870774e-08
2024/05/14/15:21:29.973877,59285,1715714489,973607223,base_link,-3.490010763667175e-05,0.0,0.0,0.0,0.0,-4.979243315467334e-09
2024/05/14/15:21:29.994212,59286,1715714489,993952125,base_link,-3.414178155990322e-05,0.0,0.0,0.0,0.0,-3.66106132016687e-09
2024/05/14/15:21:30.013274,59287,1715714490,13022040,base_link,3.233168801184082e-07,0.0,0.0,0.0,0.0,2.9000847817061683e-08
2024/05/14/15:21:30.034014,59288,1715714490,33681904,base_link,2.1807259328865307e-05,0.0,0.0,0.0,0.0,4.5940567955031625e-08
2024/05/14/15:21:30.053874,59289,1715714490,53581068,base_link,3.57713841295104e-05,0.0,0.0,0.0,0.0,5.601719108528079e-08
2024/05/14/15:21:30.073863,59290,1715714490,73587110,base_link,3.69195363799723e-05,0.0,0.0,0.0,0.0,1.8714639625716718e-08
2024/05/14/15:21:30.094251,59291,1715714490,93854008,base_link,3.678912185643442e-05,0.0,0.0,0.0,0.0,1.3263445627325975e-08
2024/05/14/15:21:30.113140,59292,1715714490,112918375,base_link,2.5938367858595893e-06,0.0,0.0,0.0,0.0,4.4731784678140934e-08
2024/05/14/15:21:30.133901,59293,1715714490,133573981,base_link,-1.8742398582648618e-05,0.0,0.0,0.0,0.0,6.094689761511344e-08
2024/05/14/15:21:30.153761,59294,1715714490,153517761,base_link,-3.2628000664182685e-05,0.0,0.0,0.0,0.0,7.050694241237403e-08
2024/05/14/15:21:30.173615,59295,1715714490,173394838,base_link,-3.431492043656483e-05,0.0,0.0,0.0,0.0,2.2932331446247734e-08
2024/05/14/15:21:30.193984,59296,1715714490,193631427,base_link,-3.450338816469031e-05,0.0,0.0,0.0,0.0,1.5990476448966044e-08
2024/05/14/15:21:30.213589,59297,1715714490,213330535,base_link,-6.823585088191703e-06,0.0,0.0,0.0,0.0,-8.645295929804941e-09
2024/05/14/15:21:30.233360,59298,1715714490,233136623,base_link,1.0481445726830001e-05,0.0,0.0,0.0,0.0,-2.150504635876019e-08
2024/05/14/15:21:30.253226,59299,1715714490,252916291,base_link,2.1771846789417773e-05,0.0,0.0,0.0,0.0,-2.9221709620140268e-08
2024/05/14/15:21:30.273581,59300,1715714490,273023992,base_link,2.402474892962067e-05,0.0,0.0,0.0,0.0,-1.0253391782412203e-08
2024/05/14/15:21:30.293099,59301,1715714490,292869569,base_link,2.4691688918172368e-05,0.0,0.0,0.0,0.0,-7.47319036616802e-09
2024/05/14/15:21:30.313326,59302,1715714490,313041644,base_link,3.563911589874326e-06,0.0,0.0,0.0,0.0,-1.2190993404773224e-08
2024/05/14/15:21:30.334222,59303,1715714490,333882637,base_link,-9.585229305946986e-06,0.0,0.0,0.0,0.0,-1.458750537373377e-08
2024/05/14/15:21:30.353337,59304,1715714490,353051996,base_link,-1.8115530450349852e-05,0.0,0.0,0.0,0.0,-1.597230149949168e-08
2024/05/14/15:21:30.373713,59305,1715714490,373467109,base_link,-1.9482254967236794e-05,0.0,0.0,0.0,0.0,-5.03916525862755e-09
2024/05/14/15:21:30.393974,59306,1715714490,393604168,base_link,-1.9773094003908026e-05,0.0,0.0,0.0,0.0,-3.4464316748439095e-09
2024/05/14/15:21:30.413604,59307,1715714490,413349620,base_link,1.390014408228074e-05,0.0,0.0,0.0,0.0,-1.5832578083757534e-08
2024/05/14/15:21:30.433859,59308,1715714490,433566811,base_link,3.4548933383560385e-05,0.0,0.0,0.0,0.0,-2.2225886338239857e-08
2024/05/14/15:21:30.453589,59309,1715714490,453345894,base_link,4.769136788446426e-05,0.0,0.0,0.0,0.0,-2.600415242606938e-08
2024/05/14/15:21:30.473402,59310,1715714490,473099515,base_link,4.603884378012592e-05,0.0,0.0,0.0,0.0,-8.508144855281217e-09
2024/05/14/15:21:30.493116,59311,1715714490,492890030,base_link,4.423471314192214e-05,0.0,0.0,0.0,0.0,-5.954358735438522e-09
2024/05/14/15:21:30.513374,59312,1715714490,512973363,base_link,5.949053605120594e-06,0.0,0.0,0.0,0.0,-3.914570386547509e-09
2024/05/14/15:21:30.533730,59313,1715714490,533474436,base_link,-1.79441646144513e-05,0.0,0.0,0.0,0.0,-2.8207623949461436e-09
2024/05/14/15:21:30.553368,59314,1715714490,553061778,base_link,-3.34985719390122e-05,0.0,0.0,0.0,0.0,-2.1410213092081437e-09
2024/05/14/15:21:30.573810,59315,1715714490,573546093,base_link,-3.5944234313686e-05,0.0,0.0,0.0,0.0,-5.028305488695204e-10
2024/05/14/15:21:30.593353,59316,1715714490,593057099,base_link,-3.647371177751356e-05,0.0,0.0,0.0,0.0,-2.670053589499755e-10
2024/05/14/15:21:30.613418,59317,1715714490,613110432,base_link,-1.0133600120171818e-05,0.0,0.0,0.0,0.0,6.453582910903261e-09
2024/05/14/15:21:30.638447,59318,1715714490,633114727,base_link,6.45606752089912e-06,0.0,0.0,0.0,0.0,9.935888093976303e-09
2024/05/14/15:21:30.653252,59319,1715714490,652985423,base_link,1.7379914178749398e-05,0.0,0.0,0.0,0.0,1.2004716320235476e-08
2024/05/14/15:21:30.673085,59320,1715714490,672848093,base_link,2.0296669471984438e-05,0.0,0.0,0.0,0.0,3.992505042749969e-09
2024/05/14/15:21:30.693465,59321,1715714490,693171106,base_link,2.1407315468502565e-05,0.0,0.0,0.0,0.0,2.8219280437148184e-09
2024/05/14/15:21:30.713622,59322,1715714490,713355464,base_link,1.3945209895055461e-05,0.0,0.0,0.0,0.0,-6.54446497541652e-08
2024/05/14/15:21:30.733881,59323,1715714490,733585876,base_link,8.994424083667037e-06,0.0,0.0,0.0,0.0,-1.0081776056024011e-07
2024/05/14/15:21:30.753831,59324,1715714490,753502163,base_link,5.530772129077039e-06,0.0,0.0,0.0,0.0,-1.2183320923010025e-07
2024/05/14/15:21:30.773771,59325,1715714490,773442933,base_link,2.4666164833183815e-06,0.0,0.0,0.0,0.0,-4.052287188861949e-08
2024/05/14/15:21:30.793804,59326,1715714490,793530227,base_link,8.057847625315401e-07,0.0,0.0,0.0,0.0,-2.864341625237946e-08
2024/05/14/15:21:30.813226,59327,1715714490,812969130,base_link,1.6679786814410565e-05,0.0,0.0,0.0,0.0,-2.4838572891494346e-08
2024/05/14/15:21:30.833333,59328,1715714490,833027217,base_link,2.6376160108790273e-05,0.0,0.0,0.0,0.0,-2.2688101236054795e-08
2024/05/14/15:21:30.853594,59329,1715714490,853084598,base_link,3.251611398939467e-05,0.0,0.0,0.0,0.0,-2.126535697153349e-08
2024/05/14/15:21:30.873370,59330,1715714490,873022087,base_link,2.9868639974557993e-05,0.0,0.0,0.0,0.0,-6.057385315096746e-09
2024/05/14/15:21:30.893824,59331,1715714490,893532266,base_link,2.7946120917175693e-05,0.0,0.0,0.0,0.0,-3.852550557585153e-09
2024/05/14/15:21:30.913259,59332,1715714490,912958798,base_link,2.429262401639453e-05,0.0,0.0,0.0,0.0,-3.474411047279193e-08
2024/05/14/15:21:30.934149,59333,1715714490,933807616,base_link,2.156759310399796e-05,0.0,0.0,0.0,0.0,-5.07185436690509e-08
2024/05/14/15:21:30.953844,59334,1715714490,953555478,base_link,1.942905224714255e-05,0.0,0.0,0.0,0.0,-6.018282398555786e-08
2024/05/14/15:21:30.973338,59335,1715714490,973057248,base_link,1.4487441366290164e-05,0.0,0.0,0.0,0.0,-1.9834420822354655e-08
2024/05/14/15:21:30.993721,59336,1715714490,993467180,base_link,1.1629728438664235e-05,0.0,0.0,0.0,0.0,-1.3942567239011683e-08
2024/05/14/15:21:31.013200,59337,1715714491,12929882,base_link,9.06487783409812e-06,0.0,0.0,0.0,0.0,-3.427715239418939e-08
2024/05/14/15:21:31.033200,59338,1715714491,32941262,base_link,7.286413242445922e-06,0.0,0.0,0.0,0.0,-4.472071352115929e-08
2024/05/14/15:21:31.053812,59339,1715714491,53503417,base_link,5.982982699418353e-06,0.0,0.0,0.0,0.0,-5.084986631442827e-08
2024/05/14/15:21:31.073294,59340,1715714491,73026566,base_link,4.0851438531756295e-06,0.0,0.0,0.0,0.0,-1.6385987356512718e-08
2024/05/14/15:21:31.093394,59341,1715714491,93069748,base_link,3.0116053331704085e-06,0.0,0.0,0.0,0.0,-1.1359641798418155e-08
2024/05/14/15:21:31.113642,59342,1715714491,113335902,base_link,3.999290081480027e-06,0.0,0.0,0.0,0.0,3.6196340214050696e-08
2024/05/14/15:21:31.134327,59343,1715714491,133649724,base_link,4.550050093628823e-06,0.0,0.0,0.0,0.0,6.089662938192162e-08
2024/05/14/15:21:31.153882,59344,1715714491,153626331,base_link,4.854813439070995e-06,0.0,0.0,0.0,0.0,7.561881709196142e-08
2024/05/14/15:21:31.173989,59345,1715714491,173715587,base_link,4.105158607336314e-06,0.0,0.0,0.0,0.0,2.5486316099206896e-08
2024/05/14/15:21:31.194044,59346,1715714491,193737364,base_link,3.6376130121169324e-06,0.0,0.0,0.0,0.0,1.8156287279473918e-08
2024/05/14/15:21:31.213280,59347,1715714491,213035640,base_link,-1.336413490045323e-05,0.0,0.0,0.0,0.0,-1.3493277944562021e-08
2024/05/14/15:21:31.233893,59348,1715714491,233621181,base_link,-2.369243203402992e-05,0.0,0.0,0.0,0.0,-2.999842070464617e-08
2024/05/14/15:21:31.253121,59349,1715714491,252880759,base_link,-3.018501925955426e-05,0.0,0.0,0.0,0.0,-3.988987692420835e-08
2024/05/14/15:21:31.273254,59350,1715714491,272953911,base_link,-2.8111532161063523e-05,0.0,0.0,0.0,0.0,-1.3868357482763815e-08
2024/05/14/15:21:31.293144,59351,1715714491,292903803,base_link,-2.64678756652997e-05,0.0,0.0,0.0,0.0,-1.0056496489169518e-08
2024/05/14/15:21:31.313280,59352,1715714491,313014899,base_link,-3.679915977605675e-06,0.0,0.0,0.0,0.0,3.3554727339021596e-08
2024/05/14/15:21:31.334285,59353,1715714491,333489997,base_link,1.0436590382385969e-05,0.0,0.0,0.0,0.0,5.620380261376638e-08
2024/05/14/15:21:31.353256,59354,1715714491,353025111,base_link,1.9540572537642394e-05,0.0,0.0,0.0,0.0,6.970151728488499e-08
2024/05/14/15:21:31.373068,59355,1715714491,372844777,base_link,2.0924175973681144e-05,0.0,0.0,0.0,0.0,2.3477506621077143e-08
2024/05/14/15:21:31.393276,59356,1715714491,392963430,base_link,2.1166787665215597e-05,0.0,0.0,0.0,0.0,1.6719189283044096e-08
2024/05/14/15:21:31.413330,59357,1715714491,413022905,base_link,4.526098915000627e-05,0.0,0.0,0.0,0.0,-9.660847837885808e-09
2024/05/14/15:21:31.433522,59358,1715714491,433179004,base_link,5.9552237673454914e-05,0.0,0.0,0.0,0.0,-2.3427884323912856e-08
2024/05/14/15:21:31.453434,59359,1715714491,453075208,base_link,6.824500174042533e-05,0.0,0.0,0.0,0.0,-3.168641364597908e-08
2024/05/14/15:21:31.473296,59360,1715714491,473032299,base_link,6.022028653028335e-05,0.0,0.0,0.0,0.0,-1.1096343106642529e-08
2024/05/14/15:21:31.493294,59361,1715714491,493013478,base_link,5.489918178799543e-05,0.0,0.0,0.0,0.0,-8.078749825416301e-09
2024/05/14/15:21:31.513391,59362,1715714491,513027152,base_link,3.387381895984573e-05,0.0,0.0,0.0,0.0,-7.457212544848934e-09
2024/05/14/15:21:31.535450,59363,1715714491,533008623,base_link,2.021464589621086e-05,0.0,0.0,0.0,0.0,-7.084535268911872e-09
2024/05/14/15:21:31.553385,59364,1715714491,553091777,base_link,1.08819480403776e-05,0.0,0.0,0.0,0.0,-6.822070712301568e-09
2024/05/14/15:21:31.573637,59365,1715714491,573401826,base_link,3.498545343337347e-06,0.0,0.0,0.0,0.0,-1.981941153281812e-09
2024/05/14/15:21:31.593840,59366,1715714491,593489969,base_link,-3.8368439857146605e-07,0.0,0.0,0.0,0.0,-1.2796150323773873e-09
2024/05/14/15:21:31.613734,59367,1715714491,613518187,base_link,-6.800172334089312e-06,0.0,0.0,0.0,0.0,-1.1274663540330878e-07
2024/05/14/15:21:31.633905,59368,1715714491,633412422,base_link,-1.0665134409523008e-05,0.0,0.0,0.0,0.0,-1.70465918099985e-07
2024/05/14/15:21:31.654066,59369,1715714491,653737612,base_link,-1.3066996363898794e-05,0.0,0.0,0.0,0.0,-2.0472612716373024e-07
2024/05/14/15:21:31.673631,59370,1715714491,673358676,base_link,-1.1935867200264559e-05,0.0,0.0,0.0,0.0,-6.788330394744742e-08
2024/05/14/15:21:31.693359,59371,1715714491,693068746,base_link,-1.1107706020934579e-05,0.0,0.0,0.0,0.0,-4.7893911849264065e-08
2024/05/14/15:21:31.713384,59372,1715714491,713064226,base_link,-7.159461721093964e-06,0.0,0.0,0.0,0.0,3.554235186797567e-08
2024/05/14/15:21:31.735273,59373,1715714491,733175645,base_link,-4.415345845863911e-06,0.0,0.0,0.0,0.0,7.905371070598688e-08
2024/05/14/15:21:31.753265,59374,1715714491,753018814,base_link,-2.3995996129697957e-06,0.0,0.0,0.0,0.0,1.0512957853749646e-07
2024/05/14/15:21:31.773254,59375,1715714491,773035765,base_link,-7.024094072751644e-07,0.0,0.0,0.0,0.0,3.655127682552125e-08
2024/05/14/15:21:31.793298,59376,1715714491,792996234,base_link,2.570756878714782e-07,0.0,0.0,0.0,0.0,2.6505243913606153e-08
2024/05/14/15:21:31.813689,59377,1715714491,813441395,base_link,-1.7867719179360782e-05,0.0,0.0,0.0,0.0,1.3455458394817724e-08
2024/05/14/15:21:31.833944,59378,1715714491,833673691,base_link,-2.884630424115537e-05,0.0,0.0,0.0,0.0,6.530568262265085e-09
2024/05/14/15:21:31.853585,59379,1715714491,853268816,base_link,-3.572075538880782e-05,0.0,0.0,0.0,0.0,2.2842400792322477e-09
2024/05/14/15:21:31.873683,59380,1715714491,873447890,base_link,-3.167820764999615e-05,0.0,0.0,0.0,0.0,-1.4560356293101724e-10
2024/05/14/15:21:31.893872,59381,1715714491,893377557,base_link,-2.902689442932365e-05,0.0,0.0,0.0,0.0,-4.3817760455973985e-10
2024/05/14/15:21:31.913280,59382,1715714491,913023397,base_link,-9.07609813090892e-06,0.0,0.0,0.0,0.0,1.9356055268217068e-08
2024/05/14/15:21:31.933461,59383,1715714491,933142079,base_link,3.2194658892025274e-06,0.0,0.0,0.0,0.0,2.9497384750333362e-08
2024/05/14/15:21:31.953228,59384,1715714491,952978359,base_link,1.1180982333542597e-05,0.0,0.0,0.0,0.0,3.547983013504586e-08
2024/05/14/15:21:31.973338,59385,1715714491,973083797,base_link,1.4030669601388554e-05,0.0,0.0,0.0,0.0,1.3699921766956247e-08
2024/05/14/15:21:31.993205,59386,1715714491,992925045,base_link,1.5308732983540735e-05,0.0,0.0,0.0,0.0,9.90879113740036e-09
2024/05/14/15:21:32.013238,59387,1715714492,12999240,base_link,1.2254267923921284e-05,0.0,0.0,0.0,0.0,3.881442686602634e-08
2024/05/14/15:21:32.033210,59388,1715714492,32936043,base_link,1.0176231974177997e-05,0.0,0.0,0.0,0.0,5.3952700012937406e-08
2024/05/14/15:21:32.053237,59389,1715714492,52953250,base_link,8.693090796110113e-06,0.0,0.0,0.0,0.0,6.297368209388789e-08
2024/05/14/15:21:32.073822,59390,1715714492,73556965,base_link,6.215275499844207e-06,0.0,0.0,0.0,0.0,2.0556375062573407e-08
2024/05/14/15:21:32.093229,59391,1715714492,92969517,base_link,4.647946048891767e-06,0.0,0.0,0.0,0.0,1.0896968532964888e-08
2024/05/14/15:21:32.113126,59392,1715714492,112901054,base_link,2.1151971898244557e-06,0.0,0.0,0.0,0.0,-5.126465813739534e-09
2024/05/14/15:21:32.135391,59393,1715714492,133553301,base_link,5.079779039841043e-07,0.0,0.0,0.0,0.0,-1.1742807009014961e-08
2024/05/14/15:21:32.153272,59394,1715714492,152989645,base_link,-6.040201787961052e-07,0.0,0.0,0.0,0.0,-1.510214367887235e-08
2024/05/14/15:21:32.173247,59395,1715714492,173019572,base_link,-1.174227328351349e-06,0.0,0.0,0.0,0.0,-5.9472138209267254e-09
2024/05/14/15:21:32.193238,59396,1715714492,192964555,base_link,-1.4791514438831402e-06,0.0,0.0,0.0,0.0,-4.414704868511728e-09
2024/05/14/15:21:32.213111,59397,1715714492,212886058,base_link,-3.1036721539083255e-05,0.0,0.0,0.0,0.0,3.0864694709604995e-08
2024/05/14/15:21:32.233646,59398,1715714492,233123204,base_link,-4.9126008560975554e-05,0.0,0.0,0.0,0.0,4.9370930216088716e-08
2024/05/14/15:21:32.253184,59399,1715714492,252950957,base_link,-6.053082700675557e-05,0.0,0.0,0.0,0.0,6.045636877031676e-08
2024/05/14/15:21:32.273762,59400,1715714492,273483948,base_link,-5.5495308832073545e-05,0.0,0.0,0.0,0.0,2.0225644835166576e-08
2024/05/14/15:21:32.293144,59401,1715714492,292892242,base_link,-5.176968060552312e-05,0.0,0.0,0.0,0.0,1.4342782373678833e-08
2024/05/14/15:21:32.313183,59402,1715714492,312920766,base_link,-3.5650373942404825e-05,0.0,0.0,0.0,0.0,-1.6853390342754864e-08
2024/05/14/15:21:32.333810,59403,1715714492,333568287,base_link,-2.511515387687421e-05,0.0,0.0,0.0,0.0,-3.310097980633974e-08
2024/05/14/15:21:32.353162,59404,1715714492,352950357,base_link,-1.7872859117375162e-05,0.0,0.0,0.0,0.0,-4.28207238663109e-08
2024/05/14/15:21:32.373842,59405,1715714492,373558257,base_link,-1.0408984990527231e-05,0.0,0.0,0.0,0.0,-1.4708119122434652e-08
2024/05/14/15:21:32.394020,59406,1715714492,393749457,base_link,-6.395049196647535e-06,0.0,0.0,0.0,0.0,-1.0593057025866653e-08
2024/05/14/15:21:32.413424,59407,1715714492,413058843,base_link,1.6834838000557538e-05,0.0,0.0,0.0,0.0,-2.9304982279912014e-08
2024/05/14/15:21:32.433919,59408,1715714492,433688632,base_link,3.1077007905699194e-05,0.0,0.0,0.0,0.0,-3.892953406425271e-08
2024/05/14/15:21:32.454233,59409,1715714492,453860654,base_link,4.0135546626587386e-05,0.0,0.0,0.0,0.0,-4.4589768177480325e-08
2024/05/14/15:21:32.473583,59410,1715714492,473014889,base_link,3.767479145467289e-05,0.0,0.0,0.0,0.0,-1.4425760833706838e-08
2024/05/14/15:21:32.493579,59411,1715714492,493059888,base_link,3.56752052973784e-05,0.0,0.0,0.0,0.0,-1.0025612549061042e-08
2024/05/14/15:21:32.513261,59412,1715714492,513028060,base_link,1.670167455658648e-05,0.0,0.0,0.0,0.0,3.816300325161301e-08
2024/05/14/15:21:32.533356,59413,1715714492,533055431,base_link,4.5492039019766934e-06,0.0,0.0,0.0,0.0,6.318305782538259e-08
2024/05/14/15:21:32.555316,59414,1715714492,552836420,base_link,-3.6160967260676468e-06,0.0,0.0,0.0,0.0,7.80886822280426e-08
2024/05/14/15:21:32.573607,59415,1715714492,573373973,base_link,-7.605429758067754e-06,0.0,0.0,0.0,0.0,2.625950819657656e-08
2024/05/14/15:21:32.594253,59416,1715714492,593964471,base_link,-9.537345695732592e-06,0.0,0.0,0.0,0.0,1.8682456149738803e-08
2024/05/14/15:21:32.613240,59417,1715714492,612988048,base_link,5.815584410871387e-06,0.0,0.0,0.0,0.0,4.057156585503904e-08
2024/05/14/15:21:32.633250,59418,1715714492,632856669,base_link,1.536488616714429e-05,0.0,0.0,0.0,0.0,5.1790627281417036e-08
2024/05/14/15:21:32.653228,59419,1715714492,652855324,base_link,2.1554388668111032e-05,0.0,0.0,0.0,0.0,5.835617910029986e-08
2024/05/14/15:21:32.673242,59420,1715714492,673023670,base_link,2.101943999858607e-05,0.0,0.0,0.0,0.0,1.8711435611851342e-08
2024/05/14/15:21:32.693522,59421,1715714492,693135068,base_link,2.03609161531547e-05,0.0,0.0,0.0,0.0,1.2931058105644985e-08
2024/05/14/15:21:32.713325,59422,1715714492,713069064,base_link,2.587371581399181e-05,0.0,0.0,0.0,0.0,-1.273359442863462e-08
2024/05/14/15:21:32.733257,59423,1715714492,733009406,base_link,2.877665012711126e-05,0.0,0.0,0.0,0.0,-2.610651724521501e-08
2024/05/14/15:21:32.753155,59424,1715714492,752915371,base_link,3.022584826875821e-05,0.0,0.0,0.0,0.0,-3.411189214074298e-08
2024/05/14/15:21:32.773564,59425,1715714492,773289936,base_link,2.5239357965424636e-05,0.0,0.0,0.0,0.0,-1.1769136588581266e-08
2024/05/14/15:21:32.793506,59426,1715714492,793270737,base_link,2.2122271888961455e-05,0.0,0.0,0.0,0.0,-8.497742328233717e-09
2024/05/14/15:21:32.813507,59427,1715714492,813271241,base_link,1.4721900064317108e-05,0.0,0.0,0.0,0.0,-3.7858537038073664e-08
2024/05/14/15:21:32.833288,59428,1715714492,832950467,base_link,1.0026951972836603e-05,0.0,0.0,0.0,0.0,-5.301103738656208e-08
2024/05/14/15:21:32.853073,59429,1715714492,852827685,base_link,6.907744505243349e-06,0.0,0.0,0.0,0.0,-6.196368427219064e-08
2024/05/14/15:21:32.873047,59430,1715714492,872821675,base_link,3.906853824402026e-06,0.0,0.0,0.0,0.0,-2.026339709690491e-08
2024/05/14/15:21:32.892952,59431,1715714492,892763698,base_link,2.346255430375767e-06,0.0,0.0,0.0,0.0,-1.4176779460888614e-08
2024/05/14/15:21:32.913110,59432,1715714492,912871620,base_link,2.6675326858336104e-05,0.0,0.0,0.0,0.0,7.776820681363156e-09
2024/05/14/15:21:32.933942,59433,1715714492,933531924,base_link,4.1326792977690324e-05,0.0,0.0,0.0,0.0,1.92355602117041e-08
2024/05/14/15:21:32.953090,59434,1715714492,952884279,base_link,5.04289588822419e-05,0.0,0.0,0.0,0.0,2.6110794601301683e-08
2024/05/14/15:21:32.973160,59435,1715714492,972929074,base_link,4.597540135754624e-05,0.0,0.0,0.0,0.0,9.157764126098949e-09
2024/05/14/15:21:32.993122,59436,1715714492,992902005,base_link,4.2740566461750676e-05,0.0,0.0,0.0,0.0,6.672967791956856e-09
2024/05/14/15:21:33.013451,59437,1715714493,13199447,base_link,2.2754846785577657e-07,0.0,0.0,0.0,0.0,-3.226398700432077e-08
2024/05/14/15:21:33.033819,59438,1715714493,33130987,base_link,-2.6097485952075622e-05,0.0,0.0,0.0,0.0,-5.2471140416552935e-08
2024/05/14/15:21:33.053199,59439,1715714493,52939871,base_link,-4.306588860254544e-05,0.0,0.0,0.0,0.0,-6.450194882354734e-08
2024/05/14/15:21:33.073157,59440,1715714493,72913503,base_link,-4.443516187716523e-05,0.0,0.0,0.0,0.0,-2.1634385432354125e-08
2024/05/14/15:21:33.093113,59441,1715714493,92880694,base_link,-4.41963078232235e-05,0.0,0.0,0.0,0.0,-1.5368369012857746e-08
2024/05/14/15:21:33.113250,59442,1715714493,112997851,base_link,-4.332031019946874e-05,0.0,0.0,0.0,0.0,-1.280338221383953e-08
2024/05/14/15:21:33.133773,59443,1715714493,133267920,base_link,-1.554629294140024e-05,0.0,0.0,0.0,0.0,1.4837708895410471e-08
2024/05/14/15:21:33.153243,59444,1715714493,152950385,base_link,2.9740752001337205e-06,0.0,0.0,0.0,0.0,3.1580200434735484e-08
2024/05/14/15:21:33.173665,59445,1715714493,173425759,base_link,1.2880143949425285e-05,0.0,0.0,0.0,0.0,1.275704725976112e-08
2024/05/14/15:21:33.193911,59446,1715714493,193560287,base_link,1.7692993404766643e-05,0.0,0.0,0.0,0.0,9.968994011294535e-09
2024/05/14/15:21:33.213302,59447,1715714493,213039603,base_link,3.9394185324521404e-05,0.0,0.0,0.0,0.0,-1.8051129809239613e-08
2024/05/14/15:21:33.233485,59448,1715714493,233237655,base_link,5.203902851795838e-05,0.0,0.0,0.0,0.0,-3.2624221999691865e-08
2024/05/14/15:21:33.253347,59449,1715714493,253012177,base_link,5.9539429461248384e-05,0.0,0.0,0.0,0.0,-4.132616079695617e-08
2024/05/14/15:21:33.273337,59450,1715714493,273042974,base_link,5.2356756623702925e-05,0.0,0.0,0.0,0.0,-1.405916119853178e-08
2024/05/14/15:21:33.293334,59451,1715714493,293057749,base_link,4.752614163464292e-05,0.0,0.0,0.0,0.0,-1.0070059205050183e-08
2024/05/14/15:21:33.313294,59452,1715714493,313021432,base_link,4.387793300990118e-05,0.0,0.0,0.0,0.0,-8.434838786510392e-09
2024/05/14/15:21:33.333443,59453,1715714493,333078326,base_link,7.91935452662186e-05,0.0,0.0,0.0,0.0,-1.1589185242900101e-08
2024/05/14/15:21:33.353339,59454,1715714493,353028715,base_link,0.000101390039261901,0.0,0.0,0.0,0.0,-1.3449732997197352e-08
2024/05/14/15:21:33.373996,59455,1715714493,373725360,base_link,9.463842403322471e-05,0.0,0.0,0.0,0.0,-4.381759605258219e-09
2024/05/14/15:21:33.393971,59456,1715714493,393702496,base_link,8.922498778892972e-05,0.0,0.0,0.0,0.0,-3.0584201333179106e-09
2024/05/14/15:21:33.413288,59457,1715714493,413020842,base_link,0.00018442941890758696,0.0,0.0,0.0,0.0,1.0584397868299581e-09
2024/05/14/15:21:33.433299,59458,1715714493,433034888,base_link,0.00024027603675037457,0.0,0.0,0.0,0.0,3.2095883304866246e-09
2024/05/14/15:21:33.453304,59459,1715714493,453029624,base_link,0.00027373447107614297,0.0,0.0,0.0,0.0,4.502166370738529e-09
2024/05/14/15:21:33.473202,59460,1715714493,472970613,base_link,0.00024047807326058236,0.0,0.0,0.0,0.0,1.6003697698966822e-09
2024/05/14/15:21:33.493243,59461,1715714493,493005598,base_link,0.0002184141578836223,0.0,0.0,0.0,0.0,1.1746693805582003e-09
2024/05/14/15:21:33.513217,59462,1715714493,512950768,base_link,0.00034691577121397164,0.0,0.0,0.0,0.0,2.645866177276492e-09
2024/05/14/15:21:33.533690,59463,1715714493,533421323,base_link,0.00042092060279914526,0.0,0.0,0.0,0.0,3.400152096260671e-09
2024/05/14/15:21:33.553163,59464,1715714493,552906447,base_link,0.00046404766696955775,0.0,0.0,0.0,0.0,3.841763177721013e-09
2024/05/14/15:21:33.574015,59465,1715714493,573753206,base_link,0.03308506508972126,0.0,0.0,0.0,0.0,1.2336463672111547e-09
2024/05/14/15:21:33.594058,59466,1715714493,593748556,base_link,0.05159148093952616,0.0,0.0,0.0,0.0,8.533104867407557e-10
2024/05/14/15:21:33.613282,59467,1715714493,613023800,base_link,0.06370009268653289,0.0,0.0,0.0,0.0,3.787098282384735e-09
2024/05/14/15:21:33.635458,59468,1715714493,633284746,base_link,0.07212763868179749,0.0,0.0,0.0,0.0,5.300819483982064e-09
2024/05/14/15:21:33.653947,59469,1715714493,653667570,base_link,0.07832755596050908,0.0,0.0,0.0,0.0,6.19488373371227e-09
2024/05/14/15:21:33.674122,59470,1715714493,673786290,base_link,0.13262763949893688,0.0,0.0,0.0,0.0,2.025584742679896e-09
2024/05/14/15:21:33.693929,59471,1715714493,693681112,base_link,0.1634347259949146,0.0,0.0,0.0,0.0,1.416993382606585e-09
2024/05/14/15:21:33.713283,59472,1715714493,713020522,base_link,0.18349433088833944,0.0,0.0,0.0,0.0,3.6946856867568004e-08
2024/05/14/15:21:33.734366,59473,1715714493,733714847,base_link,0.1974660725646,0.0,0.0,0.0,0.0,5.534361588842781e-08
2024/05/14/15:21:33.753634,59474,1715714493,753109320,base_link,0.20775228600087237,0.0,0.0,0.0,0.0,6.626008103610691e-08
2024/05/14/15:21:33.773433,59475,1715714493,773163984,base_link,0.24858092676978447,0.0,0.0,0.0,0.0,2.1936011031780298e-08
2024/05/14/15:21:33.793407,59476,1715714493,793089314,base_link,0.27174262559542156,0.0,0.0,0.0,0.0,1.5461759769831038e-08
2024/05/14/15:21:33.813300,59477,1715714493,813050691,base_link,0.2868756621623794,0.0,0.0,0.0,0.0,6.004602301916064e-08
2024/05/14/15:21:33.838856,59478,1715714493,833692345,base_link,0.29740953846291407,0.0,0.0,0.0,0.0,8.303315349316055e-08
2024/05/14/15:21:33.853369,59479,1715714493,853079519,base_link,0.30516000167614926,0.0,0.0,0.0,0.0,9.658560403250356e-08
2024/05/14/15:21:33.873304,59480,1715714493,873026875,base_link,0.3361132554083592,0.0,0.0,0.0,0.0,3.149817878746294e-08
2024/05/14/15:21:33.894358,59481,1715714493,893560028,base_link,0.35367078544003955,0.0,0.0,0.0,0.0,2.1994911887368697e-08
2024/05/14/15:21:33.913719,59482,1715714493,913432981,base_link,0.36517973669340853,0.0,0.0,0.0,0.0,1.913988986343857e-07
2024/05/14/15:21:33.933561,59483,1715714493,933280446,base_link,0.3731862148510504,0.0,0.0,0.0,0.0,2.7863134513443044e-07
2024/05/14/15:21:33.953366,59484,1715714493,953033687,base_link,0.3790736282234595,0.0,0.0,0.0,0.0,3.299901793602833e-07
2024/05/14/15:21:33.973330,59485,1715714493,973055219,base_link,0.4066267962902906,0.0,0.0,0.0,0.0,1.0856366724265956e-07
2024/05/14/15:21:33.993488,59486,1715714493,993212124,base_link,0.42225518255328875,0.0,0.0,0.0,0.0,7.618413743846827e-08
2024/05/14/15:21:34.013324,59487,1715714494,13072360,base_link,0.43249084635824403,0.0,0.0,0.0,0.0,3.3623456787540856e-08
2024/05/14/15:21:34.033420,59488,1715714494,33132779,base_link,0.43960914667887313,0.0,0.0,0.0,0.0,8.637162364828483e-09
2024/05/14/15:21:34.053390,59489,1715714494,53061320,base_link,0.44484255249264126,0.0,0.0,0.0,0.0,-8.630221965548606e-09
2024/05/14/15:21:34.073304,59490,1715714494,73034580,base_link,0.4712290996344458,0.0,0.0,0.0,0.0,-6.532070143273877e-09
2024/05/14/15:21:34.093359,59491,1715714494,93085320,base_link,0.4861967166340159,0.0,0.0,0.0,0.0,-6.456127944916324e-09
2024/05/14/15:21:34.113420,59492,1715714494,113161641,base_link,0.4959962701760262,0.0,0.0,0.0,0.0,-9.940288997382391e-08
2024/05/14/15:21:34.135648,59493,1715714494,133720996,base_link,0.5028128847035835,0.0,0.0,0.0,0.0,-1.4973451743486214e-07
2024/05/14/15:21:34.154015,59494,1715714494,153732831,base_link,0.507825486462406,0.0,0.0,0.0,0.0,-1.814498880086682e-07
2024/05/14/15:21:34.173830,59495,1715714494,173545145,base_link,0.5285950017411171,0.0,0.0,0.0,0.0,-6.090432085699307e-08
2024/05/14/15:21:34.194034,59496,1715714494,193664970,base_link,0.5403757376867879,0.0,0.0,0.0,0.0,-4.3552003781485094e-08
2024/05/14/15:21:34.213320,59497,1715714494,213005521,base_link,0.5481138427738969,0.0,0.0,0.0,0.0,-2.1103590843549516e-07
2024/05/14/15:21:34.233935,59498,1715714494,233014970,base_link,0.5534939911200296,0.0,0.0,0.0,0.0,-3.0278782921250584e-07
2024/05/14/15:21:34.253372,59499,1715714494,253051640,base_link,0.5574484031287563,0.0,0.0,0.0,0.0,-3.6137932147144154e-07
2024/05/14/15:21:34.273244,59500,1715714494,272973795,base_link,0.5775974142229542,0.0,0.0,0.0,0.0,-1.2052592017692152e-07
2024/05/14/15:21:34.293383,59501,1715714494,293019705,base_link,0.5890263682651763,0.0,0.0,0.0,0.0,-8.594262155674976e-08
2024/05/14/15:21:34.313977,59502,1715714494,313677436,base_link,0.5965356573058844,0.0,0.0,0.0,0.0,-9.286907803167901e-08
2024/05/14/15:21:34.333837,59503,1715714494,333592197,base_link,0.6017566372734083,0.0,0.0,0.0,0.0,-1.0187222831944607e-07
2024/05/14/15:21:34.353241,59504,1715714494,352988066,base_link,0.6055939848895697,0.0,0.0,0.0,0.0,-1.1166257042125766e-07
2024/05/14/15:21:34.373440,59505,1715714494,373071711,base_link,0.6255319893886007,0.0,0.0,0.0,0.0,-3.6456055732341146e-08
2024/05/14/15:21:34.393237,59506,1715714494,392995890,base_link,0.6368413060449813,0.0,0.0,0.0,0.0,-2.616547665236737e-08
2024/05/14/15:21:34.413754,59507,1715714494,413015042,base_link,0.64422912329062,0.0,0.0,0.0,0.0,-4.148658582139305e-08
2024/05/14/15:21:34.438237,59508,1715714494,432952416,base_link,0.649369481626244,0.0,0.0,0.0,0.0,-5.212546755466838e-08
2024/05/14/15:21:34.453250,59509,1715714494,452996956,base_link,0.6531503801567374,0.0,0.0,0.0,0.0,-6.068471791474301e-08
2024/05/14/15:21:34.473656,59510,1715714494,473411759,base_link,0.6691021224997129,0.0,0.0,0.0,0.0,-2.0391875505075554e-08
2024/05/14/15:21:34.494603,59511,1715714494,494305716,base_link,0.6781505775543544,0.0,0.0,0.0,0.0,-1.4839570384779461e-08
2024/05/14/15:21:34.513359,59512,1715714494,513048919,base_link,0.6841086428164327,0.0,0.0,0.0,0.0,7.459613723733675e-08
2024/05/14/15:21:34.534746,59513,1715714494,533553006,base_link,0.6882503350675986,0.0,0.0,0.0,0.0,1.1144433938190014e-07
2024/05/14/15:21:34.554082,59514,1715714494,553722461,base_link,0.6912938371652647,0.0,0.0,0.0,0.0,1.2562830275628877e-07
2024/05/14/15:21:34.573310,59515,1715714494,573031771,base_link,0.7045735712161639,0.0,0.0,0.0,0.0,8.790834982843618e-05
2024/05/14/15:21:34.593254,59516,1715714494,592998761,base_link,0.7121052626552394,0.0,0.0,0.0,0.0,0.00010057376475534373
2024/05/14/15:21:34.613105,59517,1715714494,612852858,base_link,0.7170927426114543,0.0,0.0,0.0,0.0,0.00010551380478104458
2024/05/14/15:21:34.639132,59518,1715714494,633664298,base_link,0.7205564081866901,0.0,0.0,0.0,0.0,0.00010816740336055143
2024/05/14/15:21:34.653274,59519,1715714494,652987198,base_link,0.7230992063587588,0.0,0.0,0.0,0.0,0.0001098200949707307
2024/05/14/15:21:34.673353,59520,1715714494,673053533,base_link,0.7380672829135343,0.0,0.0,0.0,0.0,0.00012002883452119913
2024/05/14/15:21:34.693287,59521,1715714494,693029551,base_link,0.7465567268087087,0.0,0.0,0.0,0.0,0.00012150105028313508
2024/05/14/15:21:34.713171,59522,1715714494,712953435,base_link,0.7521466613123551,0.0,0.0,0.0,0.0,0.00012178060969111413
2024/05/14/15:21:34.733581,59523,1715714494,733291918,base_link,0.7560317518013139,0.0,0.0,0.0,0.0,0.00012192248660282248
2024/05/14/15:21:34.753326,59524,1715714494,753060403,base_link,0.7588861667033939,0.0,0.0,0.0,0.0,0.00012200445328890742
2024/05/14/15:21:34.773308,59525,1715714494,773022866,base_link,0.771820353551572,0.0,0.0,0.0,0.0,0.000126436332930072
2024/05/14/15:21:34.793304,59526,1715714494,793023855,base_link,0.7791559878979476,0.0,0.0,0.0,0.0,0.00012707496545915048
2024/05/14/15:21:34.813235,59527,1715714494,812990426,base_link,0.7839578658179746,0.0,0.0,0.0,0.0,0.0001272319303018452
2024/05/14/15:21:34.833502,59528,1715714494,833220847,base_link,0.787297513786083,0.0,0.0,0.0,0.0,0.00012730800111300056
2024/05/14/15:21:34.853450,59529,1715714494,853079309,base_link,0.7897528531521895,0.0,0.0,0.0,0.0,0.0001273490270071241
2024/05/14/15:21:34.873720,59530,1715714494,873497063,base_link,0.8006898927929669,0.0,0.0,0.0,0.0,0.0001306183793228289
2024/05/14/15:21:34.893963,59531,1715714494,893538348,base_link,0.8068934833163621,0.0,0.0,0.0,0.0,0.00013108929147352265
2024/05/14/15:21:34.913130,59532,1715714494,912875281,base_link,0.8109897070033915,0.0,0.0,0.0,0.0,0.00013103256963858132
2024/05/14/15:21:34.934054,59533,1715714494,932884220,base_link,0.8138359826661327,0.0,0.0,0.0,0.0,0.00013099162725521826
2024/05/14/15:21:34.953915,59534,1715714494,953653797,base_link,0.815926672940226,0.0,0.0,0.0,0.0,0.00013095813991027925
2024/05/14/15:21:34.974236,59535,1715714494,973826696,base_link,0.8222629719477578,0.0,0.0,0.0,0.0,0.00013262715463015071
2024/05/14/15:21:34.993956,59536,1715714494,993638994,base_link,0.8258553791337109,0.0,0.0,0.0,0.0,0.00013286699519489238
2024/05/14/15:21:35.013413,59537,1715714495,13088585,base_link,0.828203692402786,0.0,0.0,0.0,0.0,0.00013265204082631347
2024/05/14/15:21:35.033439,59538,1715714495,33201820,base_link,0.8298365961529891,0.0,0.0,0.0,0.0,0.00013251644191189133
2024/05/14/15:21:35.053777,59539,1715714495,53526626,base_link,0.8310368755957923,0.0,0.0,0.0,0.0,0.00013241678472755792
2024/05/14/15:21:35.073950,59540,1715714495,73689237,base_link,0.8357960672672455,0.0,0.0,0.0,0.0,0.00013409848529032347
2024/05/14/15:21:35.094185,59541,1715714495,93569181,base_link,0.838495257107067,0.0,0.0,0.0,0.0,0.0001343393127554758
2024/05/14/15:21:35.117051,59542,1715714495,113103603,base_link,0.8403093145540977,0.0,0.0,0.0,0.0,0.00013410740172844425
2024/05/14/15:21:35.133986,59543,1715714495,133553646,base_link,0.8415670595834684,0.0,0.0,0.0,0.0,0.00013395625400152984
2024/05/14/15:21:35.153533,59544,1715714495,152995326,base_link,0.8424888710032318,0.0,0.0,0.0,0.0,0.00013384212776102323
2024/05/14/15:21:35.173823,59545,1715714495,173548090,base_link,0.8454070388157005,0.0,0.0,0.0,0.0,0.00013501063642292434
2024/05/14/15:21:35.193775,59546,1715714495,193383862,base_link,0.8470607088345581,0.0,0.0,0.0,0.0,0.00013517684681251899
2024/05/14/15:21:35.214347,59547,1715714495,213649841,base_link,0.848220900195413,0.0,0.0,0.0,0.0,0.0001349419671677864
2024/05/14/15:21:35.237874,59548,1715714495,233225299,base_link,0.8490199409277989,0.0,0.0,0.0,0.0,0.00013480041465142417
2024/05/14/15:21:35.253257,59549,1715714495,253008417,base_link,0.8496016037017813,0.0,0.0,0.0,0.0,0.00013470076963629574
2024/05/14/15:21:35.273380,59550,1715714495,273065460,base_link,0.8505676250207377,0.0,0.0,0.0,0.0,0.00013523731961315766
2024/05/14/15:21:35.293191,59551,1715714495,292911138,base_link,0.8511126900117152,0.0,0.0,0.0,0.0,0.00013531340645287502
2024/05/14/15:21:35.313378,59552,1715714495,313048767,base_link,0.8515045094341627,0.0,0.0,0.0,0.0,0.00013509854957622296
2024/05/14/15:21:35.338311,59553,1715714495,333678474,base_link,0.8517721531365812,0.0,0.0,0.0,0.0,0.00013495490517226625
2024/05/14/15:21:35.353326,59554,1715714495,353050565,base_link,0.8519653295842228,0.0,0.0,0.0,0.0,0.00013484440245004452
2024/05/14/15:21:35.373279,59555,1715714495,373004945,base_link,0.8535684380532671,0.0,0.0,0.0,0.0,0.00013583606934163456
2024/05/14/15:21:35.393183,59556,1715714495,392944517,base_link,0.8544764120629326,0.0,0.0,0.0,0.0,0.0001359766789493581
2024/05/14/15:21:35.413719,59557,1715714495,413449737,base_link,0.8551077929113597,0.0,0.0,0.0,0.0,0.00013530360063549702
2024/05/14/15:21:35.433545,59558,1715714495,433270942,base_link,0.8555430147898359,0.0,0.0,0.0,0.0,0.00013492006314089918
2024/05/14/15:21:35.453255,59559,1715714495,452990414,base_link,0.8558601054989637,0.0,0.0,0.0,0.0,0.00013466524020851767
2024/05/14/15:21:35.473264,59560,1715714495,473027912,base_link,0.8576940904096156,0.0,0.0,0.0,0.0,0.00013627895251839214
2024/05/14/15:21:35.493859,59561,1715714495,493513833,base_link,0.858733229326097,0.0,0.0,0.0,0.0,0.00013651012548332713
2024/05/14/15:21:35.513629,59562,1715714495,513392030,base_link,0.8594601073551984,0.0,0.0,0.0,0.0,0.00013592295602535403
2024/05/14/15:21:35.534603,59563,1715714495,534254478,base_link,0.8599609746985064,0.0,0.0,0.0,0.0,0.00013558959030125583
2024/05/14/15:21:35.553276,59564,1715714495,552987272,base_link,0.8603257608797308,0.0,0.0,0.0,0.0,0.00013536908852241912
2024/05/14/15:21:35.574039,59565,1715714495,573762176,base_link,0.86877492714937,0.0,0.0,0.0,0.0,0.0001398217187214869
2024/05/14/15:21:35.594030,59566,1715714495,593727591,base_link,0.8735677253578719,0.0,0.0,0.0,0.0,0.00014046290781510453
2024/05/14/15:21:35.613320,59567,1715714495,612949828,base_link,0.8767130472322553,0.0,0.0,0.0,0.0,0.00014006756255463546
2024/05/14/15:21:35.635721,59568,1715714495,633482483,base_link,0.8789004345657981,0.0,0.0,0.0,0.0,0.00013985983406911682
2024/05/14/15:21:35.653887,59569,1715714495,653574864,base_link,0.8805085051501531,0.0,0.0,0.0,0.0,0.0001397343941657259
2024/05/14/15:21:35.673191,59570,1715714495,672944078,base_link,0.8912327056674346,0.0,0.0,0.0,0.0,0.0001442978077780303
2024/05/14/15:21:35.693215,59571,1715714495,693016546,base_link,0.8973164674301286,0.0,0.0,0.0,0.0,0.00014495696034185756
2024/05/14/15:21:35.713238,59572,1715714495,713010316,base_link,0.9012886626792513,0.0,0.0,0.0,0.0,0.0001447479149734063
2024/05/14/15:21:35.734003,59573,1715714495,733703764,base_link,0.9040534185152899,0.0,0.0,0.0,0.0,0.000144630672148659
2024/05/14/15:21:35.753366,59574,1715714495,753001804,base_link,0.9060876550752978,0.0,0.0,0.0,0.0,0.0001445543774218531
2024/05/14/15:21:35.773963,59575,1715714495,773497002,base_link,0.9228254462837421,0.0,0.0,0.0,0.0,0.0001511298663490983
2024/05/14/15:21:35.793764,59576,1715714495,793479456,base_link,0.9323219670251427,0.0,0.0,0.0,0.0,0.0001520784335470679
2024/05/14/15:21:35.813135,59577,1715714495,812898001,base_link,0.9385275183181029,0.0,0.0,0.0,0.0,0.0001516606215751117
2024/05/14/15:21:35.833627,59578,1715714495,833328465,base_link,0.9428470079081593,0.0,0.0,0.0,0.0,0.00015144687280983302
2024/05/14/15:21:35.853289,59579,1715714495,852976599,base_link,0.9460253764533487,0.0,0.0,0.0,0.0,0.00015132227453570847
2024/05/14/15:21:35.873336,59580,1715714495,873034816,base_link,0.962215187861446,0.0,0.0,0.0,0.0,0.00015726638009488372
2024/05/14/15:21:35.893218,59581,1715714495,892972979,base_link,0.9713998335860127,0.0,0.0,0.0,0.0,0.00015812533740514395
2024/05/14/15:21:35.913372,59582,1715714495,913141256,base_link,0.9774093164495057,0.0,0.0,0.0,0.0,0.0001577623317200026
2024/05/14/15:21:35.935551,59583,1715714495,933452881,base_link,0.9815910608071406,0.0,0.0,0.0,0.0,0.00015757039153390537
2024/05/14/15:21:35.953223,59584,1715714495,952967699,base_link,0.9846671326777803,0.0,0.0,0.0,0.0,0.0001574536921132429
2024/05/14/15:21:35.973798,59585,1715714495,973547944,base_link,1.0045811560724571,0.0,0.0,0.0,0.0,0.0001649613132530007
2024/05/14/15:21:35.993815,59586,1715714495,993434909,base_link,1.0158788772919694,0.0,0.0,0.0,0.0,0.00016604518633019238
2024/05/14/15:21:36.013952,59587,1715714496,13699452,base_link,1.0232597967361254,0.0,0.0,0.0,0.0,0.00016580962073467037
2024/05/14/15:21:36.034257,59588,1715714496,33946422,base_link,1.02839701732338,0.0,0.0,0.0,0.0,0.0001656881988739745
2024/05/14/15:21:36.053181,59589,1715714496,52962185,base_link,1.0321767807725766,0.0,0.0,0.0,0.0,0.00016561691067125755
2024/05/14/15:21:36.073369,59590,1715714496,72987906,base_link,1.052061000196049,0.0,0.0,0.0,0.0,0.00017260417923288185
2024/05/14/15:21:36.093255,59591,1715714496,93060055,base_link,1.0633414749159011,0.0,0.0,0.0,0.0,0.00017361311265691275
2024/05/14/15:21:36.113375,59592,1715714496,113127767,base_link,1.0706845447528102,0.0,0.0,0.0,0.0,0.00017327704077870954
2024/05/14/15:21:36.135333,59593,1715714496,134217096,base_link,1.0757977049532976,0.0,0.0,0.0,0.0,0.00017309517198196942
2024/05/14/15:21:36.153887,59594,1715714496,153642176,base_link,1.0795614355896657,0.0,0.0,0.0,0.0,0.00017298158765564122
2024/05/14/15:21:36.173680,59595,1715714496,173483470,base_link,1.0968223588832953,0.0,0.0,0.0,0.0,0.00017890472648374035
2024/05/14/15:21:36.193140,59596,1715714496,192918217,base_link,1.1066148860118903,0.0,0.0,0.0,0.0,0.000179759608940273
2024/05/14/15:21:36.213017,59597,1715714496,212828155,base_link,1.1129618908656693,0.0,0.0,0.0,0.0,0.00017960544368089262
2024/05/14/15:21:36.243007,59598,1715714496,233682865,base_link,1.117384019107163,0.0,0.0,0.0,0.0,0.00017952711374289877
2024/05/14/15:21:36.253112,59599,1715714496,252877550,base_link,1.1206409668498487,0.0,0.0,0.0,0.0,0.0001794821022660501
2024/05/14/15:21:36.273934,59600,1715714496,273461105,base_link,1.1357035761224943,0.0,0.0,0.0,0.0,0.00018448142126498387
2024/05/14/15:21:36.295373,59601,1715714496,293154121,base_link,1.1442497641133293,0.0,0.0,0.0,0.0,0.00018520339432653298
2024/05/14/15:21:36.313527,59602,1715714496,312968092,base_link,1.1498461523130958,0.0,0.0,0.0,0.0,0.00018507041979499164
2024/05/14/15:21:36.340044,59603,1715714496,334035355,base_link,1.153740626667885,0.0,0.0,0.0,0.0,0.00018501375041013343
2024/05/14/15:21:36.353216,59604,1715714496,352947842,base_link,1.1566055111435007,0.0,0.0,0.0,0.0,0.0001849896114530759
2024/05/14/15:21:36.373883,59605,1715714496,373584994,base_link,1.1735283031093624,0.0,0.0,0.0,0.0,0.0001908961048651546
2024/05/14/15:21:36.394098,59606,1715714496,393616104,base_link,1.183128827313353,0.0,0.0,0.0,0.0,0.0001917497978711195
2024/05/14/15:21:36.413213,59607,1715714496,412978358,base_link,1.1894072208110409,0.0,0.0,0.0,0.0,0.0001915191760530282
2024/05/14/15:21:36.438544,59608,1715714496,433932444,base_link,1.1937764465253198,0.0,0.0,0.0,0.0,0.00019140378559236146
2024/05/14/15:21:36.453377,59609,1715714496,452923188,base_link,1.1969906731579103,0.0,0.0,0.0,0.0,0.00019133862133685682
2024/05/14/15:21:36.473191,59610,1715714496,472928023,base_link,1.2106204634025375,0.0,0.0,0.0,0.0,0.00019580592555163998
2024/05/14/15:21:36.493243,59611,1715714496,492988801,base_link,1.2183519884375253,0.0,0.0,0.0,0.0,0.00019645148684645317
2024/05/14/15:21:36.513288,59612,1715714496,513051796,base_link,1.223423527476151,0.0,0.0,0.0,0.0,0.00019583440588920312
2024/05/14/15:21:36.543590,59613,1715714496,534298317,base_link,1.2269509481087644,0.0,0.0,0.0,0.0,0.00019551349579855298
2024/05/14/15:21:36.554017,59614,1715714496,553640133,base_link,1.2295444635800707,0.0,0.0,0.0,0.0,0.00019532214151094903
2024/05/14/15:21:36.573344,59615,1715714496,573066438,base_link,1.2407303560731786,0.0,0.0,0.0,0.0,0.0001995395924814798
2024/05/14/15:21:36.593786,59616,1715714496,593421276,base_link,1.2470750058543347,0.0,0.0,0.0,0.0,0.0002001494565848035
2024/05/14/15:21:36.613878,59617,1715714496,613508710,base_link,1.251161280384363,0.0,0.0,0.0,0.0,0.00020039473683930713
2024/05/14/15:21:36.635906,59618,1715714496,633302128,base_link,1.2540590915948446,0.0,0.0,0.0,0.0,0.00019998931623172115
2024/05/14/15:21:36.653876,59619,1715714496,653596801,base_link,1.2561897180340227,0.0,0.0,0.0,0.0,0.00019973950777857515
2024/05/14/15:21:36.673240,59620,1715714496,672984657,base_link,1.265243983778364,0.0,0.0,0.0,0.0,0.0002028938055166403
2024/05/14/15:21:36.693311,59621,1715714496,693042389,base_link,1.2703794640234953,0.0,0.0,0.0,0.0,0.00020334957679063407
2024/05/14/15:21:36.715298,59622,1715714496,713048565,base_link,1.2737115688214065,0.0,0.0,0.0,0.0,0.00020307846225581228
2024/05/14/15:21:36.734206,59623,1715714496,733428027,base_link,1.2760321217996753,0.0,0.0,0.0,0.0,0.00020293345608434667
2024/05/14/15:21:36.753165,59624,1715714496,752894802,base_link,1.2777405034522515,0.0,0.0,0.0,0.0,0.0002028440819431834
2024/05/14/15:21:36.773086,59625,1715714496,772874777,base_link,1.2886754533089342,0.0,0.0,0.0,0.0,0.00020704370977737464
2024/05/14/15:21:36.793164,59626,1715714496,792926135,base_link,1.2948796763903445,0.0,0.0,0.0,0.0,0.00020764997934132837
2024/05/14/15:21:36.813192,59627,1715714496,812970222,base_link,1.2989430389941754,0.0,0.0,0.0,0.0,0.00020743247701701317
2024/05/14/15:21:36.834503,59628,1715714496,834063601,base_link,1.3017707238198515,0.0,0.0,0.0,0.0,0.00020732216513487227
2024/05/14/15:21:36.853222,59629,1715714496,852970963,base_link,1.3038508617275801,0.0,0.0,0.0,0.0,0.00020725864779283162
2024/05/14/15:21:36.873316,59630,1715714496,873027845,base_link,1.3154384224950797,0.0,0.0,0.0,0.0,0.0002114872734925138
2024/05/14/15:21:36.893206,59631,1715714496,892975062,base_link,1.3220120839122085,0.0,0.0,0.0,0.0,0.00021209819614187645
2024/05/14/15:21:36.913287,59632,1715714496,913057153,base_link,1.3262466973966391,0.0,0.0,0.0,0.0,0.00021234351417861484
2024/05/14/15:21:36.936615,59633,1715714496,934312376,base_link,1.329271562040536,0.0,0.0,0.0,0.0,0.0002120764136828285
2024/05/14/15:21:36.953400,59634,1715714496,953069863,base_link,1.3314943516310886,0.0,0.0,0.0,0.0,0.0002119095385560225
2024/05/14/15:21:36.973332,59635,1715714496,973009477,base_link,1.338083730846314,0.0,0.0,0.0,0.0,0.00021375543823034333
2024/05/14/15:21:36.993193,59636,1715714496,992961353,base_link,1.3418198968305002,0.0,0.0,0.0,0.0,0.00021402194195027614
2024/05/14/15:21:37.013164,59637,1715714497,12939939,base_link,1.3442729277133336,0.0,0.0,0.0,0.0,0.00021340771599072077
2024/05/14/15:21:37.035524,59638,1715714497,33793727,base_link,1.3459778573137442,0.0,0.0,0.0,0.0,0.00021307605399902504
2024/05/14/15:21:37.053667,59639,1715714497,53353250,base_link,1.34723049765167,0.0,0.0,0.0,0.0,0.00021286894963557084
2024/05/14/15:21:37.073888,59640,1715714497,73574272,base_link,1.3520784114385678,0.0,0.0,0.0,0.0,0.00021507228679040172
2024/05/14/15:21:37.095304,59641,1715714497,93678027,base_link,1.3548276229939806,0.0,0.0,0.0,0.0,0.00021539045453517958
2024/05/14/15:21:37.113175,59642,1715714497,112932986,base_link,1.356654418671503,0.0,0.0,0.0,0.0,0.00021451070683078705
2024/05/14/15:21:37.135438,59643,1715714497,134283137,base_link,1.3579224331674518,0.0,0.0,0.0,0.0,0.0002140458548033664
2024/05/14/15:21:37.153271,59644,1715714497,152988175,base_link,1.3588528217716973,0.0,0.0,0.0,0.0,0.0002137629621091559
2024/05/14/15:21:37.173204,59645,1715714497,172931769,base_link,1.3631096926917454,0.0,0.0,0.0,0.0,0.0002163636740422988
2024/05/14/15:21:37.193151,59646,1715714497,192898390,base_link,1.3655234525608273,0.0,0.0,0.0,0.0,0.00021674012661123545
2024/05/14/15:21:37.213073,59647,1715714497,212864572,base_link,1.367077504662692,0.0,0.0,0.0,0.0,0.00021689181669103303
2024/05/14/15:21:37.235412,59648,1715714497,233438759,base_link,1.3681434066443479,0.0,0.0,0.0,0.0,0.00021633526279932907
2024/05/14/15:21:37.253365,59649,1715714497,252854042,base_link,1.3689299170375995,0.0,0.0,0.0,0.0,0.00021599411660863438
2024/05/14/15:21:37.273144,59650,1715714497,272898726,base_link,1.3729910109981553,0.0,0.0,0.0,0.0,0.0002180567627783302
2024/05/14/15:21:37.298272,59651,1715714497,292831737,base_link,1.3752957732601807,0.0,0.0,0.0,0.0,0.00021835544267707072
2024/05/14/15:21:37.313045,59652,1715714497,312846009,base_link,1.3767811239983707,0.0,0.0,0.0,0.0,0.00021847587499746664
2024/05/14/15:21:37.336059,59653,1715714497,334039616,base_link,1.377861536938766,0.0,0.0,0.0,0.0,0.00021805216756883727
2024/05/14/15:21:37.353148,59654,1715714497,352897922,base_link,1.378654171427743,0.0,0.0,0.0,0.0,0.00021780178629151006
2024/05/14/15:21:37.373153,59655,1715714497,372893130,base_link,1.3852862822921743,0.0,0.0,0.0,0.0,5.4827897097839775e-05
2024/05/14/15:21:37.393826,59656,1715714497,393537235,base_link,1.3890480550956257,0.0,0.0,0.0,0.0,3.1313503258038734e-05
2024/05/14/15:21:37.413933,59657,1715714497,413370650,base_link,1.391470927922381,0.0,0.0,0.0,0.0,2.1892406049671283e-05
2024/05/14/15:21:37.433841,59658,1715714497,433560166,base_link,1.3931654947023557,0.0,0.0,0.0,0.0,1.6160341782304072e-05
2024/05/14/15:21:37.453983,59659,1715714497,453710147,base_link,1.3944135602244274,0.0,0.0,0.0,0.0,1.2593455868221064e-05
2024/05/14/15:21:37.473260,59660,1715714497,472947287,base_link,1.3979900582470217,0.0,0.0,0.0,0.0,3.044176697068664e-06
2024/05/14/15:21:37.493271,59661,1715714497,492992202,base_link,1.4000190720302714,0.0,0.0,0.0,0.0,1.6684862685364905e-06
2024/05/14/15:21:37.513211,59662,1715714497,512972104,base_link,1.4013261993337134,0.0,0.0,0.0,0.0,1.1187189065689069e-06
2024/05/14/15:21:37.535404,59663,1715714497,533593480,base_link,1.402266998421994,0.0,0.0,0.0,0.0,4.0447319899107553e-07
2024/05/14/15:21:37.553361,59664,1715714497,553071881,base_link,1.4029577606811299,0.0,0.0,0.0,0.0,-3.524851560496743e-08
2024/05/14/15:21:37.573262,59665,1715714497,573007781,base_link,1.4081085412881498,0.0,0.0,0.0,0.0,-9.896713055835375e-08
2024/05/14/15:21:37.593355,59666,1715714497,593104092,base_link,1.411030177368555,0.0,0.0,0.0,0.0,-1.0720874826810392e-07
2024/05/14/15:21:37.613544,59667,1715714497,613319782,base_link,1.41291199495971,0.0,0.0,0.0,0.0,-1.0985703282754331e-07
2024/05/14/15:21:37.635528,59668,1715714497,634838843,base_link,1.4142759875454167,0.0,0.0,0.0,0.0,-3.5244323603507885e-07
2024/05/14/15:21:37.653265,59669,1715714497,653024673,base_link,1.4152762712045053,0.0,0.0,0.0,0.0,-4.986951727445318e-07
2024/05/14/15:21:37.673380,59670,1715714497,673072422,base_link,1.4222710100376637,0.0,0.0,0.0,0.0,-1.7799851578846458e-07
2024/05/14/15:21:37.693117,59671,1715714497,692901648,base_link,1.426237978212202,0.0,0.0,0.0,0.0,-1.310173989075828e-07
2024/05/14/15:21:37.713226,59672,1715714497,713001859,base_link,1.4288899128637742,0.0,0.0,0.0,0.0,-6.668210190173888e-07
2024/05/14/15:21:37.743574,59673,1715714497,733771527,base_link,1.4307291741488706,0.0,0.0,0.0,0.0,-9.315238800038812e-07
