time,.header.seq,.header.stamp.secs,.header.stamp.nsecs,.header.frame_id,.status.status,.status.service,.latitude,.longitude,.altitude,.position_covariance,.position_covariance_type
2024/05/14/15:21:28.069798,60194,1715714488,68335124,gps,0,0,34.81515991285923,-82.32674299461912,284.6425887448713,"(0.8146869578087355, 0.0, 0.0, 0.0, 1.497854079016875, 0.0, 0.0, 0.0, 5.343525283908605)",2
2024/05/14/15:21:28.078279,60195,1715714488,78191113,gps,0,0,34.81515991285923,-82.32674299461912,284.6425887448713,"(0.8146869578087355, 0.0, 0.0, 0.0, 1.497854079016875, 0.0, 0.0, 0.0, 5.343525283908605)",2
2024/05/14/15:21:28.086865,60196,1715714488,86757937,gps,0,0,34.81515990919445,-82.32674300649919,284.6407478172332,"(0.8146871730053853, 0.0, 0.0, 0.0, 1.4978333617864905, 0.0, 0.0, 0.0, 5.3436156696062085)",2
2024/05/14/15:21:28.094471,60197,1715714488,94358891,gps,0,0,34.81515990919445,-82.32674300649919,284.6407478172332,"(0.8146871730053853, 0.0, 0.0, 0.0, 1.4978333617864905, 0.0, 0.0, 0.0, 5.3436156696062085)",2
2024/05/14/15:21:28.110328,60198,1715714488,110193382,gps,0,0,34.81515990919445,-82.32674300649919,284.6407478172332,"(0.8146871730053853, 0.0, 0.0, 0.0, 1.4978333617864905, 0.0, 0.0, 0.0, 5.3436156696062085)",2
2024/05/14/15:21:28.131368,60199,1715714488,131266622,gps,0,0,34.81515990919445,-82.32674300649919,284.6407478172332,"(0.8146871730053853, 0.0, 0.0, 0.0, 1.4978333617864905, 0.0, 0.0, 0.0, 5.3436156696062085)",2
2024/05/14/15:21:28.152225,60200,1715714488,152104158,gps,0,0,34.81515990919445,-82.32674300649919,284.6407478172332,"(0.8146871730053853, 0.0, 0.0, 0.0, 1.4978333617864905, 0.0, 0.0, 0.0, 5.3436156696062085)",2
2024/05/14/15:21:28.171113,60201,1715714488,171016327,gps,0,0,34.815159900565526,-82.326742983035,284.6398956878111,"(0.8144864068882249, 0.0, 0.0, 0.0, 1.4969178616629506, 0.0, 0.0, 0.0, 5.342397731474421)",2
2024/05/14/15:21:28.190535,60202,1715714488,190380767,gps,0,0,34.815159900565526,-82.326742983035,284.6398956878111,"(0.8144864068882249, 0.0, 0.0, 0.0, 1.4969178616629506, 0.0, 0.0, 0.0, 5.342397731474421)",2
2024/05/14/15:21:28.218720,60203,1715714488,214006838,gps,0,0,34.815159900565526,-82.326742983035,284.6398956878111,"(0.8144864068882249, 0.0, 0.0, 0.0, 1.4969178616629506, 0.0, 0.0, 0.0, 5.342397731474421)",2
2024/05/14/15:21:28.230464,60204,1715714488,230340014,gps,0,0,34.815159900565526,-82.326742983035,284.6398956878111,"(0.8144864068882249, 0.0, 0.0, 0.0, 1.4969178616629506, 0.0, 0.0, 0.0, 5.342397731474421)",2
2024/05/14/15:21:28.256506,60205,1715714488,256315015,gps,0,0,34.815159900565526,-82.326742983035,284.6398956878111,"(0.8144864068882249, 0.0, 0.0, 0.0, 1.4969178616629506, 0.0, 0.0, 0.0, 5.342397731474421)",2
2024/05/14/15:21:28.271354,60206,1715714488,271173872,gps,0,0,34.81515989480564,-82.3267429923731,284.6465012021363,"(0.8144963047450382, 0.0, 0.0, 0.0, 1.4969534494917411, 0.0, 0.0, 0.0, 5.342441817311055)",2
2024/05/14/15:21:28.292914,60207,1715714488,290472715,gps,0,0,34.81515989480564,-82.3267429923731,284.6465012021363,"(0.8144963047450382, 0.0, 0.0, 0.0, 1.4969534494917411, 0.0, 0.0, 0.0, 5.342441817311055)",2
2024/05/14/15:21:28.315618,60208,1715714488,310143985,gps,0,0,34.81515989480564,-82.3267429923731,284.6465012021363,"(0.8144963047450382, 0.0, 0.0, 0.0, 1.4969534494917411, 0.0, 0.0, 0.0, 5.342441817311055)",2
2024/05/14/15:21:28.335173,60209,1715714488,333740219,gps,0,0,34.81515989480564,-82.3267429923731,284.6465012021363,"(0.8144963047450382, 0.0, 0.0, 0.0, 1.4969534494917411, 0.0, 0.0, 0.0, 5.342441817311055)",2
2024/05/14/15:21:28.360836,60210,1715714488,360734921,gps,0,0,34.81515989480564,-82.3267429923731,284.6465012021363,"(0.8144963047450382, 0.0, 0.0, 0.0, 1.4969534494917411, 0.0, 0.0, 0.0, 5.342441817311055)",2
2024/05/14/15:21:28.370743,60211,1715714488,370668885,gps,0,0,34.81515985132303,-82.32674296319732,284.6433210754767,"(0.8145272897290887, 0.0, 0.0, 0.0, 1.4974140875100517, 0.0, 0.0, 0.0, 5.342664453564794)",2
2024/05/14/15:21:28.391061,60212,1715714488,390937780,gps,0,0,34.81515985132303,-82.32674296319732,284.6433210754767,"(0.8145272897290887, 0.0, 0.0, 0.0, 1.4974140875100517, 0.0, 0.0, 0.0, 5.342664453564794)",2
2024/05/14/15:21:28.410855,60213,1715714488,410761448,gps,0,0,34.81515985132303,-82.32674296319732,284.6433210754767,"(0.8145272897290887, 0.0, 0.0, 0.0, 1.4974140875100517, 0.0, 0.0, 0.0, 5.342664453564794)",2
2024/05/14/15:21:28.430918,60214,1715714488,430475835,gps,0,0,34.81515985132303,-82.32674296319732,284.6433210754767,"(0.8145272897290887, 0.0, 0.0, 0.0, 1.4974140875100517, 0.0, 0.0, 0.0, 5.342664453564794)",2
2024/05/14/15:21:28.460894,60215,1715714488,460772151,gps,0,0,34.81515985132303,-82.32674296319732,284.6433210754767,"(0.8145272897290887, 0.0, 0.0, 0.0, 1.4974140875100517, 0.0, 0.0, 0.0, 5.342664453564794)",2
2024/05/14/15:21:28.470054,60216,1715714488,469932446,gps,0,0,34.8151598299358,-82.32674299766043,284.64287608955055,"(0.814504050935799, 0.0, 0.0, 0.0, 1.4971331453171501, 0.0, 0.0, 0.0, 5.342529989530021)",2
2024/05/14/15:21:28.491164,60217,1715714488,491043199,gps,0,0,34.8151598299358,-82.32674299766043,284.64287608955055,"(0.814504050935799, 0.0, 0.0, 0.0, 1.4971331453171501, 0.0, 0.0, 0.0, 5.342529989530021)",2
2024/05/14/15:21:28.513134,60218,1715714488,513007223,gps,0,0,34.8151598299358,-82.32674299766043,284.64287608955055,"(0.814504050935799, 0.0, 0.0, 0.0, 1.4971331453171501, 0.0, 0.0, 0.0, 5.342529989530021)",2
2024/05/14/15:21:28.530884,60219,1715714488,530723092,gps,0,0,34.8151598299358,-82.32674299766043,284.64287608955055,"(0.814504050935799, 0.0, 0.0, 0.0, 1.4971331453171501, 0.0, 0.0, 0.0, 5.342529989530021)",2
2024/05/14/15:21:28.563765,60220,1715714488,558248273,gps,0,0,34.8151598299358,-82.32674299766043,284.64287608955055,"(0.814504050935799, 0.0, 0.0, 0.0, 1.4971331453171501, 0.0, 0.0, 0.0, 5.342529989530021)",2
2024/05/14/15:21:28.570581,60221,1715714488,570445324,gps,0,0,34.81515978516153,-82.3267429579321,284.64786828961223,"(0.8144752180790285, 0.0, 0.0, 0.0, 1.4971206012649105, 0.0, 0.0, 0.0, 5.342268781446421)",2
2024/05/14/15:21:28.590625,60222,1715714488,589974153,gps,0,0,34.81515978516153,-82.3267429579321,284.64786828961223,"(0.8144752180790285, 0.0, 0.0, 0.0, 1.4971206012649105, 0.0, 0.0, 0.0, 5.342268781446421)",2
2024/05/14/15:21:28.616157,60223,1715714488,615965507,gps,0,0,34.81515978516153,-82.3267429579321,284.64786828961223,"(0.8144752180790285, 0.0, 0.0, 0.0, 1.4971206012649105, 0.0, 0.0, 0.0, 5.342268781446421)",2
2024/05/14/15:21:28.630389,60224,1715714488,630277259,gps,0,0,34.81515978516153,-82.3267429579321,284.64786828961223,"(0.8144752180790285, 0.0, 0.0, 0.0, 1.4971206012649105, 0.0, 0.0, 0.0, 5.342268781446421)",2
2024/05/14/15:21:28.661854,60225,1715714488,661727517,gps,0,0,34.81515978516153,-82.3267429579321,284.64786828961223,"(0.8144752180790285, 0.0, 0.0, 0.0, 1.4971206012649105, 0.0, 0.0, 0.0, 5.342268781446421)",2
2024/05/14/15:21:28.671564,60226,1715714488,671453246,gps,0,0,34.8151597652448,-82.32674296306352,284.6459083510563,"(0.8145141640736178, 0.0, 0.0, 0.0, 1.4971030980240272, 0.0, 0.0, 0.0, 5.3422588622779585)",2
2024/05/14/15:21:28.690648,60227,1715714488,690534401,gps,0,0,34.8151597652448,-82.32674296306352,284.6459083510563,"(0.8145141640736178, 0.0, 0.0, 0.0, 1.4971030980240272, 0.0, 0.0, 0.0, 5.3422588622779585)",2
2024/05/14/15:21:28.710265,60228,1715714488,710148717,gps,0,0,34.8151597652448,-82.32674296306352,284.6459083510563,"(0.8145141640736178, 0.0, 0.0, 0.0, 1.4971030980240272, 0.0, 0.0, 0.0, 5.3422588622779585)",2
2024/05/14/15:21:28.730724,60229,1715714488,730594343,gps,0,0,34.8151597652448,-82.32674296306352,284.6459083510563,"(0.8145141640736178, 0.0, 0.0, 0.0, 1.4971030980240272, 0.0, 0.0, 0.0, 5.3422588622779585)",2
2024/05/14/15:21:28.755149,60230,1715714488,755040866,gps,0,0,34.8151597652448,-82.32674296306352,284.6459083510563,"(0.8145141640736178, 0.0, 0.0, 0.0, 1.4971030980240272, 0.0, 0.0, 0.0, 5.3422588622779585)",2
2024/05/14/15:21:28.770587,60231,1715714488,770465690,gps,0,0,34.81515979716274,-82.32674300317993,284.64785015396774,"(0.8144901723701423, 0.0, 0.0, 0.0, 1.4971418970126251, 0.0, 0.0, 0.0, 5.34216077321895)",2
2024/05/14/15:21:28.791159,60232,1715714488,791059816,gps,0,0,34.81515979716274,-82.32674300317993,284.64785015396774,"(0.8144901723701423, 0.0, 0.0, 0.0, 1.4971418970126251, 0.0, 0.0, 0.0, 5.34216077321895)",2
2024/05/14/15:21:28.811204,60233,1715714488,811089871,gps,0,0,34.81515979716274,-82.32674300317993,284.64785015396774,"(0.8144901723701423, 0.0, 0.0, 0.0, 1.4971418970126251, 0.0, 0.0, 0.0, 5.34216077321895)",2
2024/05/14/15:21:28.830221,60234,1715714488,830123068,gps,0,0,34.81515979716274,-82.32674300317993,284.64785015396774,"(0.8144901723701423, 0.0, 0.0, 0.0, 1.4971418970126251, 0.0, 0.0, 0.0, 5.34216077321895)",2
2024/05/14/15:21:28.926297,60235,1715714488,926161164,gps,0,0,34.81515979716274,-82.32674300317993,284.64785015396774,"(0.8144901723701423, 0.0, 0.0, 0.0, 1.4971418970126251, 0.0, 0.0, 0.0, 5.34216077321895)",2
2024/05/14/15:21:28.947376,60236,1715714488,947189419,gps,0,0,34.81515979890591,-82.32674300775317,284.6485766293481,"(0.8144509042009282, 0.0, 0.0, 0.0, 1.4970170419112492, 0.0, 0.0, 0.0, 5.341892961610029)",2
2024/05/14/15:21:28.975705,60237,1715714488,975413769,gps,0,0,34.81515979890591,-82.32674300775317,284.6485766293481,"(0.8144509042009282, 0.0, 0.0, 0.0, 1.4970170419112492, 0.0, 0.0, 0.0, 5.341892961610029)",2
2024/05/14/15:21:28.979367,60238,1715714488,979199342,gps,0,0,34.81515979890591,-82.32674300775317,284.6485766293481,"(0.8144509042009282, 0.0, 0.0, 0.0, 1.4970170419112492, 0.0, 0.0, 0.0, 5.341892961610029)",2
2024/05/14/15:21:28.983902,60239,1715714488,983773836,gps,0,0,34.81515979890591,-82.32674300775317,284.6485766293481,"(0.8144509042009282, 0.0, 0.0, 0.0, 1.4970170419112492, 0.0, 0.0, 0.0, 5.341892961610029)",2
2024/05/14/15:21:28.991278,60240,1715714488,991139245,gps,0,0,34.81515979890591,-82.32674300775317,284.6485766293481,"(0.8144509042009282, 0.0, 0.0, 0.0, 1.4970170419112492, 0.0, 0.0, 0.0, 5.341892961610029)",2
2024/05/14/15:21:29.011531,60241,1715714489,11413717,gps,0,0,34.81515974723491,-82.32674297202665,284.6491344999522,"(0.8144490752955704, 0.0, 0.0, 0.0, 1.4970164584884174, 0.0, 0.0, 0.0, 5.341873123980122)",2
2024/05/14/15:21:29.015878,60242,1715714489,15574323,gps,0,0,34.81515974723491,-82.32674297202665,284.6491344999522,"(0.8144490752955704, 0.0, 0.0, 0.0, 1.4970164584884174, 0.0, 0.0, 0.0, 5.341873123980122)",2
2024/05/14/15:21:29.022337,60243,1715714489,22216394,gps,0,0,34.81515974723491,-82.32674297202665,284.6491344999522,"(0.8144490752955704, 0.0, 0.0, 0.0, 1.4970164584884174, 0.0, 0.0, 0.0, 5.341873123980122)",2
2024/05/14/15:21:29.070050,60244,1715714489,69951878,gps,0,0,34.81515974723491,-82.32674297202665,284.6491344999522,"(0.8144490752955704, 0.0, 0.0, 0.0, 1.4970164584884174, 0.0, 0.0, 0.0, 5.341873123980122)",2
2024/05/14/15:21:29.078028,60245,1715714489,77879231,gps,0,0,34.81515974723491,-82.32674297202665,284.6491344999522,"(0.8144490752955704, 0.0, 0.0, 0.0, 1.4970164584884174, 0.0, 0.0, 0.0, 5.341873123980122)",2
2024/05/14/15:21:29.087171,60246,1715714489,87041451,gps,0,0,34.815159761981235,-82.32674298150526,284.65259317401797,"(0.8143154631770813, 0.0, 0.0, 0.0, 1.4963855532437407, 0.0, 0.0, 0.0, 5.3410774449730525)",2
2024/05/14/15:21:29.094731,60247,1715714489,94367529,gps,0,0,34.815159761981235,-82.32674298150526,284.65259317401797,"(0.8143154631770813, 0.0, 0.0, 0.0, 1.4963855532437407, 0.0, 0.0, 0.0, 5.3410774449730525)",2
2024/05/14/15:21:29.110570,60248,1715714489,110478375,gps,0,0,34.815159761981235,-82.32674298150526,284.65259317401797,"(0.8143154631770813, 0.0, 0.0, 0.0, 1.4963855532437407, 0.0, 0.0, 0.0, 5.3410774449730525)",2
2024/05/14/15:21:29.130774,60249,1715714489,130670689,gps,0,0,34.815159761981235,-82.32674298150526,284.65259317401797,"(0.8143154631770813, 0.0, 0.0, 0.0, 1.4963855532437407, 0.0, 0.0, 0.0, 5.3410774449730525)",2
2024/05/14/15:21:29.151945,60250,1715714489,151844027,gps,0,0,34.815159761981235,-82.32674298150526,284.65259317401797,"(0.8143154631770813, 0.0, 0.0, 0.0, 1.4963855532437407, 0.0, 0.0, 0.0, 5.3410774449730525)",2
2024/05/14/15:21:29.170806,60251,1715714489,170718078,gps,0,0,34.81515975623139,-82.32674296096779,284.64668465964496,"(0.8144463857325981, 0.0, 0.0, 0.0, 1.4965392566937794, 0.0, 0.0, 0.0, 5.341587686605692)",2
2024/05/14/15:21:29.190307,60252,1715714489,190215990,gps,0,0,34.81515975623139,-82.32674296096779,284.64668465964496,"(0.8144463857325981, 0.0, 0.0, 0.0, 1.4965392566937794, 0.0, 0.0, 0.0, 5.341587686605692)",2
2024/05/14/15:21:29.212230,60253,1715714489,212092076,gps,0,0,34.81515975623139,-82.32674296096779,284.64668465964496,"(0.8144463857325981, 0.0, 0.0, 0.0, 1.4965392566937794, 0.0, 0.0, 0.0, 5.341587686605692)",2
2024/05/14/15:21:29.230334,60254,1715714489,230170271,gps,0,0,34.81515975623139,-82.32674296096779,284.64668465964496,"(0.8144463857325981, 0.0, 0.0, 0.0, 1.4965392566937794, 0.0, 0.0, 0.0, 5.341587686605692)",2
2024/05/14/15:21:29.261127,60255,1715714489,260993300,gps,0,0,34.81515975623139,-82.32674296096779,284.64668465964496,"(0.8144463857325981, 0.0, 0.0, 0.0, 1.4965392566937794, 0.0, 0.0, 0.0, 5.341587686605692)",2
2024/05/14/15:21:29.271119,60256,1715714489,271031894,gps,0,0,34.81515972306996,-82.32674296702305,284.64402387384325,"(0.8146823310876385, 0.0, 0.0, 0.0, 1.4973294811685633, 0.0, 0.0, 0.0, 5.34297747475739)",2
2024/05/14/15:21:29.290836,60257,1715714489,290729521,gps,0,0,34.81515972306996,-82.32674296702305,284.64402387384325,"(0.8146823310876385, 0.0, 0.0, 0.0, 1.4973294811685633, 0.0, 0.0, 0.0, 5.34297747475739)",2
2024/05/14/15:21:29.310209,60258,1715714489,310120802,gps,0,0,34.81515972306996,-82.32674296702305,284.64402387384325,"(0.8146823310876385, 0.0, 0.0, 0.0, 1.4973294811685633, 0.0, 0.0, 0.0, 5.34297747475739)",2
2024/05/14/15:21:29.332114,60259,1715714489,331998372,gps,0,0,34.81515972306996,-82.32674296702305,284.64402387384325,"(0.8146823310876385, 0.0, 0.0, 0.0, 1.4973294811685633, 0.0, 0.0, 0.0, 5.34297747475739)",2
2024/05/14/15:21:29.357576,60260,1715714489,357414949,gps,0,0,34.81515972306996,-82.32674296702305,284.64402387384325,"(0.8146823310876385, 0.0, 0.0, 0.0, 1.4973294811685633, 0.0, 0.0, 0.0, 5.34297747475739)",2
2024/05/14/15:21:29.372069,60261,1715714489,371982097,gps,0,0,34.8151596863231,-82.32674296593605,284.6462586680427,"(0.8144417596946738, 0.0, 0.0, 0.0, 1.496450883536923, 0.0, 0.0, 0.0, 5.341759609361873)",2
2024/05/14/15:21:29.391270,60262,1715714489,391146265,gps,0,0,34.8151596863231,-82.32674296593605,284.6462586680427,"(0.8144417596946738, 0.0, 0.0, 0.0, 1.496450883536923, 0.0, 0.0, 0.0, 5.341759609361873)",2
2024/05/14/15:21:29.413671,60263,1715714489,413510546,gps,0,0,34.8151596863231,-82.32674296593605,284.6462586680427,"(0.8144417596946738, 0.0, 0.0, 0.0, 1.496450883536923, 0.0, 0.0, 0.0, 5.341759609361873)",2
2024/05/14/15:21:29.430637,60264,1715714489,430521357,gps,0,0,34.8151596863231,-82.32674296593605,284.6462586680427,"(0.8144417596946738, 0.0, 0.0, 0.0, 1.496450883536923, 0.0, 0.0, 0.0, 5.341759609361873)",2
2024/05/14/15:21:29.460763,60265,1715714489,460665967,gps,0,0,34.8151596863231,-82.32674296593605,284.6462586680427,"(0.8144417596946738, 0.0, 0.0, 0.0, 1.496450883536923, 0.0, 0.0, 0.0, 5.341759609361873)",2
2024/05/14/15:21:29.470128,60266,1715714489,470036245,gps,0,0,34.8151597175697,-82.32674297968815,284.64995970390737,"(0.8143042755420993, 0.0, 0.0, 0.0, 1.4958784170232775, 0.0, 0.0, 0.0, 5.341031160760622)",2
2024/05/14/15:21:29.491045,60267,1715714489,490382908,gps,0,0,34.8151597175697,-82.32674297968815,284.64995970390737,"(0.8143042755420993, 0.0, 0.0, 0.0, 1.4958784170232775, 0.0, 0.0, 0.0, 5.341031160760622)",2
2024/05/14/15:21:29.510962,60268,1715714489,510848269,gps,0,0,34.8151597175697,-82.32674297968815,284.64995970390737,"(0.8143042755420993, 0.0, 0.0, 0.0, 1.4958784170232775, 0.0, 0.0, 0.0, 5.341031160760622)",2
2024/05/14/15:21:29.531565,60269,1715714489,530360727,gps,0,0,34.8151597175697,-82.32674297968815,284.64995970390737,"(0.8143042755420993, 0.0, 0.0, 0.0, 1.4958784170232775, 0.0, 0.0, 0.0, 5.341031160760622)",2
2024/05/14/15:21:29.552719,60270,1715714489,552571950,gps,0,0,34.8151597175697,-82.32674297968815,284.64995970390737,"(0.8143042755420993, 0.0, 0.0, 0.0, 1.4958784170232775, 0.0, 0.0, 0.0, 5.341031160760622)",2
2024/05/14/15:21:29.571909,60271,1715714489,571814502,gps,0,0,34.815159719486594,-82.32674297616877,284.6520821740851,"(0.8144229329316808, 0.0, 0.0, 0.0, 1.496419676477899, 0.0, 0.0, 0.0, 5.341534787852709)",2
2024/05/14/15:21:29.590486,60272,1715714489,590388588,gps,0,0,34.815159719486594,-82.32674297616877,284.6520821740851,"(0.8144229329316808, 0.0, 0.0, 0.0, 1.496419676477899, 0.0, 0.0, 0.0, 5.341534787852709)",2
2024/05/14/15:21:29.614751,60273,1715714489,614578794,gps,0,0,34.815159719486594,-82.32674297616877,284.6520821740851,"(0.8144229329316808, 0.0, 0.0, 0.0, 1.496419676477899, 0.0, 0.0, 0.0, 5.341534787852709)",2
2024/05/14/15:21:29.631341,60274,1715714489,631189400,gps,0,0,34.815159719486594,-82.32674297616877,284.6520821740851,"(0.8144229329316808, 0.0, 0.0, 0.0, 1.496419676477899, 0.0, 0.0, 0.0, 5.341534787852709)",2
2024/05/14/15:21:29.660601,60275,1715714489,660269663,gps,0,0,34.815159719486594,-82.32674297616877,284.6520821740851,"(0.8144229329316808, 0.0, 0.0, 0.0, 1.496419676477899, 0.0, 0.0, 0.0, 5.341534787852709)",2
2024/05/14/15:21:29.671030,60276,1715714489,670893268,gps,0,0,34.8151597472144,-82.32674299725649,284.6555122677237,"(0.8142997574805264, 0.0, 0.0, 0.0, 1.495825637800877, 0.0, 0.0, 0.0, 5.340897819269742)",2
2024/05/14/15:21:29.691965,60277,1715714489,691877125,gps,0,0,34.8151597472144,-82.32674299725649,284.6555122677237,"(0.8142997574805264, 0.0, 0.0, 0.0, 1.495825637800877, 0.0, 0.0, 0.0, 5.340897819269742)",2
2024/05/14/15:21:29.710049,60278,1715714489,709941132,gps,0,0,34.8151597472144,-82.32674299725649,284.6555122677237,"(0.8142997574805264, 0.0, 0.0, 0.0, 1.495825637800877, 0.0, 0.0, 0.0, 5.340897819269742)",2
2024/05/14/15:21:29.733040,60279,1715714489,732447265,gps,0,0,34.8151597472144,-82.32674299725649,284.6555122677237,"(0.8142997574805264, 0.0, 0.0, 0.0, 1.495825637800877, 0.0, 0.0, 0.0, 5.340897819269742)",2
2024/05/14/15:21:29.751575,60280,1715714489,751489711,gps,0,0,34.8151597472144,-82.32674299725649,284.6555122677237,"(0.8142997574805264, 0.0, 0.0, 0.0, 1.495825637800877, 0.0, 0.0, 0.0, 5.340897819269742)",2
2024/05/14/15:21:29.770690,60281,1715714489,770573538,gps,0,0,34.815159698035465,-82.32674295623315,284.65544837061316,"(0.8142934107009161, 0.0, 0.0, 0.0, 1.496278228000861, 0.0, 0.0, 0.0, 5.340937490944327)",2
2024/05/14/15:21:29.791006,60282,1715714489,790899710,gps,0,0,34.815159698035465,-82.32674295623315,284.65544837061316,"(0.8142934107009161, 0.0, 0.0, 0.0, 1.496278228000861, 0.0, 0.0, 0.0, 5.340937490944327)",2
2024/05/14/15:21:29.811105,60283,1715714489,810988761,gps,0,0,34.815159698035465,-82.32674295623315,284.65544837061316,"(0.8142934107009161, 0.0, 0.0, 0.0, 1.496278228000861, 0.0, 0.0, 0.0, 5.340937490944327)",2
2024/05/14/15:21:29.830363,60284,1715714489,830251353,gps,0,0,34.815159698035465,-82.32674295623315,284.65544837061316,"(0.8142934107009161, 0.0, 0.0, 0.0, 1.496278228000861, 0.0, 0.0, 0.0, 5.340937490944327)",2
2024/05/14/15:21:29.909430,60285,1715714489,909305843,gps,0,0,34.815159698035465,-82.32674295623315,284.65544837061316,"(0.8142934107009161, 0.0, 0.0, 0.0, 1.496278228000861, 0.0, 0.0, 0.0, 5.340937490944327)",2
2024/05/14/15:21:29.934570,60286,1715714489,932226961,gps,0,0,34.815159726047355,-82.32674295900024,284.6532457768917,"(0.814251027755919, 0.0, 0.0, 0.0, 1.4962268998974793, 0.0, 0.0, 0.0, 5.340594776617081)",2
2024/05/14/15:21:29.955115,60287,1715714489,954970435,gps,0,0,34.815159726047355,-82.32674295900024,284.6532457768917,"(0.814251027755919, 0.0, 0.0, 0.0, 1.4962268998974793, 0.0, 0.0, 0.0, 5.340594776617081)",2
2024/05/14/15:21:29.969089,60288,1715714489,968947308,gps,0,0,34.815159726047355,-82.32674295900024,284.6532457768917,"(0.814251027755919, 0.0, 0.0, 0.0, 1.4962268998974793, 0.0, 0.0, 0.0, 5.340594776617081)",2
2024/05/14/15:21:29.983454,60289,1715714489,983327025,gps,0,0,34.815159726047355,-82.32674295900024,284.6532457768917,"(0.814251027755919, 0.0, 0.0, 0.0, 1.4962268998974793, 0.0, 0.0, 0.0, 5.340594776617081)",2
2024/05/14/15:21:29.990921,60290,1715714489,990804793,gps,0,0,34.815159726047355,-82.32674295900024,284.6532457768917,"(0.814251027755919, 0.0, 0.0, 0.0, 1.4962268998974793, 0.0, 0.0, 0.0, 5.340594776617081)",2
2024/05/14/15:21:30.006439,60291,1715714490,6279888,gps,0,0,34.8151598235327,-82.32674277559049,284.6328416056931,"(0.8142850200810905, 0.0, 0.0, 0.0, 1.4964450504170514, 0.0, 0.0, 0.0, 5.340590368787389)",2
2024/05/14/15:21:30.014114,60292,1715714490,14027203,gps,0,0,34.8151598235327,-82.32674277559049,284.6328416056931,"(0.8142850200810905, 0.0, 0.0, 0.0, 1.4964450504170514, 0.0, 0.0, 0.0, 5.340590368787389)",2
2024/05/14/15:21:30.070510,60293,1715714490,70406309,gps,0,0,34.8151598235327,-82.32674277559049,284.6328416056931,"(0.8142850200810905, 0.0, 0.0, 0.0, 1.4964450504170514, 0.0, 0.0, 0.0, 5.340590368787389)",2
2024/05/14/15:21:30.080955,60294,1715714490,80849131,gps,0,0,34.8151598235327,-82.32674277559049,284.6328416056931,"(0.8142850200810905, 0.0, 0.0, 0.0, 1.4964450504170514, 0.0, 0.0, 0.0, 5.340590368787389)",2
2024/05/14/15:21:30.092005,60295,1715714490,91892894,gps,0,0,34.8151598235327,-82.32674277559049,284.6328416056931,"(0.8142850200810905, 0.0, 0.0, 0.0, 1.4964450504170514, 0.0, 0.0, 0.0, 5.340590368787389)",2
2024/05/14/15:21:30.104970,60296,1715714490,104865357,gps,0,0,34.81515986331362,-82.32674280995928,284.6333967167884,"(0.81411398994533, 0.0, 0.0, 0.0, 1.496063297443527, 0.0, 0.0, 0.0, 5.339463126064459)",2
2024/05/14/15:21:30.128647,60297,1715714490,120581702,gps,0,0,34.81515986331362,-82.32674280995928,284.6333967167884,"(0.81411398994533, 0.0, 0.0, 0.0, 1.496063297443527, 0.0, 0.0, 0.0, 5.339463126064459)",2
2024/05/14/15:21:30.130891,60298,1715714490,130794792,gps,0,0,34.81515986331362,-82.32674280995928,284.6333967167884,"(0.81411398994533, 0.0, 0.0, 0.0, 1.496063297443527, 0.0, 0.0, 0.0, 5.339463126064459)",2
2024/05/14/15:21:30.135064,60299,1715714490,134535656,gps,0,0,34.81515986331362,-82.32674280995928,284.6333967167884,"(0.81411398994533, 0.0, 0.0, 0.0, 1.496063297443527, 0.0, 0.0, 0.0, 5.339463126064459)",2
2024/05/14/15:21:30.152884,60300,1715714490,152764115,gps,0,0,34.81515986331362,-82.32674280995928,284.6333967167884,"(0.81411398994533, 0.0, 0.0, 0.0, 1.496063297443527, 0.0, 0.0, 0.0, 5.339463126064459)",2
2024/05/14/15:21:30.170981,60301,1715714490,170889296,gps,0,0,34.815159866276446,-82.32674281746048,284.6362300515175,"(0.8141314148354049, 0.0, 0.0, 0.0, 1.4959548173260941, 0.0, 0.0, 0.0, 5.339405830491671)",2
2024/05/14/15:21:30.190298,60302,1715714490,190200178,gps,0,0,34.815159866276446,-82.32674281746048,284.6362300515175,"(0.8141314148354049, 0.0, 0.0, 0.0, 1.4959548173260941, 0.0, 0.0, 0.0, 5.339405830491671)",2
2024/05/14/15:21:30.213373,60303,1715714490,213172608,gps,0,0,34.815159866276446,-82.32674281746048,284.6362300515175,"(0.8141314148354049, 0.0, 0.0, 0.0, 1.4959548173260941, 0.0, 0.0, 0.0, 5.339405830491671)",2
2024/05/14/15:21:30.230194,60304,1715714490,230094946,gps,0,0,34.815159866276446,-82.32674281746048,284.6362300515175,"(0.8141314148354049, 0.0, 0.0, 0.0, 1.4959548173260941, 0.0, 0.0, 0.0, 5.339405830491671)",2
2024/05/14/15:21:30.260085,60305,1715714490,259971669,gps,0,0,34.815159866276446,-82.32674281746048,284.6362300515175,"(0.8141314148354049, 0.0, 0.0, 0.0, 1.4959548173260941, 0.0, 0.0, 0.0, 5.339405830491671)",2
2024/05/14/15:21:30.271614,60306,1715714490,271467321,gps,0,0,34.815159864304434,-82.32674281907025,284.6393237784505,"(0.8142977135996468, 0.0, 0.0, 0.0, 1.4967720143251881, 0.0, 0.0, 0.0, 5.340383202843668)",2
2024/05/14/15:21:30.290876,60307,1715714490,290788558,gps,0,0,34.815159864304434,-82.32674281907025,284.6393237784505,"(0.8142977135996468, 0.0, 0.0, 0.0, 1.4967720143251881, 0.0, 0.0, 0.0, 5.340383202843668)",2
2024/05/14/15:21:30.313070,60308,1715714490,312891686,gps,0,0,34.815159864304434,-82.32674281907025,284.6393237784505,"(0.8142977135996468, 0.0, 0.0, 0.0, 1.4967720143251881, 0.0, 0.0, 0.0, 5.340383202843668)",2
2024/05/14/15:21:30.334306,60309,1715714490,333999107,gps,0,0,34.815159864304434,-82.32674281907025,284.6393237784505,"(0.8142977135996468, 0.0, 0.0, 0.0, 1.4967720143251881, 0.0, 0.0, 0.0, 5.340383202843668)",2
2024/05/14/15:21:30.358342,60310,1715714490,358183154,gps,0,0,34.815159864304434,-82.32674281907025,284.6393237784505,"(0.8142977135996468, 0.0, 0.0, 0.0, 1.4967720143251881, 0.0, 0.0, 0.0, 5.340383202843668)",2
2024/05/14/15:21:30.370822,60311,1715714490,370728012,gps,0,0,34.815159874677214,-82.32674280615663,284.6332335434854,"(0.8143307387258716, 0.0, 0.0, 0.0, 1.4967565549238913, 0.0, 0.0, 0.0, 5.340475765853853)",2
2024/05/14/15:21:30.391366,60312,1715714490,391209073,gps,0,0,34.815159874677214,-82.32674280615663,284.6332335434854,"(0.8143307387258716, 0.0, 0.0, 0.0, 1.4967565549238913, 0.0, 0.0, 0.0, 5.340475765853853)",2
2024/05/14/15:21:30.414255,60313,1715714490,414162393,gps,0,0,34.815159874677214,-82.32674280615663,284.6332335434854,"(0.8143307387258716, 0.0, 0.0, 0.0, 1.4967565549238913, 0.0, 0.0, 0.0, 5.340475765853853)",2
2024/05/14/15:21:30.430496,60314,1715714490,430381810,gps,0,0,34.815159874677214,-82.32674280615663,284.6332335434854,"(0.8143307387258716, 0.0, 0.0, 0.0, 1.4967565549238913, 0.0, 0.0, 0.0, 5.340475765853853)",2
2024/05/14/15:21:30.464553,60315,1715714490,464418993,gps,0,0,34.815159874677214,-82.32674280615663,284.6332335434854,"(0.8143307387258716, 0.0, 0.0, 0.0, 1.4967565549238913, 0.0, 0.0, 0.0, 5.340475765853853)",2
2024/05/14/15:21:30.471488,60316,1715714490,471381933,gps,0,0,34.81515985923404,-82.32674282340614,284.63264023605734,"(0.8142669481236773, 0.0, 0.0, 0.0, 1.4966045903420877, 0.0, 0.0, 0.0, 5.3399391319390475)",2
2024/05/14/15:21:30.490581,60317,1715714490,490451376,gps,0,0,34.81515985923404,-82.32674282340614,284.63264023605734,"(0.8142669481236773, 0.0, 0.0, 0.0, 1.4966045903420877, 0.0, 0.0, 0.0, 5.3399391319390475)",2
2024/05/14/15:21:30.511188,60318,1715714490,511090926,gps,0,0,34.81515985923404,-82.32674282340614,284.63264023605734,"(0.8142669481236773, 0.0, 0.0, 0.0, 1.4966045903420877, 0.0, 0.0, 0.0, 5.3399391319390475)",2
2024/05/14/15:21:30.530938,60319,1715714490,530845032,gps,0,0,34.81515985923404,-82.32674282340614,284.63264023605734,"(0.8142669481236773, 0.0, 0.0, 0.0, 1.4966045903420877, 0.0, 0.0, 0.0, 5.3399391319390475)",2
2024/05/14/15:21:30.555632,60320,1715714490,555520890,gps,0,0,34.81515985923404,-82.32674282340614,284.63264023605734,"(0.8142669481236773, 0.0, 0.0, 0.0, 1.4966045903420877, 0.0, 0.0, 0.0, 5.3399391319390475)",2
2024/05/14/15:21:30.572368,60321,1715714490,572249835,gps,0,0,34.81515991910304,-82.3267428610375,284.65540812164545,"(0.814405074603318, 0.0, 0.0, 0.0, 1.4970861783217657, 0.0, 0.0, 0.0, 5.340692851298229)",2
2024/05/14/15:21:30.590017,60322,1715714490,589901584,gps,0,0,34.81515991910304,-82.3267428610375,284.65540812164545,"(0.814405074603318, 0.0, 0.0, 0.0, 1.4970861783217657, 0.0, 0.0, 0.0, 5.340692851298229)",2
2024/05/14/15:21:30.615714,60323,1715714490,615478170,gps,0,0,34.81515991910304,-82.3267428610375,284.65540812164545,"(0.814405074603318, 0.0, 0.0, 0.0, 1.4970861783217657, 0.0, 0.0, 0.0, 5.340692851298229)",2
2024/05/14/15:21:30.631460,60324,1715714490,631183773,gps,0,0,34.81515991910304,-82.3267428610375,284.65540812164545,"(0.814405074603318, 0.0, 0.0, 0.0, 1.4970861783217657, 0.0, 0.0, 0.0, 5.340692851298229)",2
2024/05/14/15:21:30.662784,60325,1715714490,662670325,gps,0,0,34.81515991910304,-82.3267428610375,284.65540812164545,"(0.814405074603318, 0.0, 0.0, 0.0, 1.4970861783217657, 0.0, 0.0, 0.0, 5.340692851298229)",2
2024/05/14/15:21:30.670457,60326,1715714490,670374988,gps,0,0,34.815159990505904,-82.32674289362068,284.6552936164662,"(0.8142515656036409, 0.0, 0.0, 0.0, 1.4964963822620945, 0.0, 0.0, 0.0, 5.339567801462408)",2
2024/05/14/15:21:30.692476,60327,1715714490,692338853,gps,0,0,34.815159990505904,-82.32674289362068,284.6552936164662,"(0.8142515656036409, 0.0, 0.0, 0.0, 1.4964963822620945, 0.0, 0.0, 0.0, 5.339567801462408)",2
2024/05/14/15:21:30.710604,60328,1715714490,710477558,gps,0,0,34.815159990505904,-82.32674289362068,284.6552936164662,"(0.8142515656036409, 0.0, 0.0, 0.0, 1.4964963822620945, 0.0, 0.0, 0.0, 5.339567801462408)",2
2024/05/14/15:21:30.730917,60329,1715714490,730788074,gps,0,0,34.815159990505904,-82.32674289362068,284.6552936164662,"(0.8142515656036409, 0.0, 0.0, 0.0, 1.4964963822620945, 0.0, 0.0, 0.0, 5.339567801462408)",2
2024/05/14/15:21:30.756117,60330,1715714490,755950250,gps,0,0,34.815159990505904,-82.32674289362068,284.6552936164662,"(0.8142515656036409, 0.0, 0.0, 0.0, 1.4964963822620945, 0.0, 0.0, 0.0, 5.339567801462408)",2
2024/05/14/15:21:30.770847,60331,1715714490,770748200,gps,0,0,34.8151598745822,-82.32674287214918,284.641489027068,"(0.8142643664318463, 0.0, 0.0, 0.0, 1.4967460542440136, 0.0, 0.0, 0.0, 5.339727571153219)",2
2024/05/14/15:21:30.790396,60332,1715714490,790286808,gps,0,0,34.8151598745822,-82.32674287214918,284.641489027068,"(0.8142643664318463, 0.0, 0.0, 0.0, 1.4967460542440136, 0.0, 0.0, 0.0, 5.339727571153219)",2
2024/05/14/15:21:30.822101,60333,1715714490,821811774,gps,0,0,34.8151598745822,-82.32674287214918,284.641489027068,"(0.8142643664318463, 0.0, 0.0, 0.0, 1.4967460542440136, 0.0, 0.0, 0.0, 5.339727571153219)",2
2024/05/14/15:21:30.831455,60334,1715714490,830294005,gps,0,0,34.8151598745822,-82.32674287214918,284.641489027068,"(0.8142643664318463, 0.0, 0.0, 0.0, 1.4967460542440136, 0.0, 0.0, 0.0, 5.339727571153219)",2
2024/05/14/15:21:30.891635,60335,1715714490,891527461,gps,0,0,34.8151598745822,-82.32674287214918,284.641489027068,"(0.8142643664318463, 0.0, 0.0, 0.0, 1.4967460542440136, 0.0, 0.0, 0.0, 5.339727571153219)",2
2024/05/14/15:21:30.928197,60336,1715714490,928015780,gps,0,0,34.81515990935525,-82.32674288246874,284.6404800442979,"(0.8142158529006025, 0.0, 0.0, 0.0, 1.4965617149745327, 0.0, 0.0, 0.0, 5.339431172726336)",2
2024/05/14/15:21:30.934590,60337,1715714490,934507754,gps,0,0,34.81515990935525,-82.32674288246874,284.6404800442979,"(0.8142158529006025, 0.0, 0.0, 0.0, 1.4965617149745327, 0.0, 0.0, 0.0, 5.339431172726336)",2
2024/05/14/15:21:30.972587,60338,1715714490,972460668,gps,0,0,34.81515990935525,-82.32674288246874,284.6404800442979,"(0.8142158529006025, 0.0, 0.0, 0.0, 1.4965617149745327, 0.0, 0.0, 0.0, 5.339431172726336)",2
2024/05/14/15:21:30.980124,60339,1715714490,980024013,gps,0,0,34.81515990935525,-82.32674288246874,284.6404800442979,"(0.8142158529006025, 0.0, 0.0, 0.0, 1.4965617149745327, 0.0, 0.0, 0.0, 5.339431172726336)",2
2024/05/14/15:21:30.988089,60340,1715714490,987955923,gps,0,0,34.81515990935525,-82.32674288246874,284.6404800442979,"(0.8142158529006025, 0.0, 0.0, 0.0, 1.4965617149745327, 0.0, 0.0, 0.0, 5.339431172726336)",2
2024/05/14/15:21:31.007478,60341,1715714491,7315299,gps,0,0,34.81515979371203,-82.3267427839919,284.6322748446837,"(0.8143205191527194, 0.0, 0.0, 0.0, 1.4972270815180764, 0.0, 0.0, 0.0, 5.339449903981915)",2
2024/05/14/15:21:31.014586,60342,1715714491,14477044,gps,0,0,34.81515979371203,-82.3267427839919,284.6322748446837,"(0.8143205191527194, 0.0, 0.0, 0.0, 1.4972270815180764, 0.0, 0.0, 0.0, 5.339449903981915)",2
2024/05/14/15:21:31.027770,60343,1715714491,22172533,gps,0,0,34.81515979371203,-82.3267427839919,284.6322748446837,"(0.8143205191527194, 0.0, 0.0, 0.0, 1.4972270815180764, 0.0, 0.0, 0.0, 5.339449903981915)",2
2024/05/14/15:21:31.075021,60344,1715714491,74913002,gps,0,0,34.81515979371203,-82.3267427839919,284.6322748446837,"(0.8143205191527194, 0.0, 0.0, 0.0, 1.4972270815180764, 0.0, 0.0, 0.0, 5.339449903981915)",2
2024/05/14/15:21:31.091504,60345,1715714491,91414880,gps,0,0,34.81515979371203,-82.3267427839919,284.6322748446837,"(0.8143205191527194, 0.0, 0.0, 0.0, 1.4972270815180764, 0.0, 0.0, 0.0, 5.339449903981915)",2
2024/05/14/15:21:31.107336,60346,1715714491,107196271,gps,0,0,34.815159761831524,-82.32674277305078,284.6404371066019,"(0.8144554226817924, 0.0, 0.0, 0.0, 1.4973408591236534, 0.0, 0.0, 0.0, 5.340088990031347)",2
2024/05/14/15:21:31.116325,60347,1715714491,116161984,gps,0,0,34.815159761831524,-82.32674277305078,284.6404371066019,"(0.8144554226817924, 0.0, 0.0, 0.0, 1.4973408591236534, 0.0, 0.0, 0.0, 5.340088990031347)",2
2024/05/14/15:21:31.127932,60348,1715714491,121376257,gps,0,0,34.815159761831524,-82.32674277305078,284.6404371066019,"(0.8144554226817924, 0.0, 0.0, 0.0, 1.4973408591236534, 0.0, 0.0, 0.0, 5.340088990031347)",2
2024/05/14/15:21:31.131531,60349,1715714491,130569889,gps,0,0,34.815159761831524,-82.32674277305078,284.6404371066019,"(0.8144554226817924, 0.0, 0.0, 0.0, 1.4973408591236534, 0.0, 0.0, 0.0, 5.340088990031347)",2
2024/05/14/15:21:31.152300,60350,1715714491,152144216,gps,0,0,34.815159761831524,-82.32674277305078,284.6404371066019,"(0.8144554226817924, 0.0, 0.0, 0.0, 1.4973408591236534, 0.0, 0.0, 0.0, 5.340088990031347)",2
2024/05/14/15:21:31.170654,60351,1715714491,170560588,gps,0,0,34.81515972287988,-82.32674273189303,284.63648183085024,"(0.8142955621488603, 0.0, 0.0, 0.0, 1.4969954553421871, 0.0, 0.0, 0.0, 5.339258185624715)",2
2024/05/14/15:21:31.190342,60352,1715714491,190231393,gps,0,0,34.81515972287988,-82.32674273189303,284.63648183085024,"(0.8142955621488603, 0.0, 0.0, 0.0, 1.4969954553421871, 0.0, 0.0, 0.0, 5.339258185624715)",2
2024/05/14/15:21:31.211462,60353,1715714491,211357103,gps,0,0,34.81515972287988,-82.32674273189303,284.63648183085024,"(0.8142955621488603, 0.0, 0.0, 0.0, 1.4969954553421871, 0.0, 0.0, 0.0, 5.339258185624715)",2
2024/05/14/15:21:31.230293,60354,1715714491,230198710,gps,0,0,34.81515972287988,-82.32674273189303,284.63648183085024,"(0.8142955621488603, 0.0, 0.0, 0.0, 1.4969954553421871, 0.0, 0.0, 0.0, 5.339258185624715)",2
2024/05/14/15:21:31.260636,60355,1715714491,260545140,gps,0,0,34.81515972287988,-82.32674273189303,284.63648183085024,"(0.8142955621488603, 0.0, 0.0, 0.0, 1.4969954553421871, 0.0, 0.0, 0.0, 5.339258185624715)",2
2024/05/14/15:21:31.271147,60356,1715714491,271045679,gps,0,0,34.81515971635212,-82.32674270725967,284.63668606150895,"(0.8142686692538383, 0.0, 0.0, 0.0, 1.4967090104730687, 0.0, 0.0, 0.0, 5.339067572509521)",2
2024/05/14/15:21:31.290916,60357,1715714491,290814441,gps,0,0,34.81515971635212,-82.32674270725967,284.63668606150895,"(0.8142686692538383, 0.0, 0.0, 0.0, 1.4967090104730687, 0.0, 0.0, 0.0, 5.339067572509521)",2
2024/05/14/15:21:31.311456,60358,1715714491,311246330,gps,0,0,34.81515971635212,-82.32674270725967,284.63668606150895,"(0.8142686692538383, 0.0, 0.0, 0.0, 1.4967090104730687, 0.0, 0.0, 0.0, 5.339067572509521)",2
2024/05/14/15:21:31.332270,60359,1715714491,332162768,gps,0,0,34.81515971635212,-82.32674270725967,284.63668606150895,"(0.8142686692538383, 0.0, 0.0, 0.0, 1.4967090104730687, 0.0, 0.0, 0.0, 5.339067572509521)",2
2024/05/14/15:21:31.358452,60360,1715714491,358177063,gps,0,0,34.81515971635212,-82.32674270725967,284.63668606150895,"(0.8142686692538383, 0.0, 0.0, 0.0, 1.4967090104730687, 0.0, 0.0, 0.0, 5.339067572509521)",2
2024/05/14/15:21:31.370734,60361,1715714491,370633844,gps,0,0,34.8151597689124,-82.32674275145972,284.64348371885717,"(0.8142452190118412, 0.0, 0.0, 0.0, 1.4964867574740879, 0.0, 0.0, 0.0, 5.338713900540881)",2
2024/05/14/15:21:31.390553,60362,1715714491,390424932,gps,0,0,34.8151597689124,-82.32674275145972,284.64348371885717,"(0.8142452190118412, 0.0, 0.0, 0.0, 1.4964867574740879, 0.0, 0.0, 0.0, 5.338713900540881)",2
2024/05/14/15:21:31.413634,60363,1715714491,413480858,gps,0,0,34.8151597689124,-82.32674275145972,284.64348371885717,"(0.8142452190118412, 0.0, 0.0, 0.0, 1.4964867574740879, 0.0, 0.0, 0.0, 5.338713900540881)",2
2024/05/14/15:21:31.430385,60364,1715714491,430245085,gps,0,0,34.8151597689124,-82.32674275145972,284.64348371885717,"(0.8142452190118412, 0.0, 0.0, 0.0, 1.4964867574740879, 0.0, 0.0, 0.0, 5.338713900540881)",2
2024/05/14/15:21:31.460684,60365,1715714491,460497872,gps,0,0,34.8151597689124,-82.32674275145972,284.64348371885717,"(0.8142452190118412, 0.0, 0.0, 0.0, 1.4964867574740879, 0.0, 0.0, 0.0, 5.338713900540881)",2
2024/05/14/15:21:31.469970,60366,1715714491,469841340,gps,0,0,34.815159769672945,-82.32674273850556,284.64550395309925,"(0.8142210161345389, 0.0, 0.0, 0.0, 1.4965558816386562, 0.0, 0.0, 0.0, 5.338653303715546)",2
2024/05/14/15:21:31.490581,60367,1715714491,490453781,gps,0,0,34.815159769672945,-82.32674273850556,284.64550395309925,"(0.8142210161345389, 0.0, 0.0, 0.0, 1.4965558816386562, 0.0, 0.0, 0.0, 5.338653303715546)",2
2024/05/14/15:21:31.511088,60368,1715714491,511003933,gps,0,0,34.815159769672945,-82.32674273850556,284.64550395309925,"(0.8142210161345389, 0.0, 0.0, 0.0, 1.4965558816386562, 0.0, 0.0, 0.0, 5.338653303715546)",2
2024/05/14/15:21:31.531001,60369,1715714491,530878361,gps,0,0,34.815159769672945,-82.32674273850556,284.64550395309925,"(0.8142210161345389, 0.0, 0.0, 0.0, 1.4965558816386562, 0.0, 0.0, 0.0, 5.338653303715546)",2
2024/05/14/15:21:31.552215,60370,1715714491,552030802,gps,0,0,34.815159769672945,-82.32674273850556,284.64550395309925,"(0.8142210161345389, 0.0, 0.0, 0.0, 1.4965558816386562, 0.0, 0.0, 0.0, 5.338653303715546)",2
2024/05/14/15:21:31.571836,60371,1715714491,571741991,gps,0,0,34.81515973944955,-82.3267427068359,284.6439219135791,"(0.8141417407841836, 0.0, 0.0, 0.0, 1.4963715540807385, 0.0, 0.0, 0.0, 5.338006591746819)",2
2024/05/14/15:21:31.589978,60372,1715714491,589857156,gps,0,0,34.81515973944955,-82.3267427068359,284.6439219135791,"(0.8141417407841836, 0.0, 0.0, 0.0, 1.4963715540807385, 0.0, 0.0, 0.0, 5.338006591746819)",2
2024/05/14/15:21:31.610936,60373,1715714491,610841324,gps,0,0,34.81515973944955,-82.3267427068359,284.6439219135791,"(0.8141417407841836, 0.0, 0.0, 0.0, 1.4963715540807385, 0.0, 0.0, 0.0, 5.338006591746819)",2
2024/05/14/15:21:31.631693,60374,1715714491,631581819,gps,0,0,34.81515973944955,-82.3267427068359,284.6439219135791,"(0.8141417407841836, 0.0, 0.0, 0.0, 1.4963715540807385, 0.0, 0.0, 0.0, 5.338006591746819)",2
2024/05/14/15:21:31.660294,60375,1715714491,659740990,gps,0,0,34.81515973944955,-82.3267427068359,284.6439219135791,"(0.8141417407841836, 0.0, 0.0, 0.0, 1.4963715540807385, 0.0, 0.0, 0.0, 5.338006591746819)",2
2024/05/14/15:21:31.670128,60376,1715714491,670029220,gps,0,0,34.815159748052785,-82.32674273134087,284.6478084586561,"(0.8140640826501375, 0.0, 0.0, 0.0, 1.4963604714564696, 0.0, 0.0, 0.0, 5.337604482250754)",2
2024/05/14/15:21:31.691906,60377,1715714491,691788569,gps,0,0,34.815159748052785,-82.32674273134087,284.6478084586561,"(0.8140640826501375, 0.0, 0.0, 0.0, 1.4963604714564696, 0.0, 0.0, 0.0, 5.337604482250754)",2
2024/05/14/15:21:31.710329,60378,1715714491,710211231,gps,0,0,34.815159748052785,-82.32674273134087,284.6478084586561,"(0.8140640826501375, 0.0, 0.0, 0.0, 1.4963604714564696, 0.0, 0.0, 0.0, 5.337604482250754)",2
2024/05/14/15:21:31.730636,60379,1715714491,730498275,gps,0,0,34.815159748052785,-82.32674273134087,284.6478084586561,"(0.8140640826501375, 0.0, 0.0, 0.0, 1.4963604714564696, 0.0, 0.0, 0.0, 5.337604482250754)",2
2024/05/14/15:21:31.752762,60380,1715714491,752589281,gps,0,0,34.815159748052785,-82.32674273134087,284.6478084586561,"(0.8140640826501375, 0.0, 0.0, 0.0, 1.4963604714564696, 0.0, 0.0, 0.0, 5.337604482250754)",2
2024/05/14/15:21:31.771072,60381,1715714491,770980360,gps,0,0,34.81515973957719,-82.32674269708977,284.6531154345721,"(0.813902324691643, 0.0, 0.0, 0.0, 1.495575167888319, 0.0, 0.0, 0.0, 5.336682441773121)",2
2024/05/14/15:21:31.790210,60382,1715714491,790100117,gps,0,0,34.81515973957719,-82.32674269708977,284.6531154345721,"(0.813902324691643, 0.0, 0.0, 0.0, 1.495575167888319, 0.0, 0.0, 0.0, 5.336682441773121)",2
2024/05/14/15:21:31.812663,60383,1715714491,812526740,gps,0,0,34.81515973957719,-82.32674269708977,284.6531154345721,"(0.813902324691643, 0.0, 0.0, 0.0, 1.495575167888319, 0.0, 0.0, 0.0, 5.336682441773121)",2
2024/05/14/15:21:31.830606,60384,1715714491,830494468,gps,0,0,34.81515973957719,-82.32674269708977,284.6531154345721,"(0.813902324691643, 0.0, 0.0, 0.0, 1.495575167888319, 0.0, 0.0, 0.0, 5.336682441773121)",2
2024/05/14/15:21:31.902140,60385,1715714491,902048414,gps,0,0,34.81515973957719,-82.32674269708977,284.6531154345721,"(0.813902324691643, 0.0, 0.0, 0.0, 1.495575167888319, 0.0, 0.0, 0.0, 5.336682441773121)",2
2024/05/14/15:21:31.928992,60386,1715714491,928773758,gps,0,0,34.815159708413816,-82.3267426932075,284.6579753411934,"(0.8139654557059117, 0.0, 0.0, 0.0, 1.4956670141405226, 0.0, 0.0, 0.0, 5.336914872186981)",2
2024/05/14/15:21:31.945284,60387,1715714491,945153247,gps,0,0,34.815159708413816,-82.3267426932075,284.6579753411934,"(0.8139654557059117, 0.0, 0.0, 0.0, 1.4956670141405226, 0.0, 0.0, 0.0, 5.336914872186981)",2
2024/05/14/15:21:31.966652,60388,1715714491,966497195,gps,0,0,34.815159708413816,-82.3267426932075,284.6579753411934,"(0.8139654557059117, 0.0, 0.0, 0.0, 1.4956670141405226, 0.0, 0.0, 0.0, 5.336914872186981)",2
2024/05/14/15:21:31.972616,60389,1715714491,972499231,gps,0,0,34.815159708413816,-82.3267426932075,284.6579753411934,"(0.8139654557059117, 0.0, 0.0, 0.0, 1.4956670141405226, 0.0, 0.0, 0.0, 5.336914872186981)",2
2024/05/14/15:21:31.977664,60390,1715714491,977535961,gps,0,0,34.815159708413816,-82.3267426932075,284.6579753411934,"(0.8139654557059117, 0.0, 0.0, 0.0, 1.4956670141405226, 0.0, 0.0, 0.0, 5.336914872186981)",2
2024/05/14/15:21:31.988079,60391,1715714491,987954575,gps,0,0,34.815159702072116,-82.32674268879428,284.65862465649843,"(0.8141743324895288, 0.0, 0.0, 0.0, 1.4962219421159375, 0.0, 0.0, 0.0, 5.338016506966824)",2
2024/05/14/15:21:31.993178,60392,1715714491,992970666,gps,0,0,34.815159702072116,-82.32674268879428,284.65862465649843,"(0.8141743324895288, 0.0, 0.0, 0.0, 1.4962219421159375, 0.0, 0.0, 0.0, 5.338016506966824)",2
2024/05/14/15:21:32.011050,60393,1715714492,10949980,gps,0,0,34.815159702072116,-82.32674268879428,284.65862465649843,"(0.8141743324895288, 0.0, 0.0, 0.0, 1.4962219421159375, 0.0, 0.0, 0.0, 5.338016506966824)",2
2024/05/14/15:21:32.087619,60394,1715714492,83945557,gps,0,0,34.815159702072116,-82.32674268879428,284.65862465649843,"(0.8141743324895288, 0.0, 0.0, 0.0, 1.4962219421159375, 0.0, 0.0, 0.0, 5.338016506966824)",2
2024/05/14/15:21:32.091472,60395,1715714492,91369949,gps,0,0,34.815159702072116,-82.32674268879428,284.65862465649843,"(0.8141743324895288, 0.0, 0.0, 0.0, 1.4962219421159375, 0.0, 0.0, 0.0, 5.338016506966824)",2
2024/05/14/15:21:32.110263,60396,1715714492,110154653,gps,0,0,34.81515972342108,-82.32674271008497,284.6590665439144,"(0.814076989562583, 0.0, 0.0, 0.0, 1.4957340782647321, 0.0, 0.0, 0.0, 5.337406187253691)",2
2024/05/14/15:21:32.116255,60397,1715714492,116141722,gps,0,0,34.81515972342108,-82.32674271008497,284.6590665439144,"(0.814076989562583, 0.0, 0.0, 0.0, 1.4957340782647321, 0.0, 0.0, 0.0, 5.337406187253691)",2
2024/05/14/15:21:32.121495,60398,1715714492,121407981,gps,0,0,34.81515972342108,-82.32674271008497,284.6590665439144,"(0.814076989562583, 0.0, 0.0, 0.0, 1.4957340782647321, 0.0, 0.0, 0.0, 5.337406187253691)",2
2024/05/14/15:21:32.130754,60399,1715714492,130667312,gps,0,0,34.81515972342108,-82.32674271008497,284.6590665439144,"(0.814076989562583, 0.0, 0.0, 0.0, 1.4957340782647321, 0.0, 0.0, 0.0, 5.337406187253691)",2
2024/05/14/15:21:32.151980,60400,1715714492,151856038,gps,0,0,34.81515972342108,-82.32674271008497,284.6590665439144,"(0.814076989562583, 0.0, 0.0, 0.0, 1.4957340782647321, 0.0, 0.0, 0.0, 5.337406187253691)",2
2024/05/14/15:21:32.171378,60401,1715714492,170875079,gps,0,0,34.81515968002974,-82.32674268906963,284.64936184789985,"(0.814324176676795, 0.0, 0.0, 0.0, 1.4964564250113312, 0.0, 0.0, 0.0, 5.338670931847446)",2
2024/05/14/15:21:32.190078,60402,1715714492,189994350,gps,0,0,34.81515968002974,-82.32674268906963,284.64936184789985,"(0.814324176676795, 0.0, 0.0, 0.0, 1.4964564250113312, 0.0, 0.0, 0.0, 5.338670931847446)",2
2024/05/14/15:21:32.213529,60403,1715714492,213439354,gps,0,0,34.81515968002974,-82.32674268906963,284.64936184789985,"(0.814324176676795, 0.0, 0.0, 0.0, 1.4964564250113312, 0.0, 0.0, 0.0, 5.338670931847446)",2
2024/05/14/15:21:32.230647,60404,1715714492,230314542,gps,0,0,34.81515968002974,-82.32674268906963,284.64936184789985,"(0.814324176676795, 0.0, 0.0, 0.0, 1.4964564250113312, 0.0, 0.0, 0.0, 5.338670931847446)",2
2024/05/14/15:21:32.260060,60405,1715714492,259935243,gps,0,0,34.81515968002974,-82.32674268906963,284.64936184789985,"(0.814324176676795, 0.0, 0.0, 0.0, 1.4964564250113312, 0.0, 0.0, 0.0, 5.338670931847446)",2
2024/05/14/15:21:32.271295,60406,1715714492,271143866,gps,0,0,34.81515968216107,-82.32674269925475,284.6567920735106,"(0.8142275777679551, 0.0, 0.0, 0.0, 1.4960717543921334, 0.0, 0.0, 0.0, 5.338044049292932)",2
2024/05/14/15:21:32.290474,60407,1715714492,290373078,gps,0,0,34.81515968216107,-82.32674269925475,284.6567920735106,"(0.8142275777679551, 0.0, 0.0, 0.0, 1.4960717543921334, 0.0, 0.0, 0.0, 5.338044049292932)",2
2024/05/14/15:21:32.310128,60408,1715714492,310025945,gps,0,0,34.81515968216107,-82.32674269925475,284.6567920735106,"(0.8142275777679551, 0.0, 0.0, 0.0, 1.4960717543921334, 0.0, 0.0, 0.0, 5.338044049292932)",2
2024/05/14/15:21:32.332014,60409,1715714492,331921647,gps,0,0,34.81515968216107,-82.32674269925475,284.6567920735106,"(0.8142275777679551, 0.0, 0.0, 0.0, 1.4960717543921334, 0.0, 0.0, 0.0, 5.338044049292932)",2
2024/05/14/15:21:32.358075,60410,1715714492,357795989,gps,0,0,34.81515968216107,-82.32674269925475,284.6567920735106,"(0.8142275777679551, 0.0, 0.0, 0.0, 1.4960717543921334, 0.0, 0.0, 0.0, 5.338044049292932)",2
2024/05/14/15:21:32.370660,60411,1715714492,370573977,gps,0,0,34.81515970484001,-82.3267426776713,284.66093440540135,"(0.8140833354987222, 0.0, 0.0, 0.0, 1.4955305578690883, 0.0, 0.0, 0.0, 5.337183660587698)",2
2024/05/14/15:21:32.390991,60412,1715714492,390886929,gps,0,0,34.81515970484001,-82.3267426776713,284.66093440540135,"(0.8140833354987222, 0.0, 0.0, 0.0, 1.4955305578690883, 0.0, 0.0, 0.0, 5.337183660587698)",2
2024/05/14/15:21:32.411034,60413,1715714492,410907135,gps,0,0,34.81515970484001,-82.3267426776713,284.66093440540135,"(0.8140833354987222, 0.0, 0.0, 0.0, 1.4955305578690883, 0.0, 0.0, 0.0, 5.337183660587698)",2
2024/05/14/15:21:32.430273,60414,1715714492,430163270,gps,0,0,34.81515970484001,-82.3267426776713,284.66093440540135,"(0.8140833354987222, 0.0, 0.0, 0.0, 1.4955305578690883, 0.0, 0.0, 0.0, 5.337183660587698)",2
2024/05/14/15:21:32.461606,60415,1715714492,461502985,gps,0,0,34.81515970484001,-82.3267426776713,284.66093440540135,"(0.8140833354987222, 0.0, 0.0, 0.0, 1.4955305578690883, 0.0, 0.0, 0.0, 5.337183660587698)",2
2024/05/14/15:21:32.470369,60416,1715714492,470275743,gps,0,0,34.815159723227545,-82.32674269434821,284.6703275414184,"(0.8140063254703733, 0.0, 0.0, 0.0, 1.4949655552129713, 0.0, 0.0, 0.0, 5.336587708553964)",2
2024/05/14/15:21:32.490917,60417,1715714492,490813430,gps,0,0,34.815159723227545,-82.32674269434821,284.6703275414184,"(0.8140063254703733, 0.0, 0.0, 0.0, 1.4949655552129713, 0.0, 0.0, 0.0, 5.336587708553964)",2
2024/05/14/15:21:32.512381,60418,1715714492,512217686,gps,0,0,34.815159723227545,-82.32674269434821,284.6703275414184,"(0.8140063254703733, 0.0, 0.0, 0.0, 1.4949655552129713, 0.0, 0.0, 0.0, 5.336587708553964)",2
2024/05/14/15:21:32.530594,60419,1715714492,530502694,gps,0,0,34.815159723227545,-82.32674269434821,284.6703275414184,"(0.8140063254703733, 0.0, 0.0, 0.0, 1.4949655552129713, 0.0, 0.0, 0.0, 5.336587708553964)",2
2024/05/14/15:21:32.555407,60420,1715714492,554857704,gps,0,0,34.815159723227545,-82.32674269434821,284.6703275414184,"(0.8140063254703733, 0.0, 0.0, 0.0, 1.4949655552129713, 0.0, 0.0, 0.0, 5.336587708553964)",2
2024/05/14/15:21:32.573278,60421,1715714492,573166123,gps,0,0,34.815159607964716,-82.32674263207663,284.6554843252525,"(0.8140854866691285, 0.0, 0.0, 0.0, 1.495166413381014, 0.0, 0.0, 0.0, 5.336941310090197)",2
2024/05/14/15:21:32.590107,60422,1715714492,590023748,gps,0,0,34.815159607964716,-82.32674263207663,284.6554843252525,"(0.8140854866691285, 0.0, 0.0, 0.0, 1.495166413381014, 0.0, 0.0, 0.0, 5.336941310090197)",2
2024/05/14/15:21:32.611084,60423,1715714492,611010094,gps,0,0,34.815159607964716,-82.32674263207663,284.6554843252525,"(0.8140854866691285, 0.0, 0.0, 0.0, 1.495166413381014, 0.0, 0.0, 0.0, 5.336941310090197)",2
2024/05/14/15:21:32.631084,60424,1715714492,631008507,gps,0,0,34.815159607964716,-82.32674263207663,284.6554843252525,"(0.8140854866691285, 0.0, 0.0, 0.0, 1.495166413381014, 0.0, 0.0, 0.0, 5.336941310090197)",2
2024/05/14/15:21:32.662433,60425,1715714492,662287698,gps,0,0,34.815159607964716,-82.32674263207663,284.6554843252525,"(0.8140854866691285, 0.0, 0.0, 0.0, 1.495166413381014, 0.0, 0.0, 0.0, 5.336941310090197)",2
2024/05/14/15:21:32.670286,60426,1715714492,670157447,gps,0,0,34.81515961673403,-82.32674261755834,284.6518391519785,"(0.8141872402759418, 0.0, 0.0, 0.0, 1.4956486446644703, 0.0, 0.0, 0.0, 5.337583550938291)",2
2024/05/14/15:21:32.692472,60427,1715714492,692347251,gps,0,0,34.81515961673403,-82.32674261755834,284.6518391519785,"(0.8141872402759418, 0.0, 0.0, 0.0, 1.4956486446644703, 0.0, 0.0, 0.0, 5.337583550938291)",2
2024/05/14/15:21:32.710137,60428,1715714492,710028368,gps,0,0,34.81515961673403,-82.32674261755834,284.6518391519785,"(0.8141872402759418, 0.0, 0.0, 0.0, 1.4956486446644703, 0.0, 0.0, 0.0, 5.337583550938291)",2
2024/05/14/15:21:32.730934,60429,1715714492,730498981,gps,0,0,34.81515961673403,-82.32674261755834,284.6518391519785,"(0.8141872402759418, 0.0, 0.0, 0.0, 1.4956486446644703, 0.0, 0.0, 0.0, 5.337583550938291)",2
2024/05/14/15:21:32.752185,60430,1715714492,752056115,gps,0,0,34.81515961673403,-82.32674261755834,284.6518391519785,"(0.8141872402759418, 0.0, 0.0, 0.0, 1.4956486446644703, 0.0, 0.0, 0.0, 5.337583550938291)",2
2024/05/14/15:21:32.770946,60431,1715714492,770840258,gps,0,0,34.815159569522244,-82.32674259458288,284.64941861480474,"(0.8141298014118235, 0.0, 0.0, 0.0, 1.495138134999948, 0.0, 0.0, 0.0, 5.337056976686711)",2
2024/05/14/15:21:32.790363,60432,1715714492,790272485,gps,0,0,34.815159569522244,-82.32674259458288,284.64941861480474,"(0.8141298014118235, 0.0, 0.0, 0.0, 1.495138134999948, 0.0, 0.0, 0.0, 5.337056976686711)",2
2024/05/14/15:21:32.814913,60433,1715714492,814787806,gps,0,0,34.815159569522244,-82.32674259458288,284.64941861480474,"(0.8141298014118235, 0.0, 0.0, 0.0, 1.495138134999948, 0.0, 0.0, 0.0, 5.337056976686711)",2
2024/05/14/15:21:32.830432,60434,1715714492,830295166,gps,0,0,34.815159569522244,-82.32674259458288,284.64941861480474,"(0.8141298014118235, 0.0, 0.0, 0.0, 1.495138134999948, 0.0, 0.0, 0.0, 5.337056976686711)",2
2024/05/14/15:21:32.891347,60435,1715714492,891261696,gps,0,0,34.815159569522244,-82.32674259458288,284.64941861480474,"(0.8141298014118235, 0.0, 0.0, 0.0, 1.495138134999948, 0.0, 0.0, 0.0, 5.337056976686711)",2
2024/05/14/15:21:32.926537,60436,1715714492,926373886,gps,0,0,34.815159577317445,-82.3267425870071,284.6535332808271,"(0.8140777424689674, 0.0, 0.0, 0.0, 1.4951168535080797, 0.0, 0.0, 0.0, 5.3367859883465485)",2
2024/05/14/15:21:32.934151,60437,1715714492,933709028,gps,0,0,34.815159577317445,-82.3267425870071,284.6535332808271,"(0.8140777424689674, 0.0, 0.0, 0.0, 1.4951168535080797, 0.0, 0.0, 0.0, 5.3367859883465485)",2
2024/05/14/15:21:32.948341,60438,1715714492,948187565,gps,0,0,34.815159577317445,-82.3267425870071,284.6535332808271,"(0.8140777424689674, 0.0, 0.0, 0.0, 1.4951168535080797, 0.0, 0.0, 0.0, 5.3367859883465485)",2
2024/05/14/15:21:32.971859,60439,1715714492,971770888,gps,0,0,34.815159577317445,-82.3267425870071,284.6535332808271,"(0.8140777424689674, 0.0, 0.0, 0.0, 1.4951168535080797, 0.0, 0.0, 0.0, 5.3367859883465485)",2
2024/05/14/15:21:32.981161,60440,1715714492,981084847,gps,0,0,34.815159577317445,-82.3267425870071,284.6535332808271,"(0.8140777424689674, 0.0, 0.0, 0.0, 1.4951168535080797, 0.0, 0.0, 0.0, 5.3367859883465485)",2
2024/05/14/15:21:32.992892,60441,1715714492,992803949,gps,0,0,34.8151595730644,-82.32674258894997,284.6722157802433,"(0.8139382456159048, 0.0, 0.0, 0.0, 1.4947760787436124, 0.0, 0.0, 0.0, 5.336198870544649)",2
2024/05/14/15:21:33.004436,60442,1715714493,722728,gps,0,0,34.8151595730644,-82.32674258894997,284.6722157802433,"(0.8139382456159048, 0.0, 0.0, 0.0, 1.4947760787436124, 0.0, 0.0, 0.0, 5.336198870544649)",2
2024/05/14/15:21:33.015299,60443,1715714493,15170032,gps,0,0,34.8151595730644,-82.32674258894997,284.6722157802433,"(0.8139382456159048, 0.0, 0.0, 0.0, 1.4947760787436124, 0.0, 0.0, 0.0, 5.336198870544649)",2
2024/05/14/15:21:33.071136,60444,1715714493,71048391,gps,0,0,34.8151595730644,-82.32674258894997,284.6722157802433,"(0.8139382456159048, 0.0, 0.0, 0.0, 1.4947760787436124, 0.0, 0.0, 0.0, 5.336198870544649)",2
2024/05/14/15:21:33.078993,60445,1715714493,78904737,gps,0,0,34.8151595730644,-82.32674258894997,284.6722157802433,"(0.8139382456159048, 0.0, 0.0, 0.0, 1.4947760787436124, 0.0, 0.0, 0.0, 5.336198870544649)",2
2024/05/14/15:21:33.093653,60446,1715714493,93530810,gps,0,0,34.815159576703394,-82.32674256681305,284.67239395994693,"(0.8138117730651153, 0.0, 0.0, 0.0, 1.494261637827151, 0.0, 0.0, 0.0, 5.335466395495644)",2
2024/05/14/15:21:33.100992,60447,1715714493,100858051,gps,0,0,34.815159576703394,-82.32674256681305,284.67239395994693,"(0.8138117730651153, 0.0, 0.0, 0.0, 1.494261637827151, 0.0, 0.0, 0.0, 5.335466395495644)",2
2024/05/14/15:21:33.115232,60448,1715714493,115111933,gps,0,0,34.815159576703394,-82.32674256681305,284.67239395994693,"(0.8138117730651153, 0.0, 0.0, 0.0, 1.494261637827151, 0.0, 0.0, 0.0, 5.335466395495644)",2
2024/05/14/15:21:33.130947,60449,1715714493,130838909,gps,0,0,34.815159576703394,-82.32674256681305,284.67239395994693,"(0.8138117730651153, 0.0, 0.0, 0.0, 1.494261637827151, 0.0, 0.0, 0.0, 5.335466395495644)",2
2024/05/14/15:21:33.155292,60450,1715714493,155132094,gps,0,0,34.815159576703394,-82.32674256681305,284.67239395994693,"(0.8138117730651153, 0.0, 0.0, 0.0, 1.494261637827151, 0.0, 0.0, 0.0, 5.335466395495644)",2
2024/05/14/15:21:33.172400,60451,1715714493,172275974,gps,0,0,34.815159509790014,-82.32674250874217,284.66522405762225,"(0.813887590889081, 0.0, 0.0, 0.0, 1.494686300240474, 0.0, 0.0, 0.0, 5.3358166554872355)",2
2024/05/14/15:21:33.190311,60452,1715714493,190194499,gps,0,0,34.815159509790014,-82.32674250874217,284.66522405762225,"(0.813887590889081, 0.0, 0.0, 0.0, 1.494686300240474, 0.0, 0.0, 0.0, 5.3358166554872355)",2
2024/05/14/15:21:33.218767,60453,1715714493,218602368,gps,0,0,34.815159509790014,-82.32674250874217,284.66522405762225,"(0.813887590889081, 0.0, 0.0, 0.0, 1.494686300240474, 0.0, 0.0, 0.0, 5.3358166554872355)",2
2024/05/14/15:21:33.230586,60454,1715714493,230450249,gps,0,0,34.815159509790014,-82.32674250874217,284.66522405762225,"(0.813887590889081, 0.0, 0.0, 0.0, 1.494686300240474, 0.0, 0.0, 0.0, 5.3358166554872355)",2
2024/05/14/15:21:33.261370,60455,1715714493,261265873,gps,0,0,34.815159509790014,-82.32674250874217,284.66522405762225,"(0.813887590889081, 0.0, 0.0, 0.0, 1.494686300240474, 0.0, 0.0, 0.0, 5.3358166554872355)",2
2024/05/14/15:21:33.271600,60456,1715714493,271488111,gps,0,0,34.81515942372392,-82.32674244547609,284.6655335277319,"(0.8136713312212329, 0.0, 0.0, 0.0, 1.4943202184159787, 0.0, 0.0, 0.0, 5.334663484373095)",2
2024/05/14/15:21:33.290667,60457,1715714493,290546794,gps,0,0,34.81515942372392,-82.32674244547609,284.6655335277319,"(0.8136713312212329, 0.0, 0.0, 0.0, 1.4943202184159787, 0.0, 0.0, 0.0, 5.334663484373095)",2
2024/05/14/15:21:33.313572,60458,1715714493,313229548,gps,0,0,34.81515942372392,-82.32674244547609,284.6655335277319,"(0.8136713312212329, 0.0, 0.0, 0.0, 1.4943202184159787, 0.0, 0.0, 0.0, 5.334663484373095)",2
2024/05/14/15:21:33.333536,60459,1715714493,333385803,gps,0,0,34.81515942372392,-82.32674244547609,284.6655335277319,"(0.8136713312212329, 0.0, 0.0, 0.0, 1.4943202184159787, 0.0, 0.0, 0.0, 5.334663484373095)",2
2024/05/14/15:21:33.359559,60460,1715714493,359443879,gps,0,0,34.81515942372392,-82.32674244547609,284.6655335277319,"(0.8136713312212329, 0.0, 0.0, 0.0, 1.4943202184159787, 0.0, 0.0, 0.0, 5.334663484373095)",2
2024/05/14/15:21:33.370893,60461,1715714493,370786648,gps,0,0,34.81515929231593,-82.32674232133002,284.65979230683297,"(0.8136190718833838, 0.0, 0.0, 0.0, 1.4943301276838525, 0.0, 0.0, 0.0, 5.334373834422479)",2
2024/05/14/15:21:33.390527,60462,1715714493,390414489,gps,0,0,34.81515929231593,-82.32674232133002,284.65979230683297,"(0.8136190718833838, 0.0, 0.0, 0.0, 1.4943301276838525, 0.0, 0.0, 0.0, 5.334373834422479)",2
2024/05/14/15:21:33.410889,60463,1715714493,410797475,gps,0,0,34.81515929231593,-82.32674232133002,284.65979230683297,"(0.8136190718833838, 0.0, 0.0, 0.0, 1.4943301276838525, 0.0, 0.0, 0.0, 5.334373834422479)",2
2024/05/14/15:21:33.430456,60464,1715714493,430337885,gps,0,0,34.81515929231593,-82.32674232133002,284.65979230683297,"(0.8136190718833838, 0.0, 0.0, 0.0, 1.4943301276838525, 0.0, 0.0, 0.0, 5.334373834422479)",2
2024/05/14/15:21:33.461211,60465,1715714493,461129838,gps,0,0,34.81515929231593,-82.32674232133002,284.65979230683297,"(0.8136190718833838, 0.0, 0.0, 0.0, 1.4943301276838525, 0.0, 0.0, 0.0, 5.334373834422479)",2
2024/05/14/15:21:33.470084,60466,1715714493,469977080,gps,0,0,34.815159106915374,-82.32674215786392,284.65790518466383,"(0.8139387833603138, 0.0, 0.0, 0.0, 1.4951331790225595, 0.0, 0.0, 0.0, 5.336398244638133)",2
2024/05/14/15:21:33.490561,60467,1715714493,490378785,gps,0,0,34.815159106915374,-82.32674215786392,284.65790518466383,"(0.8139387833603138, 0.0, 0.0, 0.0, 1.4951331790225595, 0.0, 0.0, 0.0, 5.336398244638133)",2
2024/05/14/15:21:33.513526,60468,1715714493,513399878,gps,0,0,34.815159106915374,-82.32674215786392,284.65790518466383,"(0.8139387833603138, 0.0, 0.0, 0.0, 1.4951331790225595, 0.0, 0.0, 0.0, 5.336398244638133)",2
2024/05/14/15:21:33.530494,60469,1715714493,530405483,gps,0,0,34.815159106915374,-82.32674215786392,284.65790518466383,"(0.8139387833603138, 0.0, 0.0, 0.0, 1.4951331790225595, 0.0, 0.0, 0.0, 5.336398244638133)",2
2024/05/14/15:21:33.555640,60470,1715714493,555504310,gps,0,0,34.815159106915374,-82.32674215786392,284.65790518466383,"(0.8139387833603138, 0.0, 0.0, 0.0, 1.4951331790225595, 0.0, 0.0, 0.0, 5.336398244638133)",2
2024/05/14/15:21:33.572334,60471,1715714493,572202690,gps,0,0,34.81515881425705,-82.32674190081211,284.67286312766373,"(0.8143208418751016, 0.0, 0.0, 0.0, 1.495315681019349, 0.0, 0.0, 0.0, 5.3384483788179296)",2
2024/05/14/15:21:33.590029,60472,1715714493,589909285,gps,0,0,34.81515881425705,-82.32674190081211,284.67286312766373,"(0.8143208418751016, 0.0, 0.0, 0.0, 1.495315681019349, 0.0, 0.0, 0.0, 5.3384483788179296)",2
2024/05/14/15:21:33.617171,60473,1715714493,617022722,gps,0,0,34.81515881425705,-82.32674190081211,284.67286312766373,"(0.8143208418751016, 0.0, 0.0, 0.0, 1.495315681019349, 0.0, 0.0, 0.0, 5.3384483788179296)",2
2024/05/14/15:21:33.631527,60474,1715714493,631396342,gps,0,0,34.81515881425705,-82.32674190081211,284.67286312766373,"(0.8143208418751016, 0.0, 0.0, 0.0, 1.495315681019349, 0.0, 0.0, 0.0, 5.3384483788179296)",2
2024/05/14/15:21:33.660579,60475,1715714493,660472400,gps,0,0,34.81515881425705,-82.32674190081211,284.67286312766373,"(0.8143208418751016, 0.0, 0.0, 0.0, 1.495315681019349, 0.0, 0.0, 0.0, 5.3384483788179296)",2
2024/05/14/15:21:33.670617,60476,1715714493,670523753,gps,0,0,34.81515863362469,-82.3267417654894,284.6687483303249,"(0.813916305795491, 0.0, 0.0, 0.0, 1.4940640461011299, 0.0, 0.0, 0.0, 5.336055675980106)",2
