time,.header.seq,.header.stamp.secs,.header.stamp.nsecs,.header.frame_id,.pose.position.x,.pose.position.y,.pose.position.z,.pose.orientation.x,.pose.orientation.y,.pose.orientation.z,.pose.orientation.w
2024/05/14/15:21:28.073556,59190,1715714488,73319939,map,34.80484140062109,-4.050649243426148,-1.1313446760177612,0.0017626721306991276,0.016880474111431037,-0.1496056886571197,0.988600060945862
2024/05/14/15:21:28.093598,59191,1715714488,93367835,map,34.80461187482638,-4.050569139868973,-1.1313446760177612,0.0017626846380451753,0.016880472805399633,-0.14960642114619366,0.9885999500973894
2024/05/14/15:21:28.114308,59192,1715714488,113434922,map,34.804902643718854,-4.050670280463603,-1.1299349069595337,0.0017785541621197088,0.01687119572087917,-0.14960639425739897,0.9886000841074918
2024/05/14/15:21:28.134345,59193,1715714488,133639422,map,34.80516083813228,-4.050760024473048,-1.1299349069595337,0.001778548561724276,0.016871196311269498,-0.14960606609148056,0.988600133769297
2024/05/14/15:21:28.153347,59194,1715714488,153081928,map,34.8053918142531,-4.050840237088983,-1.1299349069595337,0.0017785431141960828,0.01687119688554285,-0.14960574688310666,0.9886001820754374
2024/05/14/15:21:28.173229,59195,1715714488,172991417,map,34.8055994814126,-4.05091229312253,-1.1299349069595337,0.0017785378227903837,0.016871197443356207,-0.14960543682302554,0.9886002289970561
2024/05/14/15:21:28.193569,59196,1715714488,193106335,map,34.80578742261441,-4.050977434759262,-1.1299349069595337,0.001778532663451504,0.01687119798724563,-0.14960513450164906,0.9886002747474754
2024/05/14/15:21:28.218538,59197,1715714488,213476080,map,34.80554174990889,-4.05089353555566,-1.1277283430099487,0.0017760817000207984,0.016842451016210767,-0.14960546744415568,0.9886007189398445
2024/05/14/15:21:28.233927,59198,1715714488,233774458,map,34.805323296165305,-4.050819162456961,-1.1277283430099487,0.0017760851206833632,0.01684245065549236,-0.1496056682266577,0.9886006885553018
2024/05/14/15:21:28.253797,59199,1715714488,253527760,map,34.80512765419994,-4.050752778266282,-1.1277283430099487,0.0017760884481760422,0.016842450304598303,-0.14960586354036862,0.9886006589983147
2024/05/14/15:21:28.273713,59200,1715714488,273432648,map,34.804951799731974,-4.050693309506388,-1.1277283430099487,0.0017760916786388383,0.0168424499639357,-0.14960605315871853,0.9886006303031737
2024/05/14/15:21:28.296405,59201,1715714488,293727125,map,34.80479248375105,-4.050639639221869,-1.1277283430099487,0.001776094829803163,0.016842449631634775,-0.1496062381224875,0.9886006023123793
2024/05/14/15:21:28.319287,59202,1715714488,313476125,map,34.80463078733422,-4.050583288676161,-1.1267404556274414,0.0015943318606226535,0.01691985065446699,-0.14960317007609156,0.9886000547556797
2024/05/14/15:21:28.335103,59203,1715714488,333615329,map,34.80448673526393,-4.050533117711297,-1.1267404556274414,0.0015943373313306278,0.016919850138969586,-0.14960348972088414,0.9886000063843222
2024/05/14/15:21:28.353080,59204,1715714488,352873315,map,34.804357527387815,-4.050488148684287,-1.1267404556274414,0.0015943426528548749,0.016919849637527847,-0.14960380064910242,0.9885999593319293
2024/05/14/15:21:28.373813,59205,1715714488,373525744,map,34.8042415585229,-4.0504477969056785,-1.1267404556274414,0.001594347813421332,0.016919849151251384,-0.1496041021728071,0.9885999137026146
2024/05/14/15:21:28.393890,59206,1715714488,393507492,map,34.80413624124654,-4.050411189524845,-1.1267404556274414,0.0015943528525200934,0.0169198486764192,-0.14960439659934208,0.9885998691472174
2024/05/14/15:21:28.414463,59207,1715714488,414064409,map,34.80452171071585,-4.05054478656345,-1.128626823425293,0.0018454708041929207,0.016828606527163566,-0.14960880644812846,0.9886003223108069
2024/05/14/15:21:28.434200,59208,1715714488,433949825,map,34.80486460213393,-4.050663487533484,-1.128626823425293,0.0018454677058405136,0.016828606866937032,-0.1496086244347101,0.9886003498556019
2024/05/14/15:21:28.454061,59209,1715714488,453758010,map,34.80517182547036,-4.050769698945974,-1.128626823425293,0.0018454646924271993,0.016828607197395307,-0.14960844741105678,0.9886003766452437
2024/05/14/15:21:28.473802,59210,1715714488,473561685,map,34.80544801014583,-4.050865066259915,-1.128626823425293,0.001845461768691905,0.016828607518018745,-0.14960827565555795,0.9886004026376053
2024/05/14/15:21:28.494663,59211,1715714488,494381902,map,34.805698371784324,-4.050951376413737,-1.128626823425293,0.001845458915607311,0.016828607830893974,-0.1496081080504495,0.9886004280018442
2024/05/14/15:21:28.513412,59212,1715714488,513158213,map,34.80533675598765,-4.050823687770098,-1.1318085193634033,0.0017277976731425253,0.0168923111213819,-0.1496060156762485,0.9885998708343317
2024/05/14/15:21:28.533386,59213,1715714488,533163762,map,34.80501542758358,-4.050710094761942,-1.1318085193634033,0.0017278006480612729,0.01689231081709777,-0.14960618977938073,0.9885998444870779
2024/05/14/15:21:28.553982,59214,1715714488,553724634,map,34.80472780393547,-4.050608305350736,-1.1318085193634033,0.0017278035415533633,0.016892310521141714,-0.14960635911712555,0.9885998188609468
2024/05/14/15:21:28.573290,59215,1715714488,573043542,map,34.804469326859504,-4.050516706576667,-1.1318085193634033,0.0017278063483262443,0.016892310234055106,-0.1496065233797436,0.9885997940028135
2024/05/14/15:21:28.593297,59216,1715714488,593053329,map,34.804235266432265,-4.050433670728867,-1.1318085193634033,0.0017278090879629558,0.01689230995383497,-0.14960668371330602,0.9885997697392438
2024/05/14/15:21:28.613668,59217,1715714488,613388463,map,34.80448041100254,-4.050517465144777,-1.1301926374435425,0.0018566950936049582,0.016873585160065614,-0.14960840443529852,0.9885995954528302
2024/05/14/15:21:28.633824,59218,1715714488,633572625,map,34.80469822363211,-4.0505917007208625,-1.1301926374435425,0.0018566871996164775,0.016873586028683517,-0.1496079419376242,0.9885996654441898
2024/05/14/15:21:28.653236,59219,1715714488,652988012,map,34.80489311101769,-4.05065791443834,-1.1301926374435425,0.0018566795348523,0.016873586872075064,-0.14960749286987063,0.9885997334029415
2024/05/14/15:21:28.673257,59220,1715714488,673024627,map,34.80506836065735,-4.050717261113648,-1.1301926374435425,0.0018566720800589419,0.01687358769235911,-0.14960705610400396,0.9885997994998121
2024/05/14/15:21:28.693228,59221,1715714488,692989818,map,34.805227079773026,-4.0507708136830995,-1.1301926374435425,0.0018566648096195932,0.01687358849235466,-0.149606630139172,0.9885998639619451
2024/05/14/15:21:28.713484,59222,1715714488,713214347,map,34.8054038959501,-4.050831649459009,-1.1286818981170654,0.0018469818815467069,0.016855592930557953,-0.14960679184167464,0.9886001646164796
2024/05/14/15:21:28.733372,59223,1715714488,733145396,map,34.80556112417404,-4.050885625241108,-1.1286818981170654,0.0018469854574900317,0.016855592538717153,-0.14960700157491622,0.9886001328771162
2024/05/14/15:21:28.753128,59224,1715714488,752884893,map,34.805701921785385,-4.05093384348402,-1.1286818981170654,0.0018469889358322172,0.01685559215757045,-0.1496072055837355,0.9886001020039976
2024/05/14/15:21:28.773270,59225,1715714488,773039651,map,34.80582813811719,-4.050976975430596,-1.1286818981170654,0.0018469923120361395,0.016855591787615067,-0.149607403602025,0.9886000720373985
2024/05/14/15:21:28.794391,59226,1715714488,794061824,map,34.805942603852806,-4.051015977880947,-1.1286818981170654,0.001846995605842468,0.016855591426687928,-0.14960759678759816,0.9886000428021071
2024/05/14/15:21:28.813622,59227,1715714488,813266087,map,34.80570684808334,-4.050933662637298,-1.1273419857025146,0.0015179631249742104,0.01686821780401894,-0.14960165671034795,0.9886012863260835
2024/05/14/15:21:28.833991,59228,1715714488,833766252,map,34.80549744050428,-4.050860565387497,-1.1273419857025146,0.001517954067848447,0.01686821861906305,-0.14960112589633837,0.988601366652209
2024/05/14/15:21:28.853590,59229,1715714488,853366955,map,34.80531005772766,-4.050795180716417,-1.1273419857025146,0.0015179452580944032,0.01686821941184166,-0.14960060958010937,0.9886014447841593
2024/05/14/15:21:28.874017,59230,1715714488,873717068,map,34.805141680658934,-4.050736441462975,-1.1273419857025146,0.001517936713330431,0.016868220180769715,-0.14960010879422717,0.9886015205657045
2024/05/14/15:21:28.893877,59231,1715714488,893555199,map,34.80498925405522,-4.050683294646595,-1.1273419857025146,0.0015179283714234256,0.016868220931438825,-0.14959961989723702,0.9886015945479096
2024/05/14/15:21:28.913359,59232,1715714488,913098018,map,34.80503579256315,-4.050698981443538,-1.1376756429672241,0.001756482315869357,0.016921276917197758,-0.14960271946785028,0.9885998237331368
2024/05/14/15:21:28.933915,59233,1715714488,933671446,map,34.805077093504096,-4.050712838991614,-1.1376756429672241,0.0017564748464130612,0.016921277692549395,-0.1496022830762416,0.988599889771257
2024/05/14/15:21:28.953904,59234,1715714488,953644344,map,34.805114036587284,-4.050725172619835,-1.1376756429672241,0.001756467580414138,0.01692127844677835,-0.14960185857131128,0.988599954010405
2024/05/14/15:21:28.973802,59235,1715714488,973488759,map,34.805147332971494,-4.050736228773366,-1.1376756429672241,0.0017564605357737587,0.016921279178026726,-0.1496014469989088,0.9886000162923315
2024/05/14/15:21:28.993279,59236,1715714488,993051133,map,34.805177431634924,-4.0507461674833225,-1.1376756429672241,0.0017564536552484575,0.016921279892236754,-0.1496010450146723,0.9886000771231426
2024/05/14/15:21:29.013335,59237,1715714489,13081631,map,34.80517395517822,-4.050746727979006,-1.1278058290481567,0.0016372134935597903,0.016867820257424594,-0.14959991708129838,0.9886013660626857
2024/05/14/15:21:29.033378,59238,1715714489,33103436,map,34.80517080901386,-4.050747401883743,-1.1278058290481567,0.0016372216210348812,0.01686781946855887,-0.14960039342220963,0.988601293980369
2024/05/14/15:21:29.053139,59239,1715714489,52938289,map,34.80516793486999,-4.050748169114091,-1.1278058290481567,0.001637229526058383,0.01686781870128086,-0.14960085672550608,0.9886012238707447
2024/05/14/15:21:29.074169,59240,1715714489,73942843,map,34.805165326660536,-4.050749026244537,-1.1278058290481567,0.0016372371942934612,0.016867817956982455,-0.14960130615092518,0.9886011558609855
2024/05/14/15:21:29.093241,59241,1715714489,92987532,map,34.80516290507938,-4.050749947471025,-1.1278058290481567,0.0016372446790085464,0.016867817230493576,-0.14960174482046235,0.9886010894786698
2024/05/14/15:21:29.113093,59242,1715714489,112911734,map,34.80521623653267,-4.0507711747297765,-1.1262766122817993,0.001653036854912474,0.01684392377869506,-0.14960246488587992,0.9886013616220457
2024/05/14/15:21:29.133161,59243,1715714489,132907775,map,34.80526352252559,-4.050790282850829,-1.1262766122817993,0.0016530422201974854,0.01684392325215335,-0.1496027797844803,0.9886013139692108
2024/05/14/15:21:29.153120,59244,1715714489,152918377,map,34.80530574488348,-4.050807614369338,-1.1262766122817993,0.0016530474393448842,0.016843922739951733,-0.14960308610598605,0.9886012676142281
2024/05/14/15:21:29.173137,59245,1715714489,172933994,map,34.80534359072235,-4.050823412649282,-1.1262766122817993,0.00165305249914345,0.01684392224338688,-0.14960338307500645,0.9886012226744445
2024/05/14/15:21:29.193125,59246,1715714489,192950543,map,34.80569751110315,-4.050946948952546,-1.1311707496643066,0.0017444997818062114,0.016927639683304276,-0.14960463135862787,0.9885994466978587
2024/05/14/15:21:29.213365,59247,1715714489,213037151,map,34.80601035473998,-4.051056116596649,-1.1311707496643066,0.001744504078812826,0.016927639240470152,-0.1496048823102322,0.9885994087213511
2024/05/14/15:21:29.233282,59248,1715714489,233058535,map,34.806289159513526,-4.051153363163792,-1.1311707496643066,0.001744508257072048,0.016927638809872653,-0.14960512632680842,0.9885993717942588
2024/05/14/15:21:29.253360,59249,1715714489,253078642,map,34.806539315515025,-4.051240569899226,-1.1311707496643066,0.0017445123224414548,0.016927638390908207,-0.14960536375044817,0.9885993358648182
2024/05/14/15:21:29.273579,59250,1715714489,273361670,map,34.806764003171665,-4.051318889983868,-1.1311707496643066,0.0017445162609196433,0.01692763798501984,-0.14960559376344879,0.9885993010567776
2024/05/14/15:21:29.293764,59251,1715714489,293471575,map,34.80696807027704,-4.0513899624175105,-1.1311707496643066,0.001744520111455517,0.016927637588193652,-0.14960581864048456,0.9885992670259137
2024/05/14/15:21:29.313174,59252,1715714489,312933552,map,34.80673494562283,-4.051308711361691,-1.1330560445785522,0.0017663404878682264,0.016775064482944343,-0.14960692724452493,0.9886016612232277
2024/05/14/15:21:29.333609,59253,1715714489,333308806,map,34.806527712776685,-4.051236513955596,-1.1330560445785522,0.0017663383709759692,0.01677506470584365,-0.14960680249011873,0.9886016801025358
2024/05/14/15:21:29.353311,59254,1715714489,352950442,map,34.80634212744881,-4.051171894174784,-1.1330560445785522,0.001766336312179042,0.016775064922625517,-0.14960668115943282,0.9886016984637108
2024/05/14/15:21:29.373905,59255,1715714489,373681651,map,34.80617506585875,-4.051113755846054,-1.1330560445785522,0.001766334314284731,0.016775065132994378,-0.1496065634179085,0.9886017162817174
2024/05/14/15:21:29.393331,59256,1715714489,393035520,map,34.80602379341537,-4.051061148122484,-1.1330560445785522,0.0017663323650551534,0.016775065338238835,-0.14960644854433303,0.9886017336656991
2024/05/14/15:21:29.413912,59257,1715714489,413494807,map,34.80559471047783,-4.050910839617918,-1.135520100593567,0.0017797346225628908,0.01674072978106662,-0.1496060200917569,0.9886023564929305
2024/05/14/15:21:29.433693,59258,1715714489,433452217,map,34.80521320271591,-4.050777186549468,-1.135520100593567,0.0017797207798240363,0.016740731252705254,-0.14960520262652774,0.9886024802002805
2024/05/14/15:21:29.453380,59259,1715714489,453018904,map,34.80487156822567,-4.050657503274481,-1.135520100593567,0.0017797073150010263,0.016740732684156084,-0.14960440747860604,0.9886026005296799
2024/05/14/15:21:29.473188,59260,1715714489,472957925,map,34.80456496684686,-4.0505500528185605,-1.135520100593567,0.0017796942570337125,0.016740734072343454,-0.14960363635700016,0.9886027172225621
2024/05/14/15:21:29.493227,59261,1715714489,493001740,map,34.80428703839178,-4.050452672107163,-1.135520100593567,0.0017796815072635794,0.01674073542775657,-0.1496028834355596,0.9886028311606421
2024/05/14/15:21:29.513239,59262,1715714489,513003315,map,34.8043037513914,-4.050454597560828,-1.1309924125671387,0.0017711363516864677,0.016878072949644184,-0.1496024857791247,0.988600571504102
2024/05/14/15:21:29.534070,59263,1715714489,533765751,map,34.804318517815354,-4.050455856966428,-1.1309924125671387,0.001771145159993413,0.0168780720253235,-0.14960300170870983,0.9886004934296128
2024/05/14/15:21:29.553330,59264,1715714489,553103009,map,34.80433174164123,-4.050456586696372,-1.1309924125671387,0.0017711537266541968,0.016878071126356083,-0.14960350348432527,0.9886004174967487
2024/05/14/15:21:29.573287,59265,1715714489,573036011,map,34.80434409103056,-4.050457003001016,-1.1309924125671387,0.001771162037670797,0.016878070254211227,-0.14960399028606497,0.988600343829607
2024/05/14/15:21:29.593315,59266,1715714489,593062604,map,34.804355147652466,-4.0504569830807435,-1.1309924125671387,0.0017711701481006978,0.016878069403111626,-0.14960446533881558,0.9886002719401898
2024/05/14/15:21:29.613169,59267,1715714489,612947914,map,34.80459329679072,-4.050540386992858,-1.1321638822555542,0.0018623642729570916,0.016852163604016392,-0.14960586311805404,0.9886003347672305
2024/05/14/15:21:29.633735,59268,1715714489,633440241,map,34.804804787783276,-4.050614463422636,-1.1321638822555542,0.0018623605064448387,0.01685216402026031,-0.1496056421627287,0.9886003682045924
2024/05/14/15:21:29.653132,59269,1715714489,652915186,map,34.80499396691918,-4.05068072664096,-1.1321638822555542,0.0018623568437177618,0.016852164425033934,-0.14960542729576276,0.9886004007205492
2024/05/14/15:21:29.673352,59270,1715714489,673039113,map,34.80516397101896,-4.050740281940747,-1.1321638822555542,0.0018623532828801696,0.016852164818546816,-0.14960521840594912,0.9886004323319337
2024/05/14/15:21:29.693074,59271,1715714489,692883801,map,34.80531789799749,-4.050794197125235,-1.1321638822555542,0.0018623498120066344,0.016852165202116923,-0.14960501479370533,0.988600463144618
2024/05/14/15:21:29.713266,59272,1715714489,713012091,map,34.80494617789587,-4.050663513153427,-1.1294102668762207,0.0017772716970534167,0.016889408794592217,-0.14960351073006706,0.9886002117909557
2024/05/14/15:21:29.735080,59273,1715714489,733642046,map,34.80461596824479,-4.050547361727748,-1.1294102668762207,0.0017772731547132528,0.016889408641202672,-0.14960359605234433,0.988600198879249
2024/05/14/15:21:29.753299,59274,1715714489,753012298,map,34.80432051384104,-4.05044338683062,-1.1294102668762207,0.0017772745726564473,0.016889408491992393,-0.14960367904985783,0.9886001863193385
2024/05/14/15:21:29.773880,59275,1715714489,773567972,map,34.8040552237035,-4.0503499572332275,-1.1294102668762207,0.0017772759491959287,0.016889408347138916,-0.14960375962385694,0.9886001741261686
2024/05/14/15:21:29.793169,59276,1715714489,792926603,map,34.803815050399855,-4.050265340324211,-1.1294102668762207,0.0017772772920027979,0.016889408205835014,-0.14960383822335996,0.9886001622317906
2024/05/14/15:21:29.813293,59277,1715714489,813055975,map,34.80407780880168,-4.050356494256459,-1.1305439472198486,0.0018474678997452015,0.016889400437789387,-0.14960456704530128,0.988599923393887
2024/05/14/15:21:29.838494,59278,1715714489,833243128,map,34.80431133979133,-4.050437423808635,-1.1305439472198486,0.001847461104215629,0.01688940118112539,-0.14960416927747663,0.9885999835879058
2024/05/14/15:21:29.853209,59279,1715714489,852994861,map,34.80452042352435,-4.050509793283896,-1.1305439472198486,0.0018474544941030641,0.016889401904176704,-0.1496037823627982,0.9886000421393657
2024/05/14/15:21:29.873022,59280,1715714489,872833418,map,34.80470841270815,-4.050574787151828,-1.1305439472198486,0.0018474480828842284,0.016889402605469405,-0.14960340709010958,0.9886000989289057
2024/05/14/15:21:29.893397,59281,1715714489,892968713,map,34.804878664957776,-4.050633563398948,-1.1305439472198486,0.0018474418235373854,0.016889403290147174,-0.14960304070705266,0.9886001543730485
2024/05/14/15:21:29.913172,59282,1715714489,912947911,map,34.804579990765625,-4.050530880160639,-1.1331124305725098,0.0016469095485770174,0.01690372209244844,-0.14959987999832583,0.9886007423489256
2024/05/14/15:21:29.934895,59283,1715714489,933162417,map,34.80431452248707,-4.050439814519116,-1.1331124305725098,0.0016469124287471259,0.01690372181183664,-0.1496000484427831,0.988600716859075
2024/05/14/15:21:29.953367,59284,1715714489,953029502,map,34.80407683532271,-4.050358476913267,-1.1331124305725098,0.0016469152298818734,0.016903721538924697,-0.14960021226491876,0.988600692068669
2024/05/14/15:21:29.973845,59285,1715714489,973603505,map,34.803863308673726,-4.050285579889841,-1.1331124305725098,0.001646917948006527,0.016903721274099903,-0.14960037123227368,0.9886006680128868
2024/05/14/15:21:29.994178,59286,1715714489,993947244,map,34.80366984495587,-4.05021971992064,-1.1331124305725098,0.0016469206000498896,0.01690372101571293,-0.14960052633491566,0.9886006445419082
2024/05/14/15:21:30.013246,59287,1715714490,13019380,map,34.80401814475455,-4.050339827410058,-1.132559061050415,0.0017970295741699034,0.016855270001546567,-0.14960269430970724,0.9886008822640007
2024/05/14/15:21:30.033982,59288,1715714490,33677172,map,34.804327584758745,-4.050446340175283,-1.132559061050415,0.0017970205378937015,0.01685527096494937,-0.14960216431103437,0.9886009624673336
2024/05/14/15:21:30.053842,59289,1715714490,53575818,map,34.804604537345156,-4.0505414773606425,-1.132559061050415,0.0017970117485089458,0.016855271902025126,-0.14960164879310836,0.9886010404790537
2024/05/14/15:21:30.073849,59290,1715714490,73583811,map,34.804853321045556,-4.050626771186242,-1.132559061050415,0.001797003223859481,0.016855272810871843,-0.14960114880251343,0.9886011161408087
2024/05/14/15:21:30.094219,59291,1715714490,93849190,map,34.80507863479514,-4.050703834413984,-1.132559061050415,0.0017969949013887418,0.016855273698159274,-0.1496006606701619,0.9886011900078492
2024/05/14/15:21:30.113104,59292,1715714490,112916018,map,34.80473628260138,-4.050585180011955,-1.1294773817062378,0.001760022446461053,0.0169098900531139,-0.14959913323028887,0.9886005549645043
2024/05/14/15:21:30.133795,59293,1715714490,133570081,map,34.804432217055385,-4.050479920075198,-1.1294773817062378,0.001760012263824641,0.01690989111294434,-0.14959853792422126,0.9886006450485023
2024/05/14/15:21:30.153748,59294,1715714490,153514207,map,34.804160148750405,-4.0503858644400825,-1.1294773817062378,0.0017600023587506872,0.016909892143879543,-0.14959795884523308,0.9886007326766046
2024/05/14/15:21:30.173566,59295,1715714490,173392314,map,34.80391578030619,-4.050301490052325,-1.1294773817062378,0.0017599927547298166,0.01690989314347508,-0.14959739736665503,0.9886008176410247
2024/05/14/15:21:30.193953,59296,1715714490,193626382,map,34.80369452972746,-4.050225222571085,-1.1294773817062378,0.0017599833753220878,0.016909894119687355,-0.1495968490195902,0.9886009006180349
2024/05/14/15:21:30.213554,59297,1715714490,213327768,map,34.80396669867495,-4.05032064115358,-1.1301435232162476,0.0017379050536290674,0.016913314487535216,-0.1495968140639069,0.9886008864557017
2024/05/14/15:21:30.233330,59298,1715714490,233133594,map,34.804208349398515,-4.050405382491599,-1.1301435232162476,0.001737910759286891,0.016913313901256992,-0.14959714756555972,0.9886008359895913
2024/05/14/15:21:30.253212,59299,1715714490,252914058,map,34.804424502469196,-4.05048119475589,-1.1301435232162476,0.0017379163084455195,0.01691331333105779,-0.14959747191966602,0.9886007869075945
2024/05/14/15:21:30.273556,59300,1715714490,273020927,map,34.8046186456618,-4.05054931144364,-1.1301435232162476,0.0017379216925365569,0.016913312777818216,-0.14959778662539466,0.9886007392855082
2024/05/14/15:21:30.293092,59301,1715714490,292866506,map,34.80479435050686,-4.050610962494976,-1.1301435232162476,0.0017379269463326146,0.01691331223796537,-0.14959809371524133,0.9886006928157781
2024/05/14/15:21:30.313272,59302,1715714490,313038808,map,34.80457881012342,-4.05053456407969,-1.1294904947280884,0.0017642233534473245,0.016932614362335903,-0.14959852836605234,0.9886002500492942
2024/05/14/15:21:30.334199,59303,1715714490,333877644,map,34.804387468927025,-4.050466633563686,-1.1294904947280884,0.001764225356088494,0.016932614153678912,-0.14959864528902198,0.9886002323560847
2024/05/14/15:21:30.353312,59304,1715714490,353049068,map,34.804216349626564,-4.050405785764339,-1.1294904947280884,0.001764227304307015,0.016932613950692035,-0.14959875903455827,0.9886002151436827
2024/05/14/15:21:30.373703,59305,1715714490,373463567,map,34.80406269507277,-4.050351045101897,-1.1294904947280884,0.0017642291925369872,0.016932613753955213,-0.14959886927769955,0.9886001984612633
2024/05/14/15:21:30.393950,59306,1715714490,393600103,map,34.80392365665086,-4.050301431049409,-1.1294904947280884,0.0017642310374810705,0.01693261356172819,-0.14959897699362035,0.9886001821612607
2024/05/14/15:21:30.413569,59307,1715714490,413346831,map,34.80430887374588,-4.050437369895917,-1.13149094581604,0.0017581255920775482,0.01689257820562815,-0.14959934276238296,0.9886008225977925
2024/05/14/15:21:30.433804,59308,1715714490,433562574,map,34.80465092869214,-4.050558202066271,-1.13149094581604,0.0017581294452858184,0.016892577804598092,-0.1495995682628838,0.9886007884740573
2024/05/14/15:21:30.453557,59309,1715714490,453342876,map,34.80495688945508,-4.05066639055118,-1.13149094581604,0.0017581331932981338,0.016892577414515657,-0.1495997876070214,0.9886007552818796
2024/05/14/15:21:30.473372,59310,1715714490,473095914,map,34.80523146592167,-4.050763611124085,-1.13149094581604,0.0017581368275473666,0.016892577036272553,-0.1496000002934238,0.9886007230971342
2024/05/14/15:21:30.493084,59311,1715714490,492887401,map,34.80548003620884,-4.0508517050807535,-1.13149094581604,0.0017581403764126407,0.016892576666915227,-0.14960020798291673,0.9886006916685003
2024/05/14/15:21:30.513223,59312,1715714490,512970448,map,34.80509761996438,-4.050718119859744,-1.1308541297912598,0.0016639572755553288,0.016881174836976365,-0.14959874481046942,0.9886012708536444
2024/05/14/15:21:30.533713,59313,1715714490,533468835,map,34.80475809877103,-4.050599542013681,-1.1308541297912598,0.0016639572011155988,0.0168811748443138,-0.1495987404511039,0.9886012715133194
2024/05/14/15:21:30.553325,59314,1715714490,553059012,map,34.80445441362121,-4.05049351339063,-1.1308541297912598,0.0016639571289244301,0.016881174851429596,-0.1495987362234194,0.9886012721530679
2024/05/14/15:21:30.573777,59315,1715714490,573542816,map,34.80418169811908,-4.050398311227842,-1.1308541297912598,0.0016639570579704117,0.01688117485842345,-0.14959873206818536,0.9886012727818532
2024/05/14/15:21:30.593317,59316,1715714490,593054391,map,34.80393487398441,-4.050312188602776,-1.1308541297912598,0.0016639569897770284,0.016881174865145187,-0.14959872807462055,0.9886012733861738
2024/05/14/15:21:30.613387,59317,1715714490,613107753,map,34.80417800792815,-4.05039573338675,-1.1313360929489136,0.001773909880036257,0.01687521281155938,-0.1496004280170919,0.9886009267512371
2024/05/14/15:21:30.638431,59318,1715714490,633111382,map,34.80439388316976,-4.050469744520803,-1.1313360929489136,0.0017739079737100413,0.016875213011950867,-0.14960031633874513,0.9886009436510008
2024/05/14/15:21:30.653215,59319,1715714490,652982991,map,34.80458699993943,-4.050535788404429,-1.1313360929489136,0.0017739061195035772,0.016875213206863367,-0.1496002077137302,0.9886009600887058
2024/05/14/15:21:30.673090,59320,1715714490,672845946,map,34.804760500825466,-4.05059497522419,-1.1313360929489136,0.0017739043212655597,0.016875213395892312,-0.14960010236751542,0.9886009760302338
2024/05/14/15:21:30.693449,59321,1715714490,693167644,map,34.804917538588505,-4.050648391875733,-1.1313360929489136,0.0017739025656408314,0.016875213580441608,-0.14959999951771535,0.9886009915939805
2024/05/14/15:21:30.713588,59322,1715714490,713352209,map,34.8048819155435,-4.050638167278257,-1.127518892288208,0.001797520854673545,0.016935890590361647,-0.14960119786342224,0.9885997299850519
2024/05/14/15:21:30.733808,59323,1715714490,733582809,map,34.80485027621898,-4.050629330750644,-1.127518892288208,0.0017975402778150293,0.016935888528840738,-0.14960233165156445,0.9885995584123553
2024/05/14/15:21:30.753776,59324,1715714490,753498819,map,34.804821937750695,-4.050621645882326,-1.127518892288208,0.001797559169673094,0.01693588652368723,-0.14960343442701304,0.9885993915314386
2024/05/14/15:21:30.773747,59325,1715714490,773439940,map,34.80479633608914,-4.050614918157328,-1.127518892288208,0.0017975774910722348,0.016935884579061027,-0.14960450390297905,0.9885992296884678
2024/05/14/15:21:30.793790,59326,1715714490,793526827,map,34.80477316480654,-4.050609036886491,-1.127518892288208,0.0017975953780702512,0.016935882680522648,-0.14960554802157564,0.9885990716816663
2024/05/14/15:21:30.813200,59327,1715714490,812966662,map,34.80496094894287,-4.050671849412653,-1.1331979036331177,0.0017002810177793545,0.01690617263531791,-0.1496042239074632,0.9885999527414164
2024/05/14/15:21:30.833424,59328,1715714490,833022976,map,34.805127829194355,-4.050727348342854,-1.1331979036331177,0.0017002823896018144,0.016906172497351456,-0.14960430412571513,0.9885999406020343
2024/05/14/15:21:30.853361,59329,1715714490,853080681,map,34.805277226675386,-4.050776725988133,-1.1331979036331177,0.0017002837250214933,0.016906172363045986,-0.1496043822152894,0.9885999287847773
2024/05/14/15:21:30.873349,59330,1715714490,873018012,map,34.8054112885366,-4.050820752292281,-1.1331979036331177,0.0017002850156282554,0.016906172233247325,-0.14960445768439756,0.9885999173640682
2024/05/14/15:21:30.893790,59331,1715714490,893528396,map,34.80553280320476,-4.050860375886085,-1.1331979036331177,0.0017002862809470192,0.01690617210599183,-0.14960453167477256,0.9885999061671294
2024/05/14/15:21:30.913225,59332,1715714490,912956064,map,34.80555583656219,-4.050869875202343,-1.1327449083328247,0.001649215658644921,0.01684659979528601,-0.14960461029834368,0.9886009977440491
2024/05/14/15:21:30.934101,59333,1715714490,933802519,map,34.80557634189883,-4.050878483171389,-1.1327449083328247,0.0016492248442410706,0.01684659889604986,-0.14960514933230284,0.9886009161720962
2024/05/14/15:21:30.953809,59334,1715714490,953552498,map,34.80559469411341,-4.050886332434819,-1.1327449083328247,0.001649233778740134,0.016846598021390338,-0.14960567363123634,0.9886008368297049
2024/05/14/15:21:30.973283,59335,1715714490,973054783,map,34.80561094728139,-4.05089345263326,-1.1327449083328247,0.0016492424426150076,0.016846597173219513,-0.1496061820492458,0.9886007598903093
2024/05/14/15:21:30.993703,59336,1715714490,993463697,map,34.80562573613881,-4.050900051152788,-1.1327449083328247,0.001649250901976825,0.01684659634506564,-0.1496066784659003,0.9886006847668322
2024/05/14/15:21:31.013168,59337,1715714491,12927489,map,34.80562379005425,-4.050900307688229,-1.1330004930496216,0.0017149531259450016,0.01685146350011497,-0.1496081355583499,0.9886002695166709
2024/05/14/15:21:31.033152,59338,1715714491,32938901,map,34.805622070683974,-4.050900640470975,-1.1330004930496216,0.001714960154473059,0.01685146278482866,-0.14960854789076602,0.9886002071169601
2024/05/14/15:21:31.053775,59339,1715714491,53499983,map,34.80562052425298,-4.050901031610841,-1.1330004930496216,0.001714966991293301,0.016851462089049425,-0.14960894897653085,0.9886001464190757
2024/05/14/15:21:31.073235,59340,1715714491,73023804,map,34.80561904379146,-4.050901446933821,-1.1330004930496216,0.0017149736193241955,0.016851461414515885,-0.14960933781354774,0.9886000875746834
2024/05/14/15:21:31.093376,59341,1715714491,93067258,map,34.80561772059497,-4.050901914019713,-1.1330004930496216,0.0017149800929130723,0.01685146075569734,-0.1496097175901328,0.9886000301012947
2024/05/14/15:21:31.113559,59342,1715714491,113332662,map,34.80563645716817,-4.050908387629905,-1.1340497732162476,0.0016677768320427161,0.01689227306799719,-0.14960795013983766,0.988599681815643
2024/05/14/15:21:31.134139,59343,1715714491,133645898,map,34.80565311117483,-4.050914131856483,-1.1340497732162476,0.001667764137934765,0.01689227432128369,-0.14960720723263515,0.9885997942418794
2024/05/14/15:21:31.153875,59344,1715714491,153622239,map,34.80566801932091,-4.050919264260511,-1.1340497732162476,0.0016677517915309466,0.016892275540232198,-0.1496064846743652,0.9885999035881067
2024/05/14/15:21:31.173958,59345,1715714491,173711160,map,34.80568137413622,-4.050923854950104,-1.1340497732162476,0.0016677398165446504,0.01689227672250231,-0.14960578385282752,0.9886000096443536
2024/05/14/15:21:31.194018,59346,1715714491,193734100,map,34.80569348442591,-4.05092800809465,-1.1340497732162476,0.0016677281273520797,0.01689227787654822,-0.14960509975699557,0.9886001131689872
2024/05/14/15:21:31.213263,59347,1715714491,213032594,map,34.80548577189939,-4.050854957187293,-1.1341341733932495,0.0016958117180187688,0.016881829707096216,-0.14960606981273106,0.9886000970683474
2024/05/14/15:21:31.233861,59348,1715714491,233617173,map,34.805301311324264,-4.050790045490621,-1.1341341733932495,0.001695819249944728,0.016881828950498317,-0.14960651088237686,0.9886000303206341
2024/05/14/15:21:31.253105,59349,1715714491,252878743,map,34.80513630157373,-4.0507319479700445,-1.1341341733932495,0.0016958265751044657,0.01688182821466726,-0.14960693984378148,0.9885999654050858
2024/05/14/15:21:31.273232,59350,1715714491,272950890,map,34.8049882656639,-4.050679780473452,-1.1341341733932495,0.0016958336816591834,0.016881827500792573,-0.14960735600366554,0.9885999024266339
2024/05/14/15:21:31.293072,59351,1715714491,292901352,map,34.80485421915511,-4.050632523926694,-1.1341341733932495,0.001695840616493867,0.016881826804164765,-0.1496077621076149,0.9885998409697975
2024/05/14/15:21:31.313268,59352,1715714491,313012384,map,34.80509511229862,-4.050719508841185,-1.1301020383834839,0.001788068019581875,0.016870115658624313,-0.1496086207489761,0.988599748436146
2024/05/14/15:21:31.334228,59353,1715714491,333485057,map,34.8053088926952,-4.050797003805378,-1.1301020383834839,0.001788056366004967,0.016870116893785942,-0.14960793784178011,0.98859985178289
2024/05/14/15:21:31.353253,59354,1715714491,353022710,map,34.80550001341869,-4.0508665600697125,-1.1301020383834839,0.0017880450317606222,0.01687011809509373,-0.14960727364765983,0.9885999522972556
2024/05/14/15:21:31.373055,59355,1715714491,372842400,map,34.80567157917663,-4.050929275722356,-1.1301020383834839,0.0017880340386972732,0.01687011926023265,-0.1496066294469493,0.9886000497855264
2024/05/14/15:21:31.393259,59356,1715714491,392960090,map,34.805826767112514,-4.0509862450715515,-1.1301020383834839,0.0017880233080511624,0.016870120397551362,-0.14960600062404245,0.9886001449462269
2024/05/14/15:21:31.413304,59357,1715714491,413020233,map,34.806168448480626,-4.051103982636921,-1.1292883157730103,0.0017074637180891235,0.016855078458957038,-0.14960515471603278,0.9886006719500982
2024/05/14/15:21:31.433498,59358,1715714491,433174986,map,34.80647204895261,-4.051208388741736,-1.1292883157730103,0.0017074698487704442,0.01685507783790179,-0.14960551429879196,0.9886006175342942
2024/05/14/15:21:31.453425,59359,1715714491,453072871,map,34.806743767552355,-4.05130162565088,-1.1292883157730103,0.0017074758110114743,0.01685507723390786,-0.149605864002019,0.9886005646134354
2024/05/14/15:21:31.473259,59360,1715714491,473029996,map,34.80698740157361,-4.051385060978466,-1.1292883157730103,0.0017074815955509196,0.016855076647913622,-0.14960620328251195,0.988600513269736
2024/05/14/15:21:31.493286,59361,1715714491,493011084,map,34.8072082024614,-4.051460476607011,-1.1292883157730103,0.0017074872399043817,0.01685507607611879,-0.1496065343406732,0.9886004631702167
2024/05/14/15:21:31.513269,59362,1715714491,513024245,map,34.807070374880304,-4.051413248380295,-1.1330257654190063,0.0017338437042316557,0.016977731553681336,-0.14960627475231278,0.9885983577631697
2024/05/14/15:21:31.535423,59363,1715714491,533004365,map,34.80694811213905,-4.051371458364927,-1.1330257654190063,0.0017338442248943766,0.016977731500508866,-0.1496063050700445,0.9885983531751352
2024/05/14/15:21:31.553322,59364,1715714491,553088823,map,34.80683880245872,-4.0513341995470205,-1.1330257654190063,0.0017338447316610469,0.016977731448755504,-0.14960633457862138,0.9885983487095505
2024/05/14/15:21:31.573609,59365,1715714491,573390697,map,34.80674037027701,-4.051300751006621,-1.1330257654190063,0.001733845221883616,0.016977731398691694,-0.14960636312384978,0.9885983443897502
2024/05/14/15:21:31.593746,59366,1715714491,593486752,map,34.8066514159496,-4.051270616668475,-1.1330257654190063,0.0017338457020130787,0.016977731349658624,-0.14960639108136548,0.9885983401588888
2024/05/14/15:21:31.613721,59367,1715714491,613514989,map,34.80656861603864,-4.051241399103047,-1.1326075792312622,0.0016923703989921608,0.016914346499772068,-0.14960802612852037,0.988599251103725
2024/05/14/15:21:31.633868,59368,1715714491,633408757,map,34.80649508199726,-4.051215425457168,-1.1326075792312622,0.0016924026039565226,0.016914343277462995,-0.14960990842424465,0.9885989662477942
2024/05/14/15:21:31.654053,59369,1715714491,653733802,map,34.806429301575655,-4.051192168442894,-1.1326075792312622,0.0016924339276879752,0.016914340143267405,-0.14961173921403972,0.9885986891829609
2024/05/14/15:21:31.673618,59370,1715714491,673355253,map,34.80637030151827,-4.051171279992286,-1.1326075792312622,0.0016924643041855499,0.01691433710379435,-0.1496135146403376,0.9885984204933183
2024/05/14/15:21:31.693320,59371,1715714491,693066381,map,34.806316872581334,-4.051152347791009,-1.1326075792312622,0.0016924939609890114,0.01691433413628075,-0.14961524800225184,0.9885981581664731
2024/05/14/15:21:31.713341,59372,1715714491,713061565,map,34.806319989456796,-4.051148860296193,-1.1299268007278442,0.0017078452610732803,0.016915083719871802,-0.14961429478776375,0.9885982632002113
2024/05/14/15:21:31.733482,59373,1715714491,733172525,map,34.806322866180146,-4.051145296428907,-1.1299268007278442,0.0017078253447488003,0.016915085730727947,-0.1496131307826249,0.9885984393598521
2024/05/14/15:21:31.753260,59374,1715714491,753016268,map,34.80632556815886,-4.051141677639129,-1.1299268007278442,0.0017078059748904828,0.01691508768638729,-0.14961199871551267,0.9885986106846718
2024/05/14/15:21:31.773252,59375,1715714491,773031779,map,34.806328147802574,-4.051138021023894,-1.1299268007278442,0.0017077871827362175,0.01691508958369788,-0.14961090041212446,0.9885987768984885
2024/05/14/15:21:31.793273,59376,1715714491,792993640,map,34.80633058625272,-4.051134321276924,-1.1299268007278442,0.0017077688444512573,0.016915091435164165,-0.14960982863497024,0.988598939096704
2024/05/14/15:21:31.813656,59377,1715714491,813437255,map,34.806104616566465,-4.0510555913996305,-1.1278177499771118,0.0016738094758486392,0.016908930285557185,-0.14960940302803957,0.9885991669853006
2024/05/14/15:21:31.833774,59378,1715714491,833670736,map,34.80590390670999,-4.050985703429702,-1.1278177499771118,0.0016738109506722932,0.016908930139564807,-0.14960948925522294,0.988599153936128
2024/05/14/15:21:31.853559,59379,1715714491,853265574,map,34.80572432973902,-4.050923218602937,-1.1278177499771118,0.0016738123841600252,0.01690892999766414,-0.14960957306565592,0.9885991412526862
2024/05/14/15:21:31.873645,59380,1715714491,873444582,map,34.80556323658399,-4.050867189540768,-1.1278177499771118,0.0016738137785201148,0.01690892985963659,-0.149609654588448,0.9885991289154377
2024/05/14/15:21:31.893863,59381,1715714491,893374409,map,34.805417297974465,-4.050816482181938,-1.1278177499771118,0.0016738151351384772,0.016908929725344978,-0.14960973390462826,0.9885991169121198
2024/05/14/15:21:31.913253,59382,1715714491,913020761,map,34.805612657026415,-4.050884771709421,-1.1256457567214966,0.001791621445060455,0.016933555140587035,-0.14961110339036277,0.9885982816823102
2024/05/14/15:21:31.933427,59383,1715714491,933138396,map,34.8057860903108,-4.050945389588024,-1.1256457567214966,0.0017916148064038278,0.016933555842975706,-0.14961071581879032,0.9885983403359968
2024/05/14/15:21:31.953210,59384,1715714491,952975684,map,34.805941206298016,-4.050999592504778,-1.1256457567214966,0.0017916083490070436,0.016933556526184047,-0.1496103388293465,0.988598397388073
2024/05/14/15:21:31.973323,59385,1715714491,973080685,map,34.80608064352283,-4.051048308222387,-1.1256457567214966,0.0017916020797730716,0.01693355718948192,-0.1496099728250343,0.9885984527775626
2024/05/14/15:21:31.993068,59386,1715714491,992922513,map,34.80620680937549,-4.051092371623346,-1.1256457567214966,0.0017915959648328722,0.016933557836452937,-0.1496096158285449,0.9885985068037142
2024/05/14/15:21:32.013206,59387,1715714492,12996576,map,34.80619267117572,-4.051085909144689,-1.1356359720230103,0.0018142233290681748,0.016916314591463196,-0.14960939459287642,0.9885987942253964
2024/05/14/15:21:32.033170,59388,1715714492,32933563,map,34.80618019240411,-4.0510800275934535,-1.1356359720230103,0.0018142118734270612,0.01691631582004197,-0.14960872511885473,0.9885988955398776
2024/05/14/15:21:32.053194,59389,1715714492,52950477,map,34.80616909445299,-4.051074630271535,-1.1356359720230103,0.0018142007297430114,0.01691631701515687,-0.14960807387575775,0.9885989940949468
2024/05/14/15:21:32.073806,59390,1715714492,73553554,map,34.80615905113899,-4.051069607702141,-1.1356359720230103,0.001814189917525377,0.016916318174716245,-0.1496074420037245,0.9885990897181005
2024/05/14/15:21:32.093220,59391,1715714492,92965658,map,34.80615005518097,-4.051064950930131,-1.1356359720230103,0.001814179365775552,0.016916319306334936,-0.14960682535355824,0.9885991830372837
2024/05/14/15:21:32.113102,59392,1715714492,112898157,map,34.806136195189275,-4.051061838414025,-1.1266249418258667,0.0018254431429303231,0.01687599623602052,-0.14960754703420862,0.9885997422510188
2024/05/14/15:21:32.135354,59393,1715714492,133549724,map,34.80612381621236,-4.051059241453966,-1.1266249418258667,0.0018254482317314972,0.016875995685574182,-0.14960784513735026,0.9885996971381957
2024/05/14/15:21:32.153222,59394,1715714492,152986220,map,34.80611267543531,-4.051057075662195,-1.1266249418258667,0.0018254531790982793,0.01687599515042506,-0.14960813495522904,0.9885996532791177
2024/05/14/15:21:32.173235,59395,1715714492,173016787,map,34.80610259476423,-4.051055278675486,-1.1266249418258667,0.0018254579898184162,0.016875994630055388,-0.14960841676831246,0.9885996106313478
2024/05/14/15:21:32.193228,59396,1715714492,192961784,map,34.80609341226683,-4.051053794520355,-1.1266249418258667,0.0018254626788434844,0.016875994122847984,-0.14960869145246775,0.9885995690623448
2024/05/14/15:21:32.213083,59397,1715714492,212883719,map,34.80569611474205,-4.050913733877267,-1.1285346746444702,0.0016341476079112288,0.016850284743985464,-0.14960503274052472,0.98860089603659
2024/05/14/15:21:32.233583,59398,1715714492,233118874,map,34.805342500509866,-4.050788969557178,-1.1285346746444702,0.001634135780446207,0.01685028589101374,-0.14960433882686575,0.9886010010463364
2024/05/14/15:21:32.253152,59399,1715714492,252948158,map,34.80502557949031,-4.05067706249976,-1.1285346746444702,0.0016341242750234717,0.016850287006802293,-0.1496036638073012,0.9886011031963671
2024/05/14/15:21:32.273734,59400,1715714492,273481247,map,34.8047408319199,-4.050576394954931,-1.1285346746444702,0.0016341131096355955,0.016850288089606903,-0.1496030087374519,0.9886012023269767
2024/05/14/15:21:32.293130,59401,1715714492,292890095,map,34.80448261691635,-4.050485042739954,-1.1285346746444702,0.001634102214319909,0.01685028914621307,-0.14960236951263153,0.9886012990593569
2024/05/14/15:21:32.313157,59402,1715714492,312918652,map,34.80458240779091,-4.050522504383669,-1.131232500076294,0.0015938667722919936,0.016856267114109383,-0.14960215514369626,0.9886012952773486
2024/05/14/15:21:32.333790,59403,1715714492,333564144,map,34.804671005372704,-4.050556053048029,-1.131232500076294,0.0015938745754481912,0.01685626637626974,-0.14960261279011175,0.988601226022941
2024/05/14/15:21:32.353123,59404,1715714492,352947695,map,34.80475026001865,-4.050586331035391,-1.131232500076294,0.0015938821649890687,0.016856265658625334,-0.14960305790821518,0.9886011586642014
2024/05/14/15:21:32.373808,59405,1715714492,373553904,map,34.804821786257556,-4.0506138939276894,-1.131232500076294,0.0015938895279744847,0.01685626496240004,-0.14960348973908275,0.9886010933159938
2024/05/14/15:21:32.393974,59406,1715714492,393745007,map,34.80488638393073,-4.050639034018447,-1.131232500076294,0.0015938967139956213,0.016856264282904914,-0.14960391119118274,0.988601029538201
2024/05/14/15:21:32.413378,59407,1715714492,413055920,map,34.80515427470001,-4.050731164352443,-1.131402850151062,0.001788758822044903,0.016897026819336716,-0.14960720412481118,0.988599501972614
2024/05/14/15:21:32.433886,59408,1715714492,433684698,map,34.80539260945793,-4.050812952614202,-1.131402850151062,0.0017887651118671118,0.016897026153480224,-0.14960757212535455,0.9885994462821128
2024/05/14/15:21:32.454176,59409,1715714492,453856321,map,34.80560617504484,-4.050886066730706,-1.131402850151062,0.00178877123010671,0.01689702550578563,-0.14960793008705583,0.988599392110682
2024/05/14/15:21:32.473562,59410,1715714492,473012115,map,34.80579805574371,-4.050951609038098,-1.131402850151062,0.0017887771618208706,0.016897024877835027,-0.14960827713565117,0.988599339590638
2024/05/14/15:21:32.493541,59411,1715714492,493057480,map,34.80597206162084,-4.051010878949076,-1.131402850151062,0.0017887829550209153,0.01689702426454594,-0.14960861608015383,0.9885992882968935
2024/05/14/15:21:32.513252,59412,1715714492,513025994,map,34.805823945180805,-4.050961193962303,-1.133310079574585,0.0015185410289135538,0.016915075550775895,-0.1496033480488606,0.988600228861407
2024/05/14/15:21:32.533304,59413,1715714492,533050579,map,34.805692322143514,-4.050917273503443,-1.133310079574585,0.0015185280285151728,0.016915076717874032,-0.14960258824160583,0.9886003438415686
2024/05/14/15:21:32.555285,59414,1715714492,552834345,map,34.80557446635507,-4.050878169792246,-1.133310079574585,0.001518515383988837,0.01691507785301444,-0.1496018492332301,0.9886004556737027
2024/05/14/15:21:32.573582,59415,1715714492,573358021,map,34.80546839723834,-4.050843187191219,-1.133310079574585,0.0015185031199724662,0.016915078953986123,-0.1496011324636977,0.9886005641399535
2024/05/14/15:21:32.594229,59416,1715714492,593961577,map,34.805372345361036,-4.050811711411566,-1.133310079574585,0.0015184911481927856,0.016915080028714332,-0.14960043277388627,0.9886006700210762
2024/05/14/15:21:32.613193,59417,1715714492,612986153,map,34.80553070724307,-4.050864429503933,-1.130351185798645,0.0017911596837850994,0.016875977148608227,-0.14960460440974058,0.9886002505976174
2024/05/14/15:21:32.633131,59418,1715714492,632853706,map,34.805671489104874,-4.050910999010612,-1.130351185798645,0.001791151790676693,0.016875977986354446,-0.14960414202886851,0.9886003205694771
2024/05/14/15:21:32.653117,59419,1715714492,652852376,map,34.805797570863824,-4.050952422895262,-1.130351185798645,0.0017911441125879344,0.01687597880127567,-0.14960369224390835,0.9886003886349918
2024/05/14/15:21:32.673224,59420,1715714492,673020972,map,34.80591082873544,-4.05098937016536,-1.130351185798645,0.0017911366693047692,0.016875979591272208,-0.14960325621392814,0.988600454618779
2024/05/14/15:21:32.693509,59421,1715714492,693132484,map,34.8060134926132,-4.051022602607084,-1.130351185798645,0.0017911293987587758,0.016875980362931992,-0.14960283030293994,0.9886005190710839
2024/05/14/15:21:32.713278,59422,1715714492,713066022,map,34.80614009265453,-4.051069483875879,-1.132744312286377,0.0014885523347242045,0.016939829042670246,-0.1495979257079135,0.9886006711649762
2024/05/14/15:21:32.733251,59423,1715714492,733006919,map,34.806252556858006,-4.0511114103986525,-1.132744312286377,0.001488558619722243,0.016939828490387904,-0.1495982924975187,0.9886006156612378
2024/05/14/15:21:32.753130,59424,1715714492,752912955,map,34.80635315720315,-4.0511491758539675,-1.132744312286377,0.0014885647324242757,0.016939827953243496,-0.14959864923199961,0.9886005616789386
2024/05/14/15:21:32.773531,59425,1715714492,773286103,map,34.80644324068185,-4.051183268625433,-1.132744312286377,0.0014885706625235836,0.016939827432142902,-0.14959899530986162,0.98860050930911
2024/05/14/15:21:32.793485,59426,1715714492,793267506,map,34.80652484731177,-4.05121437851111,-1.132744312286377,0.0014885764498723674,0.01693982692358433,-0.1495993330568615,0.9886004581998199
2024/05/14/15:21:32.813495,59427,1715714492,813268211,map,34.80646249833312,-4.051188691242726,-1.1311960220336914,0.0017545351666891852,0.016905845348709578,-0.1496044000752334,0.9885998368791711
2024/05/14/15:21:32.833232,59428,1715714492,832947757,map,34.806407308469055,-4.05116551128345,-1.1311960220336914,0.0017545443363489429,0.016905844397054535,-0.1496049362876402,0.988599755734223
2024/05/14/15:21:32.853055,59429,1715714492,852825254,map,34.8063580936349,-4.0511444266488565,-1.1311960220336914,0.0017545532553321656,0.016905843471410636,-0.14960545784127086,0.9885996768073
2024/05/14/15:21:32.873037,59430,1715714492,872819699,map,34.806313865193125,-4.051125094973968,-1.1311960220336914,0.0017545619032158619,0.016905842573897874,-0.14960596354185526,0.9885996002791563
2024/05/14/15:21:32.892921,59431,1715714492,892761498,map,34.8062740189434,-4.051107300062784,-1.1311960220336914,0.0017545703476556508,0.01690584169749504,-0.14960645734567868,0.988599525551105
2024/05/14/15:21:32.913091,59432,1715714492,912869260,map,34.806588379289245,-4.051217971435398,-1.1311609745025635,0.0017741305288666253,0.01689053869276327,-0.14960655683403085,0.988599737161507
2024/05/14/15:21:32.933901,59433,1715714492,933528104,map,34.806867601290016,-4.0513163416293345,-1.1311609745025635,0.0017741254396782704,0.01689053922731528,-0.1496062589648867,0.9885997822385285
2024/05/14/15:21:32.953066,59434,1715714492,952881977,map,34.80711741528406,-4.051404408621182,-1.1311609745025635,0.001774120490271162,0.016890539747183624,-0.14960596927710604,0.9885998260773631
2024/05/14/15:21:32.973155,59435,1715714492,972926412,map,34.80734149683042,-4.051483487473923,-1.1311609745025635,0.0017741156882774144,0.016890540251566784,-0.14960568821739534,0.9885998686104172
2024/05/14/15:21:32.993081,59436,1715714492,992899258,map,34.807544447192356,-4.051555146480237,-1.1311609745025635,0.0017741110026658299,0.016890540743724276,-0.14960541396950522,0.9885999101125529
2024/05/14/15:21:33.013428,59437,1715714493,13196484,map,34.80709287621092,-4.051394686399718,-1.1298943758010864,0.0017614745620028844,0.01692868438728621,-0.14960562639519637,0.9885992481299912
2024/05/14/15:21:33.033765,59438,1715714493,33126795,map,34.80669199980366,-4.051251967832928,-1.1298943758010864,0.001761485197429031,0.016928683280638502,-0.14960624748150736,0.9885991541402335
2024/05/14/15:21:33.053173,59439,1715714493,52936746,map,34.806333496210705,-4.051124091872716,-1.1298943758010864,0.0017614955414947235,0.016928682204301236,-0.1496068515529686,0.988599062724971
2024/05/14/15:21:33.073130,59440,1715714493,72911347,map,34.806011656519686,-4.051009035419152,-1.1298943758010864,0.0017615055737616042,0.016928681160401655,-0.14960743741602495,0.9885989740648597
2024/05/14/15:21:33.093128,59441,1715714493,92878476,map,34.80572041422519,-4.05090471350201,-1.1298943758010864,0.0017615153669868757,0.016928680141369563,-0.1496080093195437,0.9885988875169375
2024/05/14/15:21:33.113221,59442,1715714493,112994356,map,34.80545557194584,-4.050809656163795,-1.1298943758010864,0.0017615249091586143,0.01692867914845529,-0.1496085665620553,0.988598803187385
2024/05/14/15:21:33.133677,59443,1715714493,133263944,map,34.80576363609142,-4.050917507512177,-1.1321909427642822,0.0016918040672587761,0.016775633557892886,-0.1496077816292911,0.9886016526355252
2024/05/14/15:21:33.153203,59444,1715714493,152947914,map,34.80603833371011,-4.0510136785842175,-1.1321909427642822,0.0016917950060342823,0.01677563447170487,-0.14960724764399622,0.9886017334448274
2024/05/14/15:21:33.173640,59445,1715714493,173422593,map,34.806284704053446,-4.0510999358172946,-1.1321909427642822,0.0016917862093436364,0.016775635358834248,-0.14960672924788126,0.9886018118946984
2024/05/14/15:21:33.193898,59446,1715714493,193556486,map,34.806507010058745,-4.051177764164495,-1.1321909427642822,0.0016917776331080525,0.016775636223726673,-0.14960622384334868,0.9886018883782607
2024/05/14/15:21:33.213264,59447,1715714493,213037212,map,34.80684019222221,-4.051298409627107,-1.141762137413025,0.0016181603515487662,0.016489675016250985,-0.14960714111239298,0.9886066839259744
2024/05/14/15:21:33.233468,59448,1715714493,233234706,map,34.807135533844004,-4.051405800458311,-1.141762137413025,0.0016181673967603878,0.016489674324890652,-0.14960756349447224,0.9886066200062501
2024/05/14/15:21:33.253322,59449,1715714493,253009221,map,34.80739925893868,-4.051502108599293,-1.141762137413025,0.001618174248853791,0.016489673652478477,-0.14960797429851186,0.9886065578384713
2024/05/14/15:21:33.273297,59450,1715714493,273040301,map,34.807635315424314,-4.051588749538643,-1.141762137413025,0.001618180895415846,0.016489673000232827,-0.14960837278030736,0.9886064975352749
2024/05/14/15:21:33.293312,59451,1715714493,293054395,map,34.80784878506175,-4.051667453108559,-1.141762137413025,0.0016181873826830707,0.016489672363616616,-0.14960876171188064,0.9886064386771778
2024/05/14/15:21:33.313256,59452,1715714493,313018439,map,34.80804270010296,-4.051739287121482,-1.141762137413025,0.0016181937036602902,0.016489671743316496,-0.14960914067385006,0.9886063813276582
2024/05/14/15:21:33.333406,59453,1715714493,333075041,map,34.80864593579465,-4.051948814824992,-1.1358038187026978,0.0016261731376978213,0.016136256914353515,-0.1496113869937641,0.9886118599609871
2024/05/14/15:21:33.353324,59454,1715714493,353025708,map,34.809183701666925,-4.05213540964411,-1.1358038187026978,0.0016261749328732647,0.016136256733439953,-0.1496114969778663,0.9886118433165577
2024/05/14/15:21:33.373977,59455,1715714493,373721686,map,34.809664640416194,-4.052302154429417,-1.1358038187026978,0.0016261766730519323,0.016136256558068645,-0.14961160359250833,0.9886118271820333
2024/05/14/15:21:33.393939,59456,1715714493,393699106,map,34.81009897490583,-4.052452541576289,-1.1358038187026978,0.0016261783721761907,0.016136256386834524,-0.1496117076918902,0.9886118114281442
2024/05/14/15:21:33.413257,59457,1715714493,413018004,map,34.811516724269076,-4.052950324668455,-1.1344239711761475,0.0015401755963933643,0.016005713020476705,-0.1496110600288368,0.9886141692929988
2024/05/14/15:21:33.433293,59458,1715714493,433031975,map,34.81277324761315,-4.053391650149564,-1.1344239711761475,0.0015401747255992131,0.016005713104270253,-0.14961100624307688,0.9886141774326183
2024/05/14/15:21:33.453289,59459,1715714493,453026773,map,34.81389519792887,-4.053785818254557,-1.1344239711761475,0.0015401738788056773,0.016005713185754264,-0.14961095393974677,0.9886141853478926
2024/05/14/15:21:33.473166,59460,1715714493,472968188,map,34.814899165645635,-4.0541387906903426,-1.1344239711761475,0.001540173057232218,0.016005713264811386,-0.14961090319416814,0.9886141930274235
2024/05/14/15:21:33.493223,59461,1715714493,493003045,map,34.815807235393294,-4.054458072946083,-1.1344239711761475,0.0015401722557279282,0.016005713341937282,-0.14961085368818833,0.9886142005193582
2024/05/14/15:21:33.513202,59462,1715714493,512948319,map,34.81792442195134,-4.055197276768992,-1.1349663734436035,0.0015963286381404148,0.016083594913517515,-0.14961124704644777,0.9886127879340546
2024/05/14/15:21:33.533652,59463,1715714493,533417822,map,34.819803119036926,-4.05585295872483,-1.1349663734436035,0.0015963281156745452,0.016083594965373278,-0.14961121493195823,0.988612792794085
2024/05/14/15:21:33.553149,59464,1715714493,552904081,map,34.82148237584408,-4.056438748540496,-1.1349663734436035,0.0015963276067250697,0.0160835950158875,-0.1496111836482829,0.9886127975283837
2024/05/14/15:21:33.574002,59465,1715714493,573747988,map,34.827463298593855,-4.058338726943175,-1.1349663734436035,0.0015963271130337228,0.0160835950648873,-0.14961115330248126,0.9886128021207486
2024/05/14/15:21:33.594029,59466,1715714493,593744423,map,34.83229165849732,-4.059878585963021,-1.1349663734436035,0.0015963266301931636,0.01608359511281013,-0.1496111236236466,0.9886128066121778
2024/05/14/15:21:33.613272,59467,1715714493,613020574,map,34.83812762439436,-4.0617932197290445,-1.1379791498184204,0.0015534661021018898,0.016115500675065276,-0.1496102255988897,0.9886124912104393
2024/05/14/15:21:33.635422,59468,1715714493,633280632,map,34.84333921177642,-4.06350032102883,-1.1379791498184204,0.0015534651999287753,0.016115500762030926,-0.1496101702546823,0.9886124995858723
2024/05/14/15:21:33.653909,59469,1715714493,653663976,map,34.848110375021434,-4.065059872070635,-1.1379791498184204,0.0015534643211430363,0.016115500846742077,-0.1496101163451836,0.9886125077441829
2024/05/14/15:21:33.674074,59470,1715714493,673782594,map,34.85897069945299,-4.0684823394344924,-1.1379791498184204,0.0015534634686996283,0.016115500928913902,-0.14961006405166666,0.9886125156579384
2024/05/14/15:21:33.693913,59471,1715714493,693676548,map,34.8679688104025,-4.071325115463996,-1.1379791498184204,0.0015534626352051088,0.01611550100925909,-0.14961001292057752,0.9886125233957772
2024/05/14/15:21:33.713231,59472,1715714493,713017897,map,34.87774185478844,-4.074472957656026,-1.1394020318984985,0.001532247820072918,0.015953587416244933,-0.14960991344985738,0.9886151976692935
2024/05/14/15:21:33.734357,59473,1715714493,733709186,map,34.88663677587204,-4.0773317837757865,-1.1394020318984985,0.001532236984792473,0.015953588456905893,-0.14960924200694986,0.9886152992804005
2024/05/14/15:21:33.753616,59474,1715714493,753106633,map,34.894933209748736,-4.079992166718009,-1.1394020318984985,0.0015322263770154135,0.015953589475709382,-0.14960858466199495,0.988615398757578
2024/05/14/15:21:33.773412,59475,1715714493,773160608,map,34.906691419893214,-4.08370811991591,-1.1394020318984985,0.0015322160312747771,0.01595359046933923,-0.1496079435549448,0.9886154957770137
2024/05/14/15:21:33.793363,59476,1715714493,793086655,map,34.91697789507332,-4.086963093502404,-1.1394020318984985,0.001532205877157682,0.015953591444558508,-0.14960731432244057,0.9886155909990478
2024/05/14/15:21:33.813287,59477,1715714493,813047799,map,34.9280519706084,-4.090519739277409,-1.1385869979858398,0.0015388965027844756,0.01587675774729978,-0.14960660594652136,0.9886169247075176
2024/05/14/15:21:33.838836,59478,1715714493,833689139,map,34.93836786251112,-4.093824752324759,-1.1385869979858398,0.0015388766232149616,0.015876759674166775,-0.1496053680817218,0.9886171120318117
2024/05/14/15:21:33.853342,59479,1715714493,853076748,map,34.94815162404793,-4.09695174754355,-1.1385869979858398,0.0015388568238951794,0.015876761593230433,-0.14960413521384391,0.9886172985983529
2024/05/14/15:21:33.873286,59480,1715714493,873024536,map,34.96050468775585,-4.10085902784775,-1.1385869979858398,0.0015388372237844423,0.015876763492961066,-0.14960291475027104,0.9886174832862357
2024/05/14/15:21:33.894264,59481,1715714493,893556569,map,34.9716831494758,-4.104396161186857,-1.1385869979858398,0.001538817728403235,0.01587676538251661,-0.14960170080793594,0.9886176669857565
2024/05/14/15:21:33.913684,59482,1715714493,913429444,map,34.98355096877742,-4.108190975692915,-1.144785761833191,0.0016184409274251472,0.01568581828494154,-0.14959820837550816,0.9886211164063483
2024/05/14/15:21:33.933520,59483,1715714493,933276763,map,34.99477199728389,-4.111769655705622,-1.144785761833191,0.0016183503494048984,0.01568582763039146,-0.14959249956552964,0.9886219802469666
2024/05/14/15:21:33.953343,59484,1715714493,953031130,map,35.00552919431873,-4.115192051105081,-1.144785761833191,0.001618260451957679,0.015685836905100118,-0.14958683364807573,0.9886228375638707
2024/05/14/15:21:33.973304,59485,1715714493,973052527,map,35.01874395289466,-4.119360151153142,-1.144785761833191,0.001618171594421653,0.015685846072009568,-0.14958123327100215,0.9886236849311382
2024/05/14/15:21:33.993458,59486,1715714493,993208772,map,35.03089751374202,-4.123193124968943,-1.144785761833191,0.0016180834153528526,0.01568585516842264,-0.14957567565381483,0.9886245257965237
2024/05/14/15:21:34.013294,59487,1715714494,13069350,map,35.04300418862149,-4.127021109847745,-1.143517255783081,0.0018884911378284825,0.015691845941818314,-0.1495693449721013,0.9886249089603079
2024/05/14/15:21:34.033381,59488,1715714494,33128672,map,35.05456417069917,-4.1306666631512465,-1.143517255783081,0.0018883258123599687,0.015691865837617645,-0.14955892905905285,0.9886264847306437
2024/05/14/15:21:34.053368,59489,1715714494,53058664,map,35.065744392014324,-4.134184479643072,-1.143517255783081,0.001888160103940592,0.015691885777729318,-0.14954848901574647,0.988628064038882
2024/05/14/15:21:34.073291,59490,1715714494,73031985,map,35.07937813001569,-4.138447820750211,-1.143517255783081,0.0018879945665228005,0.015691905695491448,-0.14953805974256001,0.9886296416052833
2024/05/14/15:21:34.093305,59491,1715714494,93080761,map,35.09204855741711,-4.142408578611012,-1.143517255783081,0.001887828963090969,0.01569192561942388,-0.14952762630691696,0.9886312196887065
2024/05/14/15:21:34.113380,59492,1715714494,113158446,map,35.10509943353654,-4.14652213354795,-1.1487514972686768,0.0018323695748720817,0.015572300668629246,-0.1495189092247319,0.9886345339193211
